~Version ---------------------------------------------------
VERS.   2.0 : CWLS log ASCII Standard -VERSION 2.0
WRAP.    NO : One line per depth step
DLM . SPACE : Column Data Section Delimiter
~Well ------------------------------------------------------
STRT.ft              16.5 : START DEPTH
STOP.ft            1462.0 : STOP DEPTH
STEP.ft               0.5 : STEP
NULL.             -999.25 : NULL VALUE
COMP.                     : COMPANY
WELL.           Umiat #18 : WELL
FLD .       Linc_Umiat_18 : FIELD
LOC .                     : LOCATION
PROV.                     : PROVINCE
CNTY.                     : COUNTY
STAT.                     : STATE
CTRY.                     : COUNTRY
SRVC. TERRASCIENCES, Inc. : SERVICE COMPANY
DATE.                     : DATE
UWI .           Umiat #18 : UNIQUE WELL ID
API .           Umiat #18 : API NUMBER
~Curve Information -----------------------------------------
TDEP     .ft     : Measured Depth
QUAF2    .       : 
EHGR_EDTC.gAPI   : High Resolution Corrected Gamma Ray
HGR_EDTC .gAPI   : High Resolution Gamma Ray
HCAL     .in     : HRCC Caliper Calibrated
NPHI     .%/100  : Thermal Neutron Porosity (original Ratio Method) in Selected
GR       .gAPI   : Gamma Ray
AF10     .ohm.m  : Array Induction Four Foot Resistivity A10
AF20     .ohm.m  : Array Induction Four Foot Resistivity A20
AF30     .ohm.m  : Array Induction Four Foot Resistivity A30
AF60     .ohm.m  : Array Induction Four Foot Resistivity A60
AF90     .ohm.m  : Array Induction Four Foot Resistivity A90
AO10     .ohm.m  : Array Induction One Foot Resistivity A10
AO30     .ohm.m  : Array Induction One Foot Resistivity A30
AO60     .ohm.m  : Array Induction One Foot Resistivity A60
AO90     .ohm.m  : Array Induction One Foot Resistivity A90
AT10     .ohm.m  : Array Induction Two Foot Resistivity A10
AT20     .ohm.m  : Array Induction Two Foot Resistivity A20
AT30     .ohm.m  : Array Induction Two Foot Resistivity A30
AT60     .ohm.m  : Array Induction Two Foot Resistivity A60
AT90     .ohm.m  : Array Induction Two Foot Resistivity A90
HMIN     .ohm.m  : HIP Micro Inverse Resistivity
HMNO     .ohm.m  : HIP Micro Normal Resistivity
RXOZ     .ohm.m  : Invaded Formation Resistivity filtered at 18 inches
DPHZ     .%/100  : Standard Resolution Density Porosity
~Params ----------------------------------------------------
PROD   .            TerraStation II : 
PROG   .                         [] : 
RUN    .                         [] : 
DESCENT.                         [] : 
VERSION.                            : 
LINEAGE. Python-converted from DLIS : 
ORFILE .          DynamicImage.dlis : 
~Other -----------------------------------------------------
~ASCII -----------------------------------------------------
# ...
 1437.50000 -999.25000 -999.25000 -999.25000    9.05640    0.30600  121.26050   12.59610   57.91190   84.71030   50.16410   49.23700   12.18610   55.44540   36.00930   39.47810   12.33430   54.83470   71.71120   45.40590   42.39690 -999.25000 -999.25000 -999.25000 -999.25000
 1438.00000 -999.25000 -999.25000 -999.25000    9.05640    0.30600  121.26050   12.81950   61.91250   93.12640   53.63020   51.80670   13.09140   77.47460   42.91820   47.94170   12.83060   66.84520   90.44380   53.02250   49.01450 -999.25000 -999.25000 -999.25000 -999.25000
 1438.50000 -999.25000 -999.25000 -999.25000    9.06840    0.30600  121.26050   13.07030   68.03780  105.72660   58.31030   55.32820   13.29500   94.11090   46.26590   52.26060   13.21970   80.26190  110.91840   59.89680   53.68720 -999.25000 -999.25000 -999.25000 -999.25000
 1439.00000 -999.25000 -999.25000 -999.25000    9.05640    0.30600  121.26050   13.28060   74.90900  121.77380   63.80540   58.97200   13.33860   96.37380   50.59980   57.44810   13.39470   87.71040  128.08569   65.33100   57.21660 -999.25000 -999.25000 -999.25000 -999.25000
 1439.50000 -999.25000 -999.25000 -999.25000    9.06300    0.30600  121.26050   13.51040   82.97100  141.60921   69.36680   63.12920   13.58820  111.16190   52.58300   60.01590   13.63520   97.02950  149.95171   70.93140   59.51500 -999.25000 -999.25000 -999.25000 -999.25000
 1440.00000 -999.25000 -999.25000 -999.25000    9.06300    0.30600  121.26050   13.69400   90.32110  162.52431   74.42720   67.41990   13.78290  129.34520   56.92980   65.71040   13.82710  108.04640  176.34801   77.29980   63.85240 -999.25000 -999.25000 -999.25000 -999.25000
 1440.50000 -999.25000 -999.25000 -999.25000    9.06300    0.30600  121.26050   13.80350   96.53970  183.33279   78.62200   70.78430   13.92500  140.76990   60.61220   70.56480   13.96290  121.12340  204.91580   83.34490   68.38450 -999.25000 -999.25000 -999.25000 -999.25000
 1441.00000 -999.25000 -999.25000 -999.25000    9.06300    0.30600  121.26050   13.87130  100.55980  200.61909   81.68590   73.19180   14.00320  157.15190   61.76880   72.00800   13.98910  129.45090  229.65950   87.51060   70.98950 -999.25000 -999.25000 -999.25000 -999.25000
 1441.50000 -999.25000 -999.25000 -999.25000    9.06300    0.30600  121.26050   13.90570  101.57600  209.85730   82.95760   74.18770   13.97920  151.80310   58.60070   67.52940   13.95760  123.12020  227.92180   85.98250   70.16070 -999.25000 -999.25000 -999.25000 -999.25000
 1442.00000 -999.25000 -999.25000 -999.25000    9.06300    0.30600  121.26050   13.92050  100.85120  210.88251   82.03270   73.85630   14.06450  152.00909   58.27470   67.11270   13.93120  119.93610  223.15590   82.64770   68.43420 -999.25000 -999.25000 -999.25000 -999.25000
 1442.50000 -999.25000 -999.25000 -999.25000    9.06300    0.30600  121.26050   13.90580   98.79980  204.09129   80.28430   72.94920   13.95350  147.85539   58.46410   67.19120   13.97450  119.60630  216.94810   80.51710   68.12850 -999.25000 -999.25000 -999.25000 -999.25000
 1443.00000 -999.25000 -999.25000 -999.25000    9.06300    0.30600  121.26050   13.84920   94.89180  189.40320   78.03280   71.57500   14.04530  144.46201   58.85550   67.52590   14.01370  118.58380  212.45351   80.98140   69.86050 -999.25000 -999.25000 -999.25000 -999.25000
 1443.50000 -999.25000 -999.25000 -999.25000    9.06300    0.30600  121.26050   13.74600   88.57760  169.06360   75.10390   68.70070   14.07370  142.73309   60.60170   69.60330   13.91110  109.91540  188.79590   78.31050   67.11720 -999.25000 -999.25000 -999.25000 -999.25000
 1444.00000 -999.25000 -999.25000 -999.25000    9.06300    0.30600  121.26050   13.58930   81.60470  148.27730   70.51050   65.05270   13.68720  116.51730   55.89880   63.27020   13.67560   94.56820  158.10629   72.02580   62.52910 -999.25000 -999.25000 -999.25000 -999.25000
 1444.50000 -999.25000 -999.25000 -999.25000    9.06300    0.30600  121.26050   13.38560   74.61670  129.03281   65.55720   60.96910   13.37010   98.48760   49.37310   55.09390   13.42460   84.16580  133.65089   66.00910   57.59040 -999.25000 -999.25000 -999.25000 -999.25000
 1445.00000 -999.25000 -999.25000 -999.25000    9.06300    0.30600  121.26050   13.15990   68.29900  112.63670   60.81500   56.90920   13.32770   96.85450   50.49710   56.48210   13.19630   76.11030  115.18210   62.16430   54.92060 -999.25000 -999.25000 -999.25000 -999.25000
 1445.50000 -999.25000 -999.25000 -999.25000    9.06300    0.30600  121.26050   12.94620   62.70490   99.26560   57.13420   53.64770   12.88210   79.51800   45.53980   50.22960   12.90040   67.85820   97.49790   57.11440   50.45550 -999.25000 -999.25000 -999.25000 -999.25000
 1446.00000 -999.25000 -999.25000 -999.25000    9.06300    0.30600  121.26050   12.75720   58.44370   89.30810   52.98780   50.35930   12.81240   64.95910   40.85270   44.50700   12.60720   60.29290   82.95570   51.36430   45.60170 -999.25000 -999.25000 -999.25000 -999.25000
 1446.50000 -999.25000 -999.25000 -999.25000    9.06300    0.30600  121.26050   12.61930   55.68650   82.80490   49.96340   47.84210   12.33950   57.05650   37.79380   40.91000   12.42680   55.76450   75.20940   46.57220   42.51630 -999.25000 -999.25000 -999.25000 -999.25000
 1447.00000 -999.25000 -999.25000 -999.25000    9.06300    0.30600  121.26050   12.53930   54.06160   78.92560   48.60890   46.47900   12.67720   64.82960   40.36630   43.78220   12.43570   56.60820   75.79890   46.91360   42.87090 -999.25000 -999.25000 -999.25000 -999.25000
 1447.50000 -999.25000 -999.25000 -999.25000    9.06300    0.30600  121.26050   12.50560   53.22350   76.88120   47.92220   45.82730   12.39350   61.74580   39.77600   42.94120   12.56640   57.79170   76.08790   47.03600   42.86510 -999.25000 -999.25000 -999.25000 -999.25000
 1448.00000 -999.25000 -999.25000 -999.25000    9.06300    0.30600  121.26050   12.47620   52.95070   76.13330   47.71440   45.52060   12.61160   63.20980   39.91530   43.01970   12.54700   58.42680   76.31930   47.58240   42.58390 -999.25000 -999.25000 -999.25000 -999.25000
 1448.50000 -999.25000 -999.25000 -999.25000    9.06300    0.30600  121.26050   12.44950   52.66430   75.66740   47.77900   45.34280   12.52610   65.77930   40.06710   43.14120   12.46590   57.18350   74.13360   46.84160   41.71860 -999.25000 -999.25000 -999.25000 -999.25000
 1449.00000 -999.25000 -999.25000 -999.25000    9.06300    0.30600  121.26050   12.42490   52.38210   75.67990   48.09740   45.30650   12.04750   56.47570   37.12710   39.62640   12.29190   54.77970   73.04050   46.80720   41.37040 -999.25000 -999.25000 -999.25000 -999.25000
 1449.50000 -999.25000 -999.25000 -999.25000    9.06300    0.30600  121.26050   12.43100   52.23280   75.99050   48.72990   45.35660   12.34330   62.86680   39.66910   42.47510   12.36680   55.10600   73.96300   48.54940   41.88580 -999.25000 -999.25000 -999.25000 -999.25000
 1450.00000 -999.25000 -999.25000 -999.25000    9.06300    0.30600  121.26050   12.45580   52.82980   77.53520   49.72200   45.82390   12.64820   72.49690   44.43730   47.89160   12.48260   57.07450   78.11930   49.80860   43.49810 -999.25000 -999.25000 -999.25000 -999.25000
 1450.50000 -999.25000 -999.25000 -999.25000    9.06300    0.30600  121.26050   12.48030   53.17020   79.04980   50.30060   46.49980   12.44990   65.12200   42.78430   45.77680   12.52830   57.50100   78.50510   50.17900   43.86120 -999.25000 -999.25000 -999.25000 -999.25000
 1451.00000 -999.25000 -999.25000 -999.25000    9.06300    0.30600  121.26050   12.49220   53.56460   80.09460   50.92620   46.87930   12.51960   65.16620   45.09150   48.36540   12.55630   57.91800   81.02170   51.73930   45.35600 -999.25000 -999.25000 -999.25000 -999.25000
 1451.50000 -999.25000 -999.25000 -999.25000    9.06300    0.30600  121.26050   12.48590   54.29010   81.59950   51.65230   47.46540   12.53100   68.44130   45.78390   49.02070   12.52090   58.62920   82.13870   51.74110   45.92010 -999.25000 -999.25000 -999.25000 -999.25000
