~Version ---------------------------------------------------
VERS.   2.0 : CWLS log ASCII Standard -VERSION 2.0
WRAP.    NO : One line per depth step
DLM . SPACE : Column Data Section Delimiter
~Well ------------------------------------------------------
STRT.ft              16.5 : START DEPTH
STOP.ft            1462.0 : STOP DEPTH
STEP.ft               0.5 : STEP
NULL.             -999.25 : NULL VALUE
COMP.                     : COMPANY
WELL.           Umiat #18 : WELL
FLD .       Linc_Umiat_18 : FIELD
LOC .                     : LOCATION
PROV.                     : PROVINCE
CNTY.                     : COUNTY
STAT.                     : STATE
CTRY.                     : COUNTRY
SRVC. TERRASCIENCES, Inc. : SERVICE COMPANY
DATE.                     : DATE
UWI .           Umiat #18 : UNIQUE WELL ID
API .           Umiat #18 : API NUMBER
~Curve Information -----------------------------------------
TDEP     .ft     : Measured Depth
QUAF2    .       : 
EHGR_EDTC.gAPI   : High Resolution Corrected Gamma Ray
HGR_EDTC .gAPI   : High Resolution Gamma Ray
HCAL     .in     : HRCC Caliper Calibrated
NPHI     .%/100  : Thermal Neutron Porosity (original Ratio Method) in Selected
GR       .gAPI   : Gamma Ray
AF10     .ohm.m  : Array Induction Four Foot Resistivity A10
AF20     .ohm.m  : Array Induction Four Foot Resistivity A20
AF30     .ohm.m  : Array Induction Four Foot Resistivity A30
AF60     .ohm.m  : Array Induction Four Foot Resistivity A60
AF90     .ohm.m  : Array Induction Four Foot Resistivity A90
AO10     .ohm.m  : Array Induction One Foot Resistivity A10
AO30     .ohm.m  : Array Induction One Foot Resistivity A30
AO60     .ohm.m  : Array Induction One Foot Resistivity A60
AO90     .ohm.m  : Array Induction One Foot Resistivity A90
AT10     .ohm.m  : Array Induction Two Foot Resistivity A10
AT20     .ohm.m  : Array Induction Two Foot Resistivity A20
AT30     .ohm.m  : Array Induction Two Foot Resistivity A30
AT60     .ohm.m  : Array Induction Two Foot Resistivity A60
AT90     .ohm.m  : Array Induction Two Foot Resistivity A90
HMIN     .ohm.m  : HIP Micro Inverse Resistivity
HMNO     .ohm.m  : HIP Micro Normal Resistivity
RXOZ     .ohm.m  : Invaded Formation Resistivity filtered at 18 inches
DPHZ     .%/100  : Standard Resolution Density Porosity
~Params ----------------------------------------------------
PROD   .            TerraStation II : 
PROG   .                         [] : 
RUN    .                         [] : 
DESCENT.                         [] : 
VERSION.                            : 
LINEAGE. Python-converted from DLIS : 
ORFILE .          DynamicImage.dlis : 
~Other -----------------------------------------------------
~ASCII -----------------------------------------------------
# ...
 1075.00000 -999.25000  104.03866  102.35637    9.00860    0.28690  102.31910   39.28620   44.65130   56.09830   54.27120   55.46830   43.49800   62.79280   57.42070   59.96480   40.68650   47.41470   58.94180   55.93240   56.54070  394.30249  382.28281  284.59369    0.03990
 1075.50000 -999.25000  107.55143  105.82101    8.96070    0.29000  102.93060   39.98130   45.83290   57.84700   55.60790   56.77850   39.87980   56.36240   52.23530   54.46460   40.09310   47.57240   58.74340   56.06510   55.95290  409.29291  399.56619 3416.92017    0.03210
 1076.00000   18.00000  112.61683  110.68777    8.96070    0.29730   99.66940   40.70470   46.88990   59.43820   57.43810   57.95610   38.37980   53.94300   51.92930   54.16570   40.28590   47.21090   58.33770   55.98730   55.53020 1802.06885 1630.64551  371.94211    0.02560
 1076.50000 -999.25000  100.77058   99.14114    9.00860    0.27170   96.61200   41.56030   47.97930   61.13380   59.23060   59.38200   37.67110   52.16950   48.22530   50.28570   40.16260   47.02740   58.34760   56.46800   55.19200   34.71740   30.67910   47.08600    0.02520
 1077.00000 -999.25000   94.19199   92.66892    9.05640    0.25420   87.23600   42.60940   49.08760   62.95720   61.50530   60.99650   42.72260   61.23280   55.57130   58.02020   42.62970   50.51580   63.15010   61.22970   59.82140   18.81180   16.61640   37.98710    0.03050
 1077.50000 -999.25000   91.13501   89.74847    9.05640    0.23460   84.58680   43.44970   50.00870   64.51180   63.65090   62.98180   50.50900   72.87170   65.15520   68.24130   45.76790   54.08230   69.01110   68.65470   66.15540   57.21100   50.62550   51.97380    0.03760
 1078.00000   15.00000   87.45043   85.95246    9.03250    0.22140   78.26780   43.80360   50.40630   65.19890   64.15040   63.74780   48.29890   70.16100   65.29440   68.48030   46.09080   54.61650   69.93990   70.19680   67.06270  148.71320  144.73660  231.86990    0.04610
 1078.50000 -999.25000   86.98347   85.58397    8.93680    0.23130   81.52920   43.60110   49.88840   64.45380   63.32370   62.86620   45.48680   66.28160   64.04980   67.23410   45.01960   52.63310   67.19990   66.46210   63.86070  574.05188  547.50842 3685.76880    0.04930
 1079.00000 -999.25000   94.98408   93.26620    8.96070    0.24090   82.95590   42.89460   48.54590   62.67600   61.66470   61.24560   41.99730   62.76830   60.72930   63.68630   42.88570   49.51550   63.10530   62.94420   60.90740 1021.83630  938.43268  186.97740    0.04820
 1079.50000 -999.25000  103.10668  101.34943    9.00860    0.26090   90.70120   41.84960   47.58720   61.32770   60.09200   59.85340   39.30340   55.83230   56.29140   58.95100   41.46680   47.91060   60.51170   58.72750   58.26780   44.26610   39.14060   83.73360    0.04100
 1080.00000   13.00000   92.93983   91.34783    9.05640    0.28540   98.24260   40.92530   46.45250   59.60860   58.05410   58.08590   40.76720   59.24530   53.67160   56.06240   40.29080   46.55440   58.56260   56.79760   55.72610   36.96340   32.66720   61.33420    0.04220
 1080.50000 -999.25000  103.92188  101.89407    9.10430    0.29420  101.29970   40.23950   45.79820   58.77320   57.35430   57.08770   38.80390   54.99130   52.07290   54.28720   39.33870   45.79980   57.24850   55.58100   54.19290   89.39900   79.55160  111.89270    0.03930
 1081.00000 -999.25000  104.18249  102.29824    9.05640    0.29430  102.52280   40.22510   45.91620   58.91230   57.35430   57.12490   36.26600   50.49120   48.31570   50.30640   38.45680   44.39370   55.34180   53.73500   52.16790  495.94391  475.59671  220.99319    0.04400
 1081.50000 -999.25000  103.16796  101.49975    8.98460    0.28070  100.68880   40.58070   46.40390   59.43940   57.84140   57.58160   39.80700   55.53730   52.67860   54.93470   40.06850   46.58160   58.50610   56.72250   54.78630  972.06860  897.96558 3868.23267    0.04390
 1082.00000   17.00000  106.87692  104.90091    8.98460    0.27200   94.98200   40.64630   46.56970   59.93830   58.35280   57.89350   43.33070   62.97880   60.61400   63.28700   41.90820   49.26490   62.20370   59.59530   57.51800  821.16962  748.61169  316.14279    0.04660
 1082.50000 -999.25000   99.43812   97.63968    9.03250    0.26850   88.05190   40.84190   46.95250   60.56450   59.11770   58.39510   44.82670   63.77550   61.21660   64.00580   43.46730   51.18290   64.00680   62.22960   59.41670   85.99870   76.20420  134.46370    0.04520
 1083.00000 -999.25000   93.10557   91.03106    9.15220    0.29520   89.47830   40.57890   46.61240   60.29450   59.20090   58.75190   42.28720   63.77000   60.70790   63.44970   41.46670   49.11440   62.25120   60.74750   57.99500   45.57450   40.30140   58.63090    0.03520
 1083.50000 -999.25000   87.81423   86.01730    9.10430    0.30010   95.79710   40.03980   46.04050   59.94950   59.10830   58.62190   37.74100   54.28270   54.22360   56.55470   38.76730   45.34410   58.21790   57.41040   54.75730   39.53340   34.94200   72.81150    0.02470
 1084.00000 -999.25000  101.95473  100.11078    9.08040    0.30120  101.50380   39.65930   45.75230   59.43150   58.93720   58.55100   36.60500   52.94060   52.13510   54.31020   38.14290   44.25050   56.72110   56.72230   54.04880  157.38480  150.11310  107.48840    0.01610
 1084.50000 -999.25000  104.72470  102.83065    8.96070    0.27110   94.77770   39.26540   45.44810   58.96540   58.67140   58.20830   41.00340   59.01520   57.04230   59.50200   39.22650   46.24210   59.10040   59.07210   56.63880  240.86459  253.12660  436.37250    0.01670
 1085.00000 -999.25000   94.77226   93.05821    8.96070    0.26060   89.27420   39.11150   45.29730   58.60610   58.55820   58.06400   38.50320   58.53330   57.71820   60.20500   39.47830   47.07360   59.90480   59.67200   58.05120   89.08280   78.94740  105.14350    0.02390
 1085.50000 -999.25000   95.11552   93.49446    9.03250    0.25200   83.77120   38.57620   44.73000   57.56220   57.68920   57.12250   39.81350   59.70230   58.69510   61.22770   39.67630   47.08940   60.07910   60.01380   59.18630   41.63870   36.80950   65.15750    0.03200
 1086.00000 -999.25000   84.73342   83.32968    9.05640    0.23910   87.44020   37.61590   43.56960   55.60760   55.85800   55.20550   39.31070   56.87030   55.56530   57.86710   38.62890   45.84920   58.15960   56.54440   56.27490   33.17660   29.31520   48.06390    0.03350
 1086.50000 -999.25000   88.36973   86.86364    9.06840    0.25170   89.27470   36.11950   41.69030   52.63310   52.86410   52.51120   37.26810   54.89920   54.43780   56.69800   37.93320   44.60820   55.25760   55.61810   55.62120   38.15390   33.72090   72.15470    0.03110
 1087.00000 -999.25000   99.79297   98.18738    9.03250    0.26590   93.96250   34.15330   39.17520   48.84290   49.05450   49.04320   36.53210   51.86750   51.20970   53.16640   35.38580   41.77610   51.00760   50.92780   51.39060  276.29089  279.44312  170.62981    0.02770
 1087.50000 -999.25000   96.88315   95.40976    8.93680    0.28830   92.33160   32.38210   36.94640   45.60340   46.00450   46.03340   33.88700   49.08520   48.75490   50.43330   32.21550   37.33680   45.70000   46.59750   47.38080  410.29510  399.89670 3230.55249    0.03300
 1088.00000   11.00000   93.00146   91.50514    8.96070    0.27080   93.96200   30.90590   35.12010   42.93540   43.13200   43.54160   26.97710   35.26700   35.17830   36.28870   28.31420   32.39130   38.58580   38.40930   39.40800  187.00591  178.03300  114.86320    0.03120
 1088.50000 -999.25000  110.35744  108.62638    8.98460    0.28820   97.33910   30.15470   34.21570   41.56630   41.46810   42.24380   24.87450   32.64330   32.62330   33.48290   27.24480   30.51900   36.17500   36.11310   36.95420   23.04090   20.35100   39.35340    0.02860
 1089.00000 -999.25000   95.15435   93.71123    9.03250    0.27470  103.36360   30.22090   34.37500   41.66290   41.40460   42.03360   31.11640   39.38550   37.93460   39.12480   29.38190   33.89310   39.98240   39.64790   40.35730   15.06110   13.30970   28.12740    0.02510
