~Version ---------------------------------------------------
VERS.   2.0 : CWLS log ASCII Standard -VERSION 2.0
WRAP.    NO : One line per depth step
DLM . SPACE : Column Data Section Delimiter
~Well ------------------------------------------------------
STRT.ft              16.5 : START DEPTH
STOP.ft            1462.0 : STOP DEPTH
STEP.ft               0.5 : STEP
NULL.             -999.25 : NULL VALUE
COMP.                     : COMPANY
WELL.           Umiat #18 : WELL
FLD .       Linc_Umiat_18 : FIELD
LOC .                     : LOCATION
PROV.                     : PROVINCE
CNTY.                     : COUNTY
STAT.                     : STATE
CTRY.                     : COUNTRY
SRVC. TERRASCIENCES, Inc. : SERVICE COMPANY
DATE.                     : DATE
UWI .           Umiat #18 : UNIQUE WELL ID
API .           Umiat #18 : API NUMBER
~Curve Information -----------------------------------------
TDEP     .ft     : Measured Depth
QUAF2    .       : 
EHGR_EDTC.gAPI   : High Resolution Corrected Gamma Ray
HGR_EDTC .gAPI   : High Resolution Gamma Ray
HCAL     .in     : HRCC Caliper Calibrated
NPHI     .%/100  : Thermal Neutron Porosity (original Ratio Method) in Selected
GR       .gAPI   : Gamma Ray
AF10     .ohm.m  : Array Induction Four Foot Resistivity A10
AF20     .ohm.m  : Array Induction Four Foot Resistivity A20
AF30     .ohm.m  : Array Induction Four Foot Resistivity A30
AF60     .ohm.m  : Array Induction Four Foot Resistivity A60
AF90     .ohm.m  : Array Induction Four Foot Resistivity A90
AO10     .ohm.m  : Array Induction One Foot Resistivity A10
AO30     .ohm.m  : Array Induction One Foot Resistivity A30
AO60     .ohm.m  : Array Induction One Foot Resistivity A60
AO90     .ohm.m  : Array Induction One Foot Resistivity A90
AT10     .ohm.m  : Array Induction Two Foot Resistivity A10
AT20     .ohm.m  : Array Induction Two Foot Resistivity A20
AT30     .ohm.m  : Array Induction Two Foot Resistivity A30
AT60     .ohm.m  : Array Induction Two Foot Resistivity A60
AT90     .ohm.m  : Array Induction Two Foot Resistivity A90
HMIN     .ohm.m  : HIP Micro Inverse Resistivity
HMNO     .ohm.m  : HIP Micro Normal Resistivity
RXOZ     .ohm.m  : Invaded Formation Resistivity filtered at 18 inches
DPHZ     .%/100  : Standard Resolution Density Porosity
~Params ----------------------------------------------------
PROD   .            TerraStation II : 
PROG   .                         [] : 
RUN    .                         [] : 
DESCENT.                         [] : 
VERSION.                            : 
LINEAGE. Python-converted from DLIS : 
ORFILE .          DynamicImage.dlis : 
~Other -----------------------------------------------------
~ASCII -----------------------------------------------------
# ...
 1249.00000 -999.25000  105.20196  103.80958    8.96070    0.30870   99.87350   29.63980   33.75950   40.36100   39.99750   40.08700   30.91960   40.13800   38.06570   39.26760   29.88550   34.54510   40.70120   40.43040   39.99780   75.15480  106.07770  670.94818    0.04590
 1249.50000 -999.25000   94.86082   93.55158    8.91290    0.27640   93.55440   30.38290   34.58520   41.44450   40.73910   40.88760   32.15050   43.46420   38.94750   40.24480   31.38600   36.77240   43.41720   42.27890   41.25160  904.21912  836.03400  162.50890    0.03690
 1250.00000   18.00000  102.38592  100.97282    8.93680    0.27330   93.55450   30.99650   35.33610   42.45950   41.53950   41.66630   31.60860   41.68710   40.22800   41.56630   32.05490   37.06360   43.40490   42.18050   41.61520   69.01470   61.10890  108.81020    0.02720
 1250.50000 -999.25000   85.86152   84.72511    8.98460    0.27630   91.42570   31.39710   35.77780   43.12820   42.16930   42.22060   31.31600   42.00400   40.62330   41.99690   31.59770   36.59210   43.32570   41.95220   41.63470   39.47160   34.88750   52.49310    0.03000
 1251.00000 -999.25000  100.08424   98.75119    9.03250    0.29100   94.07590   31.57820   35.90620   43.42820   42.65840   42.64560   31.64860   42.77660   40.41740   41.78190   31.31030   36.61350   43.71170   42.49820   42.15260   32.43840   28.66160   70.73880    0.03610
 1251.50000 -999.25000   95.98631   94.76234    8.98460    0.27270   92.44540   31.50300   35.76600   43.29660   42.89190   42.96110   32.87010   44.81050   42.36400   43.82080   32.21250   37.34710   44.79300   43.97450   43.59580  263.50580  244.89931  126.00050    0.03890
 1252.00000   18.00000   80.57416   79.46210    8.92480    0.28190   91.31320   31.15610   35.07570   42.43610   42.13420   42.29610   34.86320   47.99720   45.88190   47.42630   32.62750   37.77040   45.26480   44.68840   44.18090 1145.37634 1047.47363 1074.27100    0.03310
 1252.50000 -999.25000   94.59756   93.39130    8.92480    0.30870   89.88600   30.47360   34.38980   41.64410   41.42440   41.62720   30.99920   40.99950   40.87270   42.23840   30.65390   35.06540   41.48110   41.41930   40.75650  161.70010  143.59821  228.10660    0.01860
 1253.00000 -999.25000  103.63120  102.25059    8.97270    0.34550   98.44690   29.98600   33.84930   40.79660   40.86090   41.08730   26.12650   35.60980   36.38770   37.54460   28.94010   32.89730   39.00270   39.68610   38.64960   87.36620   77.42050  110.81270    0.01420
 1253.50000 -999.25000  108.54025  107.15620    9.00860    0.36390  100.07700   29.54690   33.30490   40.01920   39.84950   40.09360   28.59970   37.51080   37.79010   38.98090   28.33950   32.22340   38.28560   38.22380   37.88680   56.17310   49.70470   74.23850    0.02770
 1254.00000   18.00000  111.53002  110.04489    8.98460    0.35950  102.72680   29.31330   33.21030   39.85790   39.60350   39.88160   29.50270   39.14740   38.17950   39.36730   28.99780   33.33200   39.32240   38.87320   38.86540   67.52860   59.78850  106.02570    0.04440
 1254.50000 -999.25000  100.09166   98.71858    8.93680    0.33700   99.08690   29.37400   33.17120   39.69220   39.36030   39.54900   28.86000   37.52620   37.62430   38.77010   29.47170   33.84600   39.92130   39.67840   39.57320  541.51758  518.16937  274.48749    0.04850
 1255.00000 -999.25000  106.36455  104.99957    8.91290    0.35210   97.25310   29.24400   33.07980   39.55790   39.15750   39.41100   31.43440   43.73300   41.43970   42.75590   29.63670   34.07970   40.07470   38.43450   39.32460  111.89870  131.99190 1134.51453    0.04170
 1255.50000 -999.25000   97.66840   96.32857    8.93680    0.31650   99.29110   29.09640   32.93140   39.35700   39.10070   39.30190   28.47650   38.58100   38.06760   39.22280   29.65360   34.10440   40.15970   39.46710   39.49570  153.59500  147.28461  223.08369    0.02860
 1256.00000   18.00000  101.44020  100.08908    8.98460    0.31040  101.70780   28.79170   32.47500   38.76590   38.72790   38.67790   31.95840   40.16350   39.51240   40.72660   30.05040   33.71860   39.39710   39.22210   38.85360   49.81520   44.06390   92.43390    0.03220
 1256.50000 -999.25000  113.18456  111.63187    9.00860    0.29210  104.76470   28.38480   32.04150   38.22270   38.48080   38.09920   28.10320   37.87460   37.48280   38.59160   28.20260   32.30090   38.11040   38.15100   37.77040   60.25990   53.33140  104.08400    0.03720
 1257.00000 -999.25000  112.65884  111.15868    8.97270    0.31980  104.19860   28.09510   31.66640   37.78510   38.04860   37.71490   24.84910   31.63540   32.78350   33.72780   26.90270   30.56180   35.77020   36.60750   35.55710  611.14893  572.62750  233.91890    0.04970
 1257.50000 -999.25000  118.31196  116.68893    8.93680    0.33470  106.20760   28.15370   31.67990   37.90550   38.03480   37.98380   26.25410   33.87060   33.24030   34.15900   26.23090   29.90650   35.38730   35.64460   35.01010  888.57147  822.60352  768.89423    0.05180
 1258.00000   18.00000  109.46800  108.06319    8.92480    0.33340  106.41190   28.58370   32.37310   38.84630   38.65450   39.01030   26.66430   36.12310   35.26330   36.26280   27.17740   31.74950   37.78490   37.70370   37.15570   59.77020   54.08920   33.97120    0.05140
 1258.50000 -999.25000  120.34869  118.69772    8.96070    0.31490  105.34730   29.17450   33.07330   39.76650   39.38410   40.09090   29.86610   41.41550   40.14120   41.34620   30.10570   34.74440   41.05110   40.48200   40.12260   12.29560   10.87150   25.07200    0.05140
 1259.00000 -999.25000  111.05812  109.52534    9.00860    0.28080   97.97080   29.55130   33.60920   40.46730   39.77690   40.77210   34.58170   48.41830   45.78410   47.20980   32.80130   38.87500   45.58850   44.36690   44.36180   23.19530   20.48740   23.99180    0.04610
 1259.50000 -999.25000   98.86074   97.50455    8.99660    0.26480   92.46710   29.40300   33.45860   40.28950   39.36710   40.40720   34.73280   48.28060   47.40350   48.87340   32.16730   37.82740   44.62140   42.91700   43.59110   50.86250   44.99310   75.06960    0.04660
 1260.00000   18.00000   97.04808   95.70866    8.96070    0.27720   91.65200   28.84220   32.68660   39.35830   38.73480   39.36010   27.59500   36.14490   37.61040   38.70600   28.50000   32.57420   38.79950   38.03300   37.96660  442.49869  426.84021  314.66559    0.05050
 1260.50000 -999.25000  103.38313  102.01517    8.93680    0.31630   93.96240   28.27510   31.97020   38.49700   38.05820   38.50470   23.95610   33.04440   32.60310   33.44770   26.22070   29.50860   35.04980   34.44980   34.22320  284.50421  288.85660  324.68741    0.05890
 1261.00000 -999.25000  113.89169  112.31980    8.93680    0.32350  103.33780   27.98740   31.67000   38.11150   37.74600   38.18240   26.29550   33.88180   33.55320   34.39790   26.55190   30.09020   35.83770   35.41790   35.05720   75.61570   66.97290   58.89660    0.05780
 1261.50000 -999.25000   97.98399   96.63165    8.98460    0.32240  107.00670   28.07990   31.89930   38.37630   38.51640   38.51210   29.91970   38.01470   37.08670   38.03140   27.87050   32.01470   38.09510   37.52790   37.47810   18.58320   16.41490   33.24830    0.04760
 1262.00000   18.00000  108.64529  107.25144    9.00860    0.31240  108.63710   28.39650   32.32040   38.96670   39.20900   39.05330   26.48440   36.03630   35.16980   36.03840   28.60760   32.80180   38.96240   39.86040   38.86480   19.70760   17.40630   31.20190    0.04320
 1262.50000 -999.25000  108.22910  106.78792    8.99660    0.30640  101.09690   28.72100   32.89370   39.62120   40.03530   39.65120   29.12910   38.66950   38.36100   39.31840   29.69730   34.43680   40.73850   41.18150   40.40570   54.99930   48.66310   65.69440    0.04530
 1263.00000 -999.25000   93.64912   92.22916    8.93680    0.29390   97.02040   28.86450   33.06890   39.79140   40.43830   39.72080   36.97620   46.47650   44.16130   45.29480   29.84740   34.88380   42.08510   42.15550   41.03350   73.63180  104.40270  359.28479    0.04250
