~Version ---------------------------------------------------
VERS.   2.0 : CWLS log ASCII Standard -VERSION 2.0
WRAP.    NO : One line per depth step
DLM . SPACE : Column Data Section Delimiter
~Well ------------------------------------------------------
STRT.ft              16.5 : START DEPTH
STOP.ft            1462.0 : STOP DEPTH
STEP.ft               0.5 : STEP
NULL.             -999.25 : NULL VALUE
COMP.                     : COMPANY
WELL.           Umiat #18 : WELL
FLD .       Linc_Umiat_18 : FIELD
LOC .                     : LOCATION
PROV.                     : PROVINCE
CNTY.                     : COUNTY
STAT.                     : STATE
CTRY.                     : COUNTRY
SRVC. TERRASCIENCES, Inc. : SERVICE COMPANY
DATE.                     : DATE
UWI .           Umiat #18 : UNIQUE WELL ID
API .           Umiat #18 : API NUMBER
~Curve Information -----------------------------------------
TDEP     .ft    : Measured Depth
DCSI6    .      : Data Copy Status Indicator for Waveform Array 6
DTCO3    .us/F  : Compressional Slowness from Measurement 3
DTCO     .us/F  : Delta-T Compressional
DTSH3    .us/F  : Shear Slowness from Measurement 3
DTSH5    .us/F  : Shear Slowness from Measurement 5
DTSH6    .us/F  : Shear Slowness from Measurement 6
DTSM     .us/F  : Delta-T Shear
DTSTE    .us/F  : The elastic Stoneley slowness
DTST     .us/F  : Delta-T Stoneley - Monopole Stoneley
DWF1     .      : Display Waveform Array 1 Monopole Upper Middle Frequency
DWF1_MONO.      : Display Waveform 1 Monopole Component
DWF2     .      : Display Waveform Array 2 Monopole Lower Middle Frequency
DWF2_MONO.      : Display Waveform 2 Monopole Component
DWF3     .      : Display Waveform Array 3 Monopole Far Middle Frequency
DWF3_MONO.      : Display Waveform 3 Monopole Component
DWF4_MONO.      : Display Waveform 4 Monopole Component
DWF5_DIIN.      : Display Waveform 5 Dipole Inline Component
DWF6_DIIN.      : Display Waveform 6 Dipole Inline Component
ITT      .s     : Integrated Transit Time
LQC_WF1  .      : Log Quality Control for Waveform Array Measurement 1
LQC_WF2  .      : Log Quality Control for Waveform Array Measurement 2
LQC_WF3  .      : Log Quality Control for Waveform Array Measurement 3
LQC_WF4  .      : Log Quality Control for Waveform Array Measurement 4
LQC_WF5  .      : Log Quality Control for Waveform Array Measurement 5
~Params ----------------------------------------------------
PROD   .            TerraStation II : 
PROG   .                         [] : 
RUN    .                         [] : 
DESCENT.                         [] : 
VERSION.                            : 
LINEAGE. Python-converted from DLIS : 
ORFILE .          DynamicImage.dlis : 
~Other -----------------------------------------------------
~ASCII -----------------------------------------------------
# ...
  596.50000    0.00000   85.43701   85.43701  140.78345  145.00259  149.50279  145.00259  236.10207  244.27655  253.00000  251.00000   42.00000   62.00000   57.00000   64.00000  -59.00000    2.00000  -11.00000    0.17631    0.00000    0.00000    0.00000    0.00000    0.00000
  597.00000    0.00000   79.19981   79.19981  133.17198  142.22176  144.96335  142.22176  234.75127  243.46492  166.00000  164.00000  -66.00000  -44.00000  134.00000  133.00000   11.00000   -5.00000    0.00000    0.17627    0.00000    0.00000    0.00000    0.00000    0.00000
  597.50000    0.00000   77.35036   77.35036  131.48235  138.19815  138.52322  138.19815  232.94969  242.65915  177.00000  176.00000  113.00000   98.00000  153.00000  159.00000   83.00000   11.00000   -8.00000    0.17623    0.00000    0.00000    0.00000    0.00000    0.00000
  598.00000    0.00000   76.26675   76.26675  131.40657  133.86871  136.17984  133.86871  231.25873  241.85854   87.00000   90.00000  238.00000  253.00000    7.00000    6.00000   35.00000    0.00000    2.00000    0.17619    0.00000    0.00000    0.00000    0.00000    0.00000
  598.50000    0.00000   75.19501   75.19501  130.49268  130.76550  132.47031  130.76550  230.04042  240.50331  103.00000  111.00000  119.00000  108.00000    1.00000    7.00000   11.00000   -8.00000    8.00000    0.17615    0.00000    0.00000    0.00000    0.00000    0.00000
  599.00000    0.00000   74.22450   74.22450  129.63811  130.22162  131.50078  130.22162  229.70764  240.04163  119.00000  130.00000  179.00000  180.00000  117.00000  130.00000   59.00000    8.00000    2.00000    0.17611    0.00000    0.00000    0.00000    0.00000    0.00000
  599.50000    0.00000   73.47520   73.47520  129.89998  128.35254  130.45906  128.35254  229.09721  239.88382  219.00000  234.00000   82.00000   92.00000  -31.00000  -34.00000  -83.00000  -11.00000  -14.00000    0.17607    0.00000    0.00000    0.00000    0.00000    0.00000
  600.00000    0.00000   73.09368   73.09368  128.68011  128.23589  129.19211  128.23589  229.02606  239.74231   26.00000   40.00000   97.00000   88.00000  -25.00000  -25.00000   83.00000  -11.00000    0.00000    0.17604    0.00000    0.00000    0.00000    0.00000    0.00000
  600.50000    0.00000   73.49791   73.49791  128.87268  128.91214  129.37476  128.91214  229.27104  239.88977  275.00000  260.00000  -50.00000  -36.00000 -116.00000 -105.00000   11.00000  -11.00000  -14.00000    0.17600    0.00000    0.00000    0.00000    0.00000    0.00000
  601.00000    0.00000   74.04306   74.04306  129.06525  129.96101  131.29381  129.96101  229.68813  240.01038   47.00000   68.00000  105.00000  110.00000   20.00000   10.00000  180.00000   -5.00000    0.00000    0.17596    0.00000    0.00000    0.00000    0.00000    0.00000
  601.50000    0.00000   74.82722   74.82722  129.98854  130.46887  132.04745  130.46887  229.89433  240.19656 -142.00000 -124.00000   79.00000   96.00000    3.00000   13.00000  -59.00000  -23.00000   -2.00000    0.17593    0.00000    0.00000    0.00000    0.00000    0.00000
  602.00000    0.00000   75.07777   75.07777  132.34811  131.42287  131.72720  131.42287  230.08368  240.43762  153.00000  162.00000  137.00000  140.00000   46.00000   38.00000  -47.00000  -17.00000    0.00000    0.17589    0.00000    0.00000    0.00000    0.00000    0.00000
  602.50000    0.00000   74.91328   74.91328  132.05998  132.42778  132.94334  132.42778  230.60382  240.42421  -15.00000    2.00000  185.00000  174.00000  111.00000  116.00000  -11.00000    0.00000   -8.00000    0.17585    0.00000    0.00000    0.00000    0.00000    0.00000
  603.00000    0.00000   74.67421   74.67421  135.25497  132.91684  134.66322  132.91684  230.84003  240.63412  111.00000  110.00000  193.00000  212.00000   79.00000   90.00000  -47.00000    0.00000    0.00000    0.17582    0.00000    0.00000    0.00000    0.00000    0.00000
  603.50000    0.00000   75.58606   75.58606  138.41962  135.16954  134.84499  135.16954  231.68201  240.94609  -87.00000  -90.00000   44.00000   50.00000   91.00000   89.00000   35.00000   11.00000    0.00000    0.17578    0.00000    0.00000    0.00000    0.00000    0.00000
  604.00000    0.00000   76.25134   76.25134  139.71863  134.87726  135.51910  134.87726  231.52864  240.94373   52.00000   56.00000    0.00000   31.00000   -9.00000  -17.00000  -11.00000  -11.00000   -8.00000    0.17574    0.00000    0.00000    0.00000    0.00000    0.00000
  604.50000    0.00000   76.25475   76.25475  141.01762  135.74435  136.73347  135.74435  231.87117  241.07059   66.00000   80.00000  195.00000  197.00000   -5.00000   -7.00000  144.00000   -5.00000   -2.00000    0.17570    0.00000    0.00000    0.00000    0.00000    0.00000
  605.00000    0.00000   75.83354   75.83354  139.89836  136.72189  135.90768  136.72189  232.13821  241.10342  179.00000  167.00000    5.00000   40.00000   84.00000   88.00000  108.00000   14.00000  -11.00000    0.17566    0.00000    0.00000    0.00000    0.00000    0.00000
  605.50000    0.00000   76.17268   76.17268  138.80652  135.45094  136.87195  135.45094  231.75009  241.02878  161.00000  158.00000  -23.00000   -6.00000  -33.00000  -36.00000   59.00000   -2.00000   -2.00000    0.17563    0.00000    0.00000    0.00000    0.00000    0.00000
  606.00000    0.00000   75.77520   75.77520  135.57065  135.26651  135.19357  135.26651  231.61673  241.23851   60.00000   82.00000  182.00000  202.00000  -74.00000  -69.00000   59.00000    0.00000    8.00000    0.17559    0.00000    0.00000    0.00000    0.00000    0.00000
  606.50000    0.00000   75.50789   75.50789  135.92207  134.27304  136.52054  134.27304  231.34898  241.03822   10.00000   38.00000  126.00000  134.00000 -212.00000 -197.00000   23.00000   -5.00000    5.00000    0.17555    0.00000    0.00000    0.00000    0.00000    0.00000
  607.00000    0.00000   75.31354   75.31354  133.44402  133.08331  134.90561  133.08331  230.75888  240.98987  -23.00000  -16.00000  103.00000  100.00000 -119.00000  -96.00000   59.00000   -2.00000  -17.00000    0.17551    0.00000    0.00000    0.00000    0.00000    0.00000
  607.50000    0.00000   75.30756   75.30756  132.46269  133.08592  134.38008  133.08592  230.78764  240.79027   95.00000  112.00000   10.00000   20.00000  -65.00000  -28.00000  -11.00000  -11.00000  -11.00000    0.17547    0.00000    0.00000    0.00000    0.00000    0.00000
  608.00000    0.00000   74.86882   74.86882  131.87735  133.06639  133.59605  133.06639  230.79402  240.75961   95.00000   96.00000  216.00000  216.00000   83.00000   78.00000   23.00000   -8.00000   -5.00000    0.17544    0.00000    0.00000    0.00000    0.00000    0.00000
  608.50000    0.00000   74.96975   74.96975  131.07539  131.30144  132.78664  131.30144  230.15590  240.67523   15.00000   20.00000   84.00000   90.00000  224.00000  208.00000  -35.00000    0.00000    0.00000    0.17540    0.00000    0.00000    0.00000    0.00000    0.00000
  609.00000    0.00000   74.79659   74.79659  130.41365  130.16231  131.73969  130.16231  229.75124  240.63377  -10.00000    2.00000  171.00000  198.00000   83.00000   78.00000   35.00000    0.00000    2.00000    0.17536    0.00000    0.00000    0.00000    0.00000    0.00000
  609.50000    0.00000   74.00089   74.00089  129.97197  130.08116  130.93024  130.08116  229.66263  240.58966  116.00000  122.00000  -31.00000  -14.00000   80.00000   87.00000  -35.00000   -5.00000   -2.00000    0.17532    0.00000    0.00000    0.00000    0.00000    0.00000
  610.00000    0.00000   74.16418   74.16418  130.21988  129.69798  130.97771  129.69798  229.64105  240.54991  -44.00000  -32.00000  -50.00000  -44.00000  -13.00000  -14.00000   59.00000    2.00000    5.00000    0.17529    0.00000    0.00000    0.00000    0.00000    0.00000
  610.50000    0.00000   74.08988   74.08988  130.18996  129.16005  130.40988  129.16005  229.34319  240.40764   63.00000   78.00000   55.00000   46.00000   21.00000   30.00000  -11.00000   -8.00000  -20.00000    0.17525    0.00000    0.00000    0.00000    0.00000    0.00000
