~Version ---------------------------------------------------
VERS.   2.0 : CWLS log ASCII Standard -VERSION 2.0
WRAP.    NO : One line per depth step
DLM . SPACE : Column Data Section Delimiter
~Well ------------------------------------------------------
STRT.ft              16.5 : START DEPTH
STOP.ft            1462.0 : STOP DEPTH
STEP.ft               0.5 : STEP
NULL.             -999.25 : NULL VALUE
COMP.                     : COMPANY
WELL.           Umiat #18 : WELL
FLD .       Linc_Umiat_18 : FIELD
LOC .                     : LOCATION
PROV.                     : PROVINCE
CNTY.                     : COUNTY
STAT.                     : STATE
CTRY.                     : COUNTRY
SRVC. TERRASCIENCES, Inc. : SERVICE COMPANY
DATE.                     : DATE
UWI .           Umiat #18 : UNIQUE WELL ID
API .           Umiat #18 : API NUMBER
~Curve Information -----------------------------------------
TDEP     .ft    : Measured Depth
DCSI6    .      : Data Copy Status Indicator for Waveform Array 6
DTCO3    .us/F  : Compressional Slowness from Measurement 3
DTCO     .us/F  : Delta-T Compressional
DTSH3    .us/F  : Shear Slowness from Measurement 3
DTSH5    .us/F  : Shear Slowness from Measurement 5
DTSH6    .us/F  : Shear Slowness from Measurement 6
DTSM     .us/F  : Delta-T Shear
DTSTE    .us/F  : The elastic Stoneley slowness
DTST     .us/F  : Delta-T Stoneley - Monopole Stoneley
DWF1     .      : Display Waveform Array 1 Monopole Upper Middle Frequency
DWF1_MONO.      : Display Waveform 1 Monopole Component
DWF2     .      : Display Waveform Array 2 Monopole Lower Middle Frequency
DWF2_MONO.      : Display Waveform 2 Monopole Component
DWF3     .      : Display Waveform Array 3 Monopole Far Middle Frequency
DWF3_MONO.      : Display Waveform 3 Monopole Component
DWF4_MONO.      : Display Waveform 4 Monopole Component
DWF5_DIIN.      : Display Waveform 5 Dipole Inline Component
DWF6_DIIN.      : Display Waveform 6 Dipole Inline Component
ITT      .s     : Integrated Transit Time
LQC_WF1  .      : Log Quality Control for Waveform Array Measurement 1
LQC_WF2  .      : Log Quality Control for Waveform Array Measurement 2
LQC_WF3  .      : Log Quality Control for Waveform Array Measurement 3
LQC_WF4  .      : Log Quality Control for Waveform Array Measurement 4
LQC_WF5  .      : Log Quality Control for Waveform Array Measurement 5
~Params ----------------------------------------------------
PROD   .            TerraStation II : 
PROG   .                         [] : 
RUN    .                         [] : 
DESCENT.                         [] : 
VERSION.                            : 
LINEAGE. Python-converted from DLIS : 
ORFILE .          DynamicImage.dlis : 
~Other -----------------------------------------------------
~ASCII -----------------------------------------------------
# ...
 1162.00000    0.00000   65.55164   65.55164  115.85107  115.55205  115.77620  115.55205  225.21986  237.27437  271.00000  280.00000  138.00000  158.00000 -190.00000 -176.00000  -47.00000   -2.00000   -5.00000    0.13022    0.00000    0.00000    0.00000    0.00000    0.00000
 1162.50000    0.00000   66.10819   66.10819  116.53175  116.19252  117.11404  116.19252  225.45877  237.66066  244.00000  258.00000   90.00000  122.00000 -105.00000  -91.00000  192.00000    8.00000    0.00000    0.13018    0.00000    0.00000    0.00000    0.00000    0.00000
 1163.00000    0.00000   67.33158   67.33158  118.02946  117.67714  117.90771  117.67714  225.51207  237.14392  -53.00000  -22.00000  154.00000  166.00000  -58.00000  -57.00000  -47.00000    0.00000   -8.00000    0.13015    0.00000    0.00000    0.00000    0.00000    0.00000
 1163.50000    0.00000   67.89189   67.89189  120.20426  119.43505  120.67725  119.43505  226.14740  237.44344   97.00000   92.00000  224.00000  235.00000  -10.00000  -19.00000   11.00000    0.00000   -5.00000    0.13012    0.00000    0.00000    0.00000    0.00000    0.00000
 1164.00000    0.00000   69.27592   69.27592  123.39694  121.56476  120.40193  121.56476  226.75012  237.96001  -18.00000   -2.00000  -21.00000   -9.00000  -81.00000  -84.00000   23.00000  -11.00000    0.00000    0.13008    0.00000    0.00000    0.00000    0.00000    0.00000
 1164.50000    0.00000   69.88040   69.88040  123.80920  122.64510  121.19855  122.64510  227.03427  238.18784  235.00000  242.00000  -50.00000  -41.00000  -78.00000  -72.00000  -11.00000   -5.00000    2.00000    0.13005    0.00000    0.00000    0.00000    0.00000    0.00000
 1165.00000    0.00000   69.79167   69.79167  124.26033  123.61899  122.47583  123.61899  227.45006  238.54884  182.00000  196.00000  182.00000  177.00000  -52.00000  -43.00000  -83.00000  -11.00000   -2.00000    0.13001    0.00000    0.00000    0.00000    0.00000    0.00000
 1165.50000    0.00000   70.52150   70.52150  124.36813  124.29165  123.82475  124.29165  227.72876  238.72299  296.00000  298.00000   82.00000   76.00000  -88.00000  -67.00000   11.00000   -5.00000   -2.00000    0.12998    0.00000    0.00000    0.00000    0.00000    0.00000
 1166.00000    0.00000   70.97039   70.97039  125.08064  124.97382  124.75899  124.97382  227.91859  239.11844  169.00000  158.00000  190.00000  189.00000  -72.00000  -74.00000  144.00000   -5.00000    5.00000    0.12994    0.00000    0.00000    0.00000    0.00000    0.00000
 1166.50000    0.00000   71.51083   71.51083  126.06376  125.87547  123.70837  125.87547  228.24876  239.62102  -34.00000  -18.00000   50.00000   56.00000 -106.00000  -90.00000  -71.00000  -11.00000    8.00000    0.12991    0.00000    0.00000    0.00000    0.00000    0.00000
 1167.00000    0.00000   71.99828   71.99828  127.87416  127.04857  124.65326  127.04857  228.61183  239.70883   55.00000   56.00000  261.00000  273.00000  -65.00000  -67.00000   71.00000  -17.00000   14.00000    0.12987    0.00000    0.00000    0.00000    0.00000    0.00000
 1167.50000    0.00000   72.43261   72.43261  127.26509  127.41880  126.54414  127.41880  228.76378  239.94153   21.00000   20.00000  116.00000  125.00000   14.00000   38.00000  -47.00000   11.00000    0.00000    0.12984    0.00000    0.00000    0.00000    0.00000    0.00000
 1168.00000    0.00000   73.32475   73.32475  129.88188  128.92984  128.95892  128.92984  229.30766  240.18156  158.00000  164.00000  -18.00000  -13.00000  -78.00000  -79.00000   35.00000  -17.00000  -11.00000    0.12980    0.00000    0.00000    0.00000    0.00000    0.00000
 1168.50000    0.00000   73.50907   73.50907  131.17989  131.57031  129.77435  131.57031  230.17268  240.51230  -60.00000  -44.00000 -145.00000 -142.00000   37.00000   33.00000  168.00000    2.00000    2.00000    0.12976    0.00000    0.00000    0.00000    0.00000    0.00000
 1169.00000    0.00000   74.34438   74.34438  133.02599  132.79710  132.07666  132.79710  230.61261  241.09822  301.00000  296.00000  158.00000  178.00000   27.00000   24.00000   59.00000  -17.00000    5.00000    0.12973    0.00000    0.00000    0.00000    0.00000    0.00000
 1169.50000    0.00000   75.90039   75.90039  135.73615  135.42175  132.16302  135.42175  231.71077  241.30013  195.00000  208.00000   37.00000   50.00000   43.00000   32.00000    0.00000   -5.00000    0.00000    0.12969    0.00000    0.00000    0.00000    0.00000    0.00000
 1170.00000    0.00000   76.67252   76.67252  137.96248  136.55125  135.85219  136.55125  232.25694  241.42117   42.00000   54.00000  -52.00000  -46.00000 -131.00000 -119.00000 -120.00000  -14.00000   -2.00000    0.12965    0.00000    0.00000    0.00000    0.00000    0.00000
 1170.50000    0.00000   77.28248   77.28248  141.65823  139.73442  138.76521  139.73442  233.63942  241.59952  -76.00000  -74.00000  -37.00000  -17.00000   41.00000   43.00000   35.00000  -11.00000    5.00000    0.12961    0.00000    0.00000    0.00000    0.00000    0.00000
 1171.00000    0.00000   79.13081   79.13081  141.76266  140.90817  140.17946  140.90817  234.31609  241.78461 -134.00000 -123.00000  108.00000  110.00000  -19.00000  -25.00000   23.00000  -14.00000   -8.00000    0.12957    0.00000    0.00000    0.00000    0.00000    0.00000
 1171.50000    0.00000   79.46240   79.46240  142.03690  141.43927  141.12231  141.43927  234.51538  241.92769  -42.00000  -26.00000  119.00000  121.00000   41.00000   39.00000    0.00000   -5.00000    0.00000    0.12954    0.00000    0.00000    0.00000    0.00000    0.00000
 1172.00000    0.00000   79.91119   79.91119  143.95256  142.96599  142.86661  142.96599  235.15746  242.04437   76.00000   90.00000  285.00000  282.00000   54.00000   39.00000   71.00000   -5.00000   -2.00000    0.12950    0.00000    0.00000    0.00000    0.00000    0.00000
 1172.50000    0.00000   80.11675   80.11675  145.31656  143.68498  143.01735  143.68498  235.49904  242.09024  182.00000  168.00000  108.00000  126.00000  213.00000  207.00000  168.00000    2.00000   -2.00000    0.12946    0.00000    0.00000    0.00000    0.00000    0.00000
 1173.00000    0.00000   80.64228   80.64228  145.51892  144.04915  143.77043  144.04915  235.65997  242.02155 -121.00000 -117.00000   23.00000   23.00000    1.00000   18.00000 -108.00000   -5.00000    0.00000    0.12942    0.00000    0.00000    0.00000    0.00000    0.00000
 1173.50000    0.00000   81.14462   81.14462  145.45570  144.26044  143.58453  144.26044  235.70740  242.03477   23.00000   29.00000  182.00000  190.00000 -125.00000 -122.00000  -35.00000    0.00000    2.00000    0.12937    0.00000    0.00000    0.00000    0.00000    0.00000
 1174.00000    0.00000   81.02169   81.02169  146.57286  143.64900  143.82916  143.64900  235.57587  242.10419  365.00000  386.00000  -23.00000  -19.00000  254.00000  236.00000 -265.00000   -8.00000    0.00000    0.12933    0.00000    0.00000    0.00000    0.00000    0.00000
 1174.50000    0.00000   80.75788   80.75788  145.46582  143.38971  143.65350  143.38971  235.41838  242.21986   34.00000   35.00000  -89.00000  -76.00000   58.00000   62.00000   23.00000   -2.00000    0.00000    0.12929    0.00000    0.00000    0.00000    0.00000    0.00000
 1175.00000    0.00000   80.27180   80.27180  146.33760  144.04330  144.02730  144.04330  235.61499  242.37532   97.00000   98.00000  116.00000  125.00000  -78.00000  -83.00000  205.00000    5.00000  -11.00000    0.12925    0.00000    0.00000    0.00000    0.00000    0.00000
 1175.50000    0.00000   79.99068   79.99068  146.35362  144.85591  144.59584  144.85591  236.00462  242.34044 -132.00000 -140.00000 -206.00000 -179.00000   13.00000   14.00000   95.00000   -5.00000    2.00000    0.12921    0.00000    0.00000    0.00000    0.00000    0.00000
 1176.00000    0.00000   80.52398   80.52398  146.86223  144.35710  144.48634  144.35710  235.76442  242.46272   13.00000   18.00000  -10.00000    0.00000   99.00000  138.00000  -23.00000   32.00000    0.00000    0.12917    0.00000    0.00000    0.00000    0.00000    0.00000
