~Version ---------------------------------------------------
VERS.   2.0 : CWLS log ASCII Standard -VERSION 2.0
WRAP.    NO : One line per depth step
DLM . SPACE : Column Data Section Delimiter
~Well ------------------------------------------------------
STRT.ft              16.5 : START DEPTH
STOP.ft            1462.0 : STOP DEPTH
STEP.ft               0.5 : STEP
NULL.             -999.25 : NULL VALUE
COMP.                     : COMPANY
WELL.           Umiat #18 : WELL
FLD .       Linc_Umiat_18 : FIELD
LOC .                     : LOCATION
PROV.                     : PROVINCE
CNTY.                     : COUNTY
STAT.                     : STATE
CTRY.                     : COUNTRY
SRVC. TERRASCIENCES, Inc. : SERVICE COMPANY
DATE.                     : DATE
UWI .           Umiat #18 : UNIQUE WELL ID
API .           Umiat #18 : API NUMBER
~Curve Information -----------------------------------------
TDEP     .ft     : Measured Depth
ECGR_EDTC.gAPI   : Environmentally Corrected Gamma Ray
GDEV_EDTC.deg    : EDTC Hole Deviation from Gravity
GR_EDTC  .gAPI   : Gamma Ray
HV       .V      : Head Voltage
RAZ_EDTC .       : EDTC Raw Z-Axis Acceleration Data
CDF      .lbf    : Calibrated Downhole Force
DF       .lbf    : Uncalibrated Downhole Force
HDAR     .in     : Hole Diameter from Area
DCAL     .in     : Differential Caliper
AZIM     .deg    : Measured Azimuth
GHD      .in     : Borehole Diameter
BHRM     .ohm.m  : Borehole Mud Resistivity
ED       .ft     : East Departure
DLS      .       : Dog Leg Severity
FCD      .in     : Future Casing Diameter
TENS     .lbf    : Cable Tension
ICV      .cuft   : Integrated Cement Volume
ND       .ft     : North Departure
FF       .       : Formation Factor
TVDSS    .ft     : Sub-sea TVD: True Vertical Depth measured from Mean Sea Leve
TDSP     .ft     : Total Displacement (of survey measure point from vertical)
INCL     .deg    : Hole inclination
X        .ft     : Depth Index
BHPR     .psi    : Borehole Pressure
~Params ----------------------------------------------------
PROD   .            TerraStation II : 
PROG   .                         [] : 
RUN    .                         [] : 
DESCENT.                         [] : 
VERSION.                            : 
LINEAGE. Python-converted from DLIS : 
ORFILE .          DynamicImage.dlis : 
~Other -----------------------------------------------------
~ASCII -----------------------------------------------------
# ...
 1075.00000  109.15251    2.65660  107.38753  256.04190    9.97301 1931.71936 1931.71936    8.72327    0.22327    0.00000    8.72327  638.52332    0.00000    0.00000    9.62500 2186.25000    0.06186    0.00000    0.00250  503.00497    0.00000    0.00000 1075.00500  558.46252
 1075.50000  108.40856    2.77418  106.66435  256.20300    9.94442 1934.98657 1934.98657    8.72136    0.22136    0.00000    8.72136  638.60565    0.00000    0.00000    9.62500 2208.21069    0.06186    0.00000    0.00250  503.49695    0.00000    0.00000 1075.49695  558.72223
 1076.00000  107.39166    2.74787  105.55211  256.13141    9.96763 1959.00818 1959.00818    8.74602    0.24602    0.00000    8.74602  638.68799    0.00000    0.00000    9.62500 2233.15015    0.06186    0.00000    0.00250  503.99249    0.00000    0.00000 1075.99255  558.98199
 1076.50000  102.69942    2.68183  101.03878  255.87405    9.89773 1907.54187 1907.54187    8.72327    0.22327    0.00000    8.72327  638.77032    0.00000    0.00000    9.62500 2177.31592    0.06186    0.00000    0.00250  504.48990    0.00000    0.00000 1076.48987  559.24176
 1077.00000   95.49728    2.65550   93.95311  255.96805   10.01234 1955.14343 1955.14343    8.72327    0.22327    0.00000    8.72327  638.85266    0.00000    0.00000    9.62500 2215.05005    0.06186    0.00000    0.00250  504.99207    0.00000    0.00000 1076.99207  559.50153
 1077.50000   91.14677    2.66506   89.76005  256.22092    9.92997 1929.55249 1929.55249    8.70066    0.20066    0.00000    8.70066  638.93506    0.00000    0.00000    9.62500 2201.50000    0.06186    0.00000    0.00250  505.50085    0.00000    0.00000 1077.50085  559.76123
 1078.00000   88.84692    2.68635   87.32502  256.25000    9.97662 1963.23108 1963.23108    8.74602    0.24602    0.00000    8.74602  639.01740    0.00000    0.00000    9.62500 2242.57886    0.06186    0.00000    0.00250  505.99652    0.00000    0.00000 1077.99646  560.02100
 1078.50000   89.75298    2.78692   88.30892  256.29700    9.91247 1926.54346 1926.54346    8.72136    0.22136    0.00000    8.72136  639.09985    0.00000    0.00000    9.62500 2213.20020    0.06186    0.00000    0.00250  506.49417    0.00000    0.00000 1078.49414  560.28076
 1079.00000   94.90301    2.52166   93.18659  255.68385    9.99713 1955.99500 1955.99500    8.76876    0.26876    0.00000    8.76876  639.18231    0.00000    0.00000    9.62500 2214.35010    0.06186    0.00000    0.00250  506.99670    0.00000    0.00000 1078.99670  560.54053
 1079.50000   96.81056    2.55183   95.16062  255.90762    9.94960 1931.46533 1931.46533    8.74397    0.24397    0.00000    8.74397  639.26477    0.00000    0.00000    9.62500 2216.05005    0.06186    0.00000    0.00250  507.50378    0.00000    0.00000 1079.50378  560.80023
 1080.00000   99.89391    2.71253   98.18279  256.57895    9.93707 1920.46448 1920.46448    8.74602    0.24602    0.00000    8.74602  639.34723    0.00000    0.00000    9.62500 2188.34985    0.06186    0.00000    0.00250  508.00458    0.00000    0.00000 1080.00464  561.06000
 1080.50000  100.61024    2.70154   98.64706  256.66846    9.96921 1938.23682 1938.23682    8.80278    0.30278    0.00000    8.80278  639.42975    0.00000    0.00000    9.62500 2200.84229    0.06186    0.00000    0.00250  508.49960    0.00000    0.00000 1080.49951  561.31976
 1081.00000  104.03498    2.50257  102.15340  256.20300    9.96092 1939.16370 1939.16370    8.76876    0.26876    0.00000    8.76876  639.51227    0.00000    0.00000    9.62500 2228.10010    0.06186    0.00000    0.00250  508.99414    0.00000    0.00000 1080.99414  561.57953
 1081.50000  104.87815    2.64116  103.18229  256.31042    9.93417 1923.42432 1923.42432    8.72327    0.22327    0.00000    8.72327  639.59479    0.00000    0.00000    9.62500 2180.50000    0.06186    0.00000    0.00250  509.50378    0.00000    0.00000 1081.50378  561.83923
 1082.00000  103.26434    2.65815  101.35511  256.20300    9.97986 1946.20264 1946.20264    8.77835    0.27835    0.00000    8.77835  639.67749    0.00000    0.00000    9.62500 2215.50000    0.06186    0.00000    0.00250  510.01001    0.00000    0.00000 1082.01001  562.09900
 1082.50000   99.45934    2.74958   97.66052  256.62372    9.93122 1918.32874 1918.32874    8.76876    0.26876    0.00000    8.76876  639.75995    0.00000    0.00000    9.62500 2201.52637    0.06186    0.00000    0.00250  510.49695    0.00000    0.00000 1082.49695  562.35876
 1083.00000   93.49181    2.62592   91.40870  256.29700    9.93959 1915.78955 1915.78955    8.86913    0.36913    0.00000    8.86913  639.84259    0.00000    0.00000    9.62500 2181.75000    0.06186    0.00000    0.00250  510.99127    0.00000    0.00000 1082.99121  562.61853
 1083.50000   94.05865    2.71383   92.13394  255.95238    9.98780 1927.26709 1927.26709    8.82549    0.32549    0.00000    8.82549  639.92517    0.00000    0.00000    9.62500 2198.69995    0.06186    0.00000    0.00250  511.49667    0.00000    0.00000 1083.49670  562.87823
 1084.00000   97.84799    2.72311   96.07831  256.20300    9.92676 1923.73486 1923.73486    8.76876    0.26876    0.00000    8.76876  640.00781    0.00000    0.00000    9.62500 2229.78955    0.06186    0.00000    0.00250  511.99429    0.00000    0.00000 1083.99426  563.13800
 1084.50000  100.21137    2.66403   98.39895  256.44467    9.92420 1927.96130 1927.96130    8.76876    0.26876    0.00000    8.76876  640.09052    0.00000    0.00000    9.62500 2197.04980    0.06186    0.00000    0.00250  512.48584    0.00000    0.00000 1084.48584  563.39777
 1085.00000   98.19663    2.64996   96.42065  255.81812   10.00242 1954.86060 1954.86060    8.76876    0.26876    0.00000    8.76876  640.17322    0.00000    0.00000    9.62500 2244.89990    0.06186    0.00000    0.00250  512.98755    0.00000    0.00000 1084.98755  563.65747
 1085.50000   91.52723    2.67452   89.96733  255.63910    9.94359 1955.19678 1955.19678    8.74397    0.24397    0.00000    8.74397  640.25592    0.00000    0.00000    9.62500 2248.80005    0.06186    0.00000    0.00250  513.49292    0.00000    0.00000 1085.49292  563.91724
 1086.00000   89.29007    2.84283   87.81084  255.68385    9.91695 1921.73145 1921.73145    8.73267    0.23267    0.00000    8.73267  640.33875    0.00000    0.00000    9.62500 2199.75000    0.06186    0.00000    0.00250  514.00000    0.00000    0.00000 1086.00000  564.17700
 1086.50000   90.89108    2.76697   89.34203  255.59210    9.95262 1938.11499 1938.11499    8.74397    0.24397    0.00000    8.74397  640.42145    0.00000    0.00000    9.62500 2213.15015    0.06186    0.00000    0.00250  514.50421    0.00000    0.00000 1086.50415  564.43677
 1087.00000   94.90622    2.64042   93.37926  255.81812   10.01203 1953.23560 1953.23560    8.72136    0.22136    0.00000    8.72136  640.50421    0.00000    0.00000    9.62500 2219.85010    0.06186    0.00000    0.00250  515.00879    0.00000    0.00000 1087.00879  564.69647
 1087.50000   96.33470    2.83573   94.86965  255.95238    9.91736 1909.23828 1909.23828    8.70052    0.20052    0.00000    8.70052  640.58704    0.00000    0.00000    9.62500 2198.21069    0.06186    0.00000    0.00250  515.49829    0.00000    0.00000 1087.49829  564.95624
 1088.00000   99.94828    2.75911   98.34019  255.35715    9.93221 1928.19641 1928.19641    8.72136    0.22136    0.00000    8.72136  640.66980    0.00000    0.00000    9.62500 2194.09985    0.06186    0.00000    0.00250  515.98920    0.00000    0.00000 1087.98914  565.21600
 1088.50000   99.57044    2.66734   98.00859  255.63910    9.98697 1946.25598 1946.25598    8.71182    0.21182    0.00000    8.71182  640.75262    0.00000    0.00000    9.62500 2213.35010    0.06186    0.00000    0.00250  516.50000    0.00000    0.00000 1088.50000  565.47577
 1089.00000  106.15825    2.66660  104.54824  255.68385    9.97368 1944.88977 1944.88977    8.69953    0.19953    0.00000    8.69953  640.83551    0.00000    0.00000    9.62500 2219.15015    0.06186    0.00000    0.00250  517.00415    0.00000    0.00000 1089.00415  565.73547
