~Version ---------------------------------------------------
VERS.   2.0 : CWLS log ASCII Standard -VERSION 2.0
WRAP.    NO : One line per depth step
DLM . SPACE : Column Data Section Delimiter
~Well ------------------------------------------------------
STRT.ft              16.5 : START DEPTH
STOP.ft            1462.0 : STOP DEPTH
STEP.ft               0.5 : STEP
NULL.             -999.25 : NULL VALUE
COMP.                     : COMPANY
WELL.           Umiat #18 : WELL
FLD .       Linc_Umiat_18 : FIELD
LOC .                     : LOCATION
PROV.                     : PROVINCE
CNTY.                     : COUNTY
STAT.                     : STATE
CTRY.                     : COUNTRY
SRVC. TERRASCIENCES, Inc. : SERVICE COMPANY
DATE.                     : DATE
UWI .           Umiat #18 : UNIQUE WELL ID
API .           Umiat #18 : API NUMBER
~Curve Information -----------------------------------------
TDEP     .ft     : Measured Depth
ECGR_EDTC.gAPI   : Environmentally Corrected Gamma Ray
GDEV_EDTC.deg    : EDTC Hole Deviation from Gravity
GR_EDTC  .gAPI   : Gamma Ray
HV       .V      : Head Voltage
RAZ_EDTC .       : EDTC Raw Z-Axis Acceleration Data
CDF      .lbf    : Calibrated Downhole Force
DF       .lbf    : Uncalibrated Downhole Force
HDAR     .in     : Hole Diameter from Area
DCAL     .in     : Differential Caliper
AZIM     .deg    : Measured Azimuth
GHD      .in     : Borehole Diameter
BHRM     .ohm.m  : Borehole Mud Resistivity
ED       .ft     : East Departure
DLS      .       : Dog Leg Severity
FCD      .in     : Future Casing Diameter
TENS     .lbf    : Cable Tension
ICV      .cuft   : Integrated Cement Volume
ND       .ft     : North Departure
FF       .       : Formation Factor
TVDSS    .ft     : Sub-sea TVD: True Vertical Depth measured from Mean Sea Leve
TDSP     .ft     : Total Displacement (of survey measure point from vertical)
INCL     .deg    : Hole inclination
X        .ft     : Depth Index
BHPR     .psi    : Borehole Pressure
~Params ----------------------------------------------------
PROD   .            TerraStation II : 
PROG   .                         [] : 
RUN    .                         [] : 
DESCENT.                         [] : 
VERSION.                            : 
LINEAGE. Python-converted from DLIS : 
ORFILE .          DynamicImage.dlis : 
~Other -----------------------------------------------------
~ASCII -----------------------------------------------------
# ...
  495.00000  115.10272    0.51776  112.96310  255.16917    9.97955 1879.60938 1879.60938    8.78073    0.28073    0.00000    8.78073  555.49066    0.00000    0.00000    9.62500 1964.52393    0.06186    0.00000    0.00250  -77.00991    0.00000    0.00000  494.99008  257.15250
  495.50000  113.50992    0.52600  111.34553  254.92302    9.95486 1863.36182 1863.36182    8.79215    0.29215    0.00000    8.79215  555.55298    0.00000    0.00000    9.62500 1921.61902    0.06186    0.00000    0.00250  -76.50713    0.00000    0.00000  495.49286  257.41226
  496.00000  115.02074    0.89744  112.83643  254.65652    9.97085 1876.94324 1876.94324    8.79031    0.29031    0.00000    8.79031  555.61523    0.00000    0.00000    9.62500 1945.80969    0.06186    0.00000    0.00250  -76.00078    0.00000    0.00000  495.99921  257.67200
  496.50000  114.50359    0.92577  112.26601  254.99829    9.95182 1863.03015 1863.03015    8.80346    0.30346    0.00000    8.80346  555.67749    0.00000    0.00000    9.62500 1937.76196    0.06186    0.00000    0.00250  -75.50038    0.00000    0.00000  496.49960  257.93176
  497.00000  112.57903    1.02565  110.32584  254.91286    9.96131 1842.03943 1842.03943    8.81476    0.31476    0.00000    8.81476  555.73981    0.00000    0.00000    9.62500 1915.61902    0.06186    0.00000    0.00250  -74.99839    0.00000    0.00000  497.00159  258.19150
  497.50000  111.91608    0.91643  109.79074  254.78876    9.97982 1850.15735 1850.15735    8.79031    0.29031    0.00000    8.79031  555.80219    0.00000    0.00000    9.62500 1911.00000    0.06186    0.00000    0.00250  -74.49522    0.00000    0.00000  497.50476  258.45126
  498.00000  116.14008    0.91578  113.71362  255.12645    9.96256 1848.21228 1848.21228    8.83578    0.33578    0.00000    8.83578  555.86456    0.00000    0.00000    9.62500 1927.15002    0.06186    0.00000    0.00250  -74.00332    0.00000    0.00000  497.99667  258.71100
  498.50000  118.53339    0.80770  116.04803  255.59435    9.96448 1856.69202 1856.69202    8.83759    0.33759    0.00000    8.83759  555.92694    0.00000    0.00000    9.62500 1927.76196    0.06186    0.00000    0.00250  -73.50991    0.00000    0.00000  498.49008  258.97076
  499.00000  113.28474    0.71382  111.13340  254.99829    9.95963 1861.73743 1861.73743    8.79031    0.29031    0.00000    8.79031  555.98926    0.00000    0.00000    9.62500 1928.23816    0.06186    0.00000    0.00250  -73.00634    0.00000    0.00000  498.99365  259.23050
  499.50000  104.18838    0.65402  102.11106  255.21190    9.95931 1860.75171 1860.75171    8.81293    0.31293    0.00000    8.81293  556.05170    0.00000    0.00000    9.62500 1927.66663    0.06186    0.00000    0.00250  -72.50753    0.00000    0.00000  499.49246  259.49026
  500.00000   91.42773    0.66735   89.46764  254.99829    9.96085 1861.05884 1861.05884    8.84888    0.34888    0.00000    8.84888  556.11407    0.00000    0.00000    9.62500 1941.85730    0.06186    0.00000    0.00250  -72.00317    0.00000    0.00000  499.99683  259.75000
  500.50000   86.93237    0.89853   85.19911  254.65450    9.96413 1857.36902 1857.36902    8.81293    0.31293    0.00000    8.81293  556.17651    0.00000    0.00000    9.62500 1910.85718    0.06186    0.00000    0.00250  -71.49841    0.00000    0.00000  500.50159  260.00974
  501.00000   90.87164    0.92408   88.97311  254.52837    9.96608 1851.25000 1851.25000    8.83578    0.33578    0.00000    8.83578  556.23889    0.00000    0.00000    9.62500 1917.40015    0.06186    0.00000    0.00250  -71.00208    0.00000    0.00000  500.99792  260.26950
  501.50000  100.75123    0.82685   98.63919  255.01253    9.95430 1852.51062 1852.51062    8.83747    0.33747    0.00000    8.83747  556.30139    0.00000    0.00000    9.62500 1909.76184    0.06186    0.00000    0.00250  -70.50436    0.00000    0.00000  501.49564  260.52924
  502.00000  107.40773    0.89131  105.11359  255.16917    9.95962 1852.62366 1852.62366    8.84698    0.34698    0.00000    8.84698  556.36383    0.00000    0.00000    9.62500 1919.28577    0.06186    0.00000    0.00250  -69.99681    0.00000    0.00000  502.00317  260.78900
  502.50000  104.07314    0.96307  101.79724  255.05728    9.95316 1847.16113 1847.16113    8.85920    0.35920    0.00000    8.85920  556.42633    0.00000    0.00000    9.62500 1911.25012    0.06186    0.00000    0.00250  -69.50124    0.00000    0.00000  502.49875  261.04874
  503.00000   93.58324    0.76438   91.75448  255.72453    9.97783 1869.28369 1869.28369    8.80346    0.30346    0.00000    8.80346  556.48877    0.00000    0.00000    9.62500 1942.85706    0.06186    0.00000    0.00250  -69.00514    0.00000    0.00000  502.99484  261.30850
  503.50000   86.02077    0.88977   84.46302  255.90762    9.98045 1893.56238 1893.56238    8.76931    0.26931    0.00000    8.76931  556.55133    0.00000    0.00000    9.62500 1974.99988    0.06186    0.00000    0.00250  -68.50039    0.00000    0.00000  503.49960  261.56824
  504.00000   88.35583    0.97197   86.67790  255.38278    9.95777 1900.84241 1900.84241    8.79031    0.29031    0.00000    8.79031  556.61383    0.00000    0.00000    9.62500 1966.80957    0.06186    0.00000    0.00250  -68.00316    0.00000    0.00000  503.99683  261.82800
  504.50000   97.64102    1.10145   95.68681  256.02359    9.95873 1891.05005 1891.05005    8.81476    0.31476    0.00000    8.81476  556.67639    0.00000    0.00000    9.62500 1958.38098    0.06186    0.00000    0.00250  -67.50197    0.00000    0.00000  504.49802  262.08774
  505.00000  102.77861    1.16684  100.58334  255.59637    9.97491 1897.33594 1897.33594    8.84698    0.34698    0.00000    8.84698  556.73883    0.00000    0.00000    9.62500 1971.61902    0.06186    0.00000    0.00250  -67.00277    0.00000    0.00000  504.99722  262.34750
  505.50000  105.29291    0.98834  103.04394  255.23631    9.96689 1872.63879 1872.63879    8.84698    0.34698    0.00000    8.84698  556.80145    0.00000    0.00000    9.62500 1935.71436    0.06186    0.00000    0.00250  -66.50078    0.00000    0.00000  505.49921  262.60724
  506.00000  108.71341    0.96652  106.64156  256.10901    9.97007 1848.21228 1848.21228    8.79191    0.29191    0.00000    8.79191  556.86401    0.00000    0.00000    9.62500 1915.42859    0.06186    0.00000    0.00250  -65.99761    0.00000    0.00000  506.00238  262.86700
  506.50000  114.25188    0.94936  112.13754  255.76726    9.94827 1850.83008 1850.83008    8.77876    0.27876    0.00000    8.77876  556.92664    0.00000    0.00000    9.62500 1918.76184    0.06186    0.00000    0.00250  -65.49800    0.00000    0.00000  506.50198  263.12674
  507.00000  116.39465    0.80284  114.06509  254.65652    9.98148 1865.71252 1865.71252    8.81476    0.31476    0.00000    8.81476  556.98920    0.00000    0.00000    9.62500 1926.76196    0.06186    0.00000    0.00250  -64.99641    0.00000    0.00000  507.00357  263.38651
  507.50000  110.37654    0.91898  108.06328  255.46822    9.94309 1845.38440 1845.38440    8.83735    0.33735    0.00000    8.83735  557.05182    0.00000    0.00000    9.62500 1913.61914    0.06186    0.00000    0.00250  -64.49364    0.00000    0.00000  507.50635  263.64624
  508.00000  106.15301    0.92175  103.88567  255.32582    9.94609 1852.47668 1852.47668    8.84698    0.34698    0.00000    8.84698  557.11444    0.00000    0.00000    9.62500 1923.90479    0.06186    0.00000    0.00250  -63.99285    0.00000    0.00000  508.00714  263.90601
  508.50000  105.80305    1.01952  103.53586  255.04102    9.96830 1866.76294 1866.76294    8.84864    0.34864    0.00000    8.84864  557.17712    0.00000    0.00000    9.62500 1934.25000    0.06186    0.00000    0.00250  -63.50207    0.00000    0.00000  508.49792  264.16574
  509.00000  110.95267    0.93104  108.68863  255.80998    9.96827 1865.24402 1865.24402    8.82412    0.32412    0.00000    8.82412  557.23975    0.00000    0.00000    9.62500 1931.57141    0.06186    0.00000    0.00250  -63.01189    0.00000    0.00000  508.98810  264.42551
