~Version ---------------------------------------------------
VERS.   2.0 : CWLS log ASCII Standard -VERSION 2.0
WRAP.    NO : One line per depth step
DLM . SPACE : Column Data Section Delimiter
~Well ------------------------------------------------------
STRT.ft              16.5 : START DEPTH
STOP.ft            1462.0 : STOP DEPTH
STEP.ft               0.5 : STEP
NULL.             -999.25 : NULL VALUE
COMP.                     : COMPANY
WELL.           Umiat #18 : WELL
FLD .       Linc_Umiat_18 : FIELD
LOC .                     : LOCATION
PROV.                     : PROVINCE
CNTY.                     : COUNTY
STAT.                     : STATE
CTRY.                     : COUNTRY
SRVC. TERRASCIENCES, Inc. : SERVICE COMPANY
DATE.                     : DATE
UWI .           Umiat #18 : UNIQUE WELL ID
API .           Umiat #18 : API NUMBER
~Curve Information -----------------------------------------
TDEP     .ft    : Measured Depth
DCSI6    .      : Data Copy Status Indicator for Waveform Array 6
DTCO3    .us/F  : Compressional Slowness from Measurement 3
DTCO     .us/F  : Delta-T Compressional
DTSH3    .us/F  : Shear Slowness from Measurement 3
DTSH5    .us/F  : Shear Slowness from Measurement 5
DTSH6    .us/F  : Shear Slowness from Measurement 6
DTSM     .us/F  : Delta-T Shear
DTSTE    .us/F  : The elastic Stoneley slowness
DTST     .us/F  : Delta-T Stoneley - Monopole Stoneley
DWF1     .      : Display Waveform Array 1 Monopole Upper Middle Frequency
DWF1_MONO.      : Display Waveform 1 Monopole Component
DWF2     .      : Display Waveform Array 2 Monopole Lower Middle Frequency
DWF2_MONO.      : Display Waveform 2 Monopole Component
DWF3     .      : Display Waveform Array 3 Monopole Far Middle Frequency
DWF3_MONO.      : Display Waveform 3 Monopole Component
DWF4_MONO.      : Display Waveform 4 Monopole Component
DWF5_DIIN.      : Display Waveform 5 Dipole Inline Component
DWF6_DIIN.      : Display Waveform 6 Dipole Inline Component
ITT      .s     : Integrated Transit Time
LQC_WF1  .      : Log Quality Control for Waveform Array Measurement 1
LQC_WF2  .      : Log Quality Control for Waveform Array Measurement 2
LQC_WF3  .      : Log Quality Control for Waveform Array Measurement 3
LQC_WF4  .      : Log Quality Control for Waveform Array Measurement 4
LQC_WF5  .      : Log Quality Control for Waveform Array Measurement 5
~Params ----------------------------------------------------
PROD   .            TerraStation II : 
PROG   .                         [] : 
RUN    .                         [] : 
DESCENT.                         [] : 
VERSION.                            : 
LINEAGE. Python-converted from DLIS : 
ORFILE .          DynamicImage.dlis : 
~Other -----------------------------------------------------
~ASCII -----------------------------------------------------
# ...
 1263.50000    0.00000   84.83649   84.83649 -999.25000  157.19009  156.78996  157.19009  241.70244  244.02930  113.00000  121.00000   39.00000   51.00000   56.00000   52.00000   47.00000    8.00000    2.00000    0.12187    0.00000    0.00000    0.00000    0.00000    0.00000
 1264.00000    0.00000   84.90350   84.90350 -999.25000  157.35063  157.22235  157.35063  241.77634  244.00275  -47.00000  -37.00000    5.00000    4.00000  158.00000  153.00000  -11.00000   -2.00000    8.00000    0.12183    0.00000    0.00000    0.00000    0.00000    0.00000
 1264.50000    0.00000   85.92780   85.92780 -999.25000  159.22330  158.69818  159.22330  242.63367  244.22354  140.00000  132.00000  -22.00000  -17.00000 -187.00000 -166.00000   35.00000  -14.00000  -11.00000    0.12179    0.00000    0.00000    0.00000    0.00000    0.00000
 1265.00000    0.00000   86.65102   86.65102 -999.25000  160.97060  160.36137  160.97060  243.47719  244.79256   71.00000   87.00000   37.00000   25.00000   35.00000   28.00000  -23.00000   -8.00000    0.00000    0.12174    0.00000    0.00000    0.00000    0.00000    0.00000
 1265.50000    0.00000   87.21627   87.21627 -999.25000  161.82352  161.45676  161.82352  243.91667  245.11040   44.00000   52.00000   26.00000   33.00000 -136.00000 -132.00000    0.00000    0.00000  -17.00000    0.12170    0.00000    0.00000    0.00000    0.00000    0.00000
 1266.00000    0.00000   88.40147   88.40147 -999.25000  163.66386  164.88718  163.66386  244.89024  245.41701  201.00000  208.00000   30.00000   39.00000  -33.00000  -29.00000   83.00000   -5.00000    0.00000    0.12166    0.00000    0.00000    0.00000    0.00000    0.00000
 1266.50000    0.00000   89.07339   89.07339 -999.25000  165.85942  168.25122  165.85942  246.11302  246.00793   95.00000  115.00000   49.00000   59.00000   73.00000   82.00000  -95.00000    2.00000   -8.00000    0.12161    0.00000    0.00000    0.00000    0.00000    0.00000
 1267.00000    0.00000   90.00390   90.00390 -999.25000  166.57393  169.01112  166.57393  246.46693  246.18024  354.00000  363.00000   33.00000   25.00000   38.00000   34.00000   47.00000   -5.00000   -5.00000    0.12157    0.00000    0.00000    0.00000    0.00000    0.00000
 1267.50000    0.00000   89.82681   89.82681 -999.25000  167.01823  169.14505  167.01823  246.65973  246.26202   52.00000   70.00000  185.00000  197.00000  -26.00000  -35.00000  -83.00000    0.00000    0.00000    0.12152    0.00000    0.00000    0.00000    0.00000    0.00000
 1268.00000    0.00000   89.94543   89.94543 -999.25000  165.59219  168.01346  165.59219  246.00490  246.17145  -29.00000  -11.00000  183.00000  161.00000   55.00000   61.00000   47.00000    0.00000    5.00000    0.12148    0.00000    0.00000    0.00000    0.00000    0.00000
 1268.50000    0.00000   90.47620   90.47620 -999.25000  165.68529  166.43362  165.68529  245.94679  246.01317  206.00000  216.00000  158.00000  163.00000   88.00000  103.00000  -35.00000  -11.00000   -5.00000    0.12143    0.00000    0.00000    0.00000    0.00000    0.00000
 1269.00000    0.00000   88.84764   88.84764 -999.25000  164.59003  165.08040  164.59003  245.34830  245.57224  224.00000  229.00000   63.00000   66.00000 -165.00000 -165.00000   47.00000  -14.00000    0.00000    0.12139    0.00000    0.00000    0.00000    0.00000    0.00000
 1269.50000    0.00000   87.91625   87.91625 -999.25000  164.00516  162.17326  164.00516  244.94112  245.37050   55.00000   72.00000    7.00000   20.00000  -37.00000  -33.00000  144.00000  -14.00000   -5.00000    0.12134    0.00000    0.00000    0.00000    0.00000    0.00000
 1270.00000    0.00000   86.13266   86.13266 -999.25000  164.07487  161.49263  164.07487  244.74428  245.15564  -95.00000  -80.00000  141.00000  136.00000   52.00000   39.00000  180.00000   -5.00000  -11.00000    0.12130    0.00000    0.00000    0.00000    0.00000    0.00000
 1270.50000    0.00000   86.98000   86.98000 -999.25000  163.51431  161.99768  163.51431  244.65572  245.08699   10.00000   11.00000 -199.00000 -176.00000  -29.00000  -23.00000    0.00000   -5.00000    0.00000    0.12126    0.00000    0.00000    0.00000    0.00000    0.00000
 1271.00000    0.00000   87.45366   87.45366 -999.25000  162.11455  163.20334  162.11455  244.11497  245.20517    7.00000   13.00000  143.00000  147.00000   96.00000   84.00000   23.00000    5.00000   11.00000    0.12121    0.00000    0.00000    0.00000    0.00000    0.00000
 1271.50000    0.00000   86.97038   86.97038 -999.25000  163.74364  164.94917  163.74364  244.73711  245.43010  100.00000  108.00000  -55.00000  -79.00000   39.00000   32.00000   11.00000    0.00000   11.00000    0.12117    0.00000    0.00000    0.00000    0.00000    0.00000
 1272.00000    0.00000   86.95540   86.95540 -999.25000  163.68622  164.94312  163.68622  244.49158  245.63084   87.00000  105.00000  -17.00000  -34.00000  -20.00000  -20.00000   11.00000    5.00000   -2.00000    0.12113    0.00000    0.00000    0.00000    0.00000    0.00000
 1272.50000    0.00000   87.85577   87.85577 -999.25000  166.31860  167.98590  166.31860  246.03302  245.76175   68.00000   80.00000  117.00000  123.00000   -5.00000    1.00000   83.00000   -2.00000    5.00000    0.12108    0.00000    0.00000    0.00000    0.00000    0.00000
 1273.00000    0.00000   88.71098   88.71098 -999.25000  168.63647  169.32762  168.63647  247.18599  246.09715  203.00000  203.00000   83.00000   93.00000  -44.00000  -50.00000  -23.00000   -5.00000    2.00000    0.12104    0.00000    0.00000    0.00000    0.00000    0.00000
 1273.50000    0.00000   90.04349   90.04349 -999.25000  173.58087  170.07822  173.58087  249.74754  246.56377   98.00000  104.00000   70.00000   71.00000   38.00000   22.00000    0.00000  -20.00000   -2.00000    0.12099    0.00000    0.00000    0.00000    0.00000    0.00000
 1274.00000    0.00000   90.27559   90.27559 -999.25000  188.28838  173.03366  188.28838  257.18115  246.91814   34.00000   51.00000   30.00000   32.00000   54.00000   52.00000    0.00000  -11.00000   -5.00000    0.12095    0.00000    0.00000    0.00000    0.00000    0.00000
 1274.50000    0.00000   92.10426   92.10426 -999.25000  179.03157  174.42747  179.03157  252.61955  247.58549 -255.00000 -214.00000  131.00000  151.00000    7.00000   14.00000    0.00000   -5.00000  -14.00000    0.12090    0.00000    0.00000    0.00000    0.00000    0.00000
 1275.00000    0.00000   92.86045   92.86045 -999.25000  180.51630  175.36153  180.51630  253.51701  247.86172  -15.00000   -5.00000  -11.00000   -4.00000  112.00000  106.00000  168.00000   -2.00000   -2.00000    0.12086    0.00000    0.00000    0.00000    0.00000    0.00000
 1275.50000    0.00000   90.98270   90.98270 -999.25000  179.47308  177.35841  179.47308  252.97124  247.93518   34.00000   50.00000   41.00000   29.00000  168.00000  151.00000   23.00000   -8.00000   11.00000    0.12081    0.00000    0.00000    0.00000    0.00000    0.00000
 1276.00000    0.00000   93.57711   93.57711 -999.25000  186.50613  177.88974  186.50613  256.78574  248.31425  101.00000  103.00000   95.00000   97.00000  -97.00000  -81.00000   83.00000   -5.00000   -2.00000    0.12077    0.00000    0.00000    0.00000    0.00000    0.00000
 1276.50000    0.00000   91.88476   91.88476 -999.25000  189.55664  178.24806  189.55664  258.25156  248.57347   13.00000   13.00000  -83.00000  -72.00000   51.00000   38.00000   23.00000   -5.00000  -11.00000    0.12072    0.00000    0.00000    0.00000    0.00000    0.00000
 1277.00000    0.00000   93.63180   93.63180 -999.25000  185.29355  179.21967  185.29355  256.09943  248.66866  -35.00000  -26.00000  123.00000  123.00000  100.00000   96.00000 -217.00000   -2.00000  -11.00000    0.12067    0.00000    0.00000    0.00000    0.00000    0.00000
 1277.50000    0.00000   93.96828   93.96828 -999.25000  184.87108  179.62820  184.87108  256.04123  248.91399  125.00000  119.00000   31.00000   31.00000   78.00000   64.00000  -23.00000    2.00000    0.00000    0.12063    0.00000    0.00000    0.00000    0.00000    0.00000
