~Version ---------------------------------------------------
VERS.   2.0 : CWLS log ASCII Standard -VERSION 2.0
WRAP.    NO : One line per depth step
DLM . SPACE : Column Data Section Delimiter
~Well ------------------------------------------------------
STRT.ft              16.5 : START DEPTH
STOP.ft            1462.0 : STOP DEPTH
STEP.ft               0.5 : STEP
NULL.             -999.25 : NULL VALUE
COMP.                     : COMPANY
WELL.           Umiat #18 : WELL
FLD .       Linc_Umiat_18 : FIELD
LOC .                     : LOCATION
PROV.                     : PROVINCE
CNTY.                     : COUNTY
STAT.                     : STATE
CTRY.                     : COUNTRY
SRVC. TERRASCIENCES, Inc. : SERVICE COMPANY
DATE.                     : DATE
UWI .           Umiat #18 : UNIQUE WELL ID
API .           Umiat #18 : API NUMBER
~Curve Information -----------------------------------------
TDEP     .ft    : Measured Depth
DCSI6    .      : Data Copy Status Indicator for Waveform Array 6
DTCO3    .us/F  : Compressional Slowness from Measurement 3
DTCO     .us/F  : Delta-T Compressional
DTSH3    .us/F  : Shear Slowness from Measurement 3
DTSH5    .us/F  : Shear Slowness from Measurement 5
DTSH6    .us/F  : Shear Slowness from Measurement 6
DTSM     .us/F  : Delta-T Shear
DTSTE    .us/F  : The elastic Stoneley slowness
DTST     .us/F  : Delta-T Stoneley - Monopole Stoneley
DWF1     .      : Display Waveform Array 1 Monopole Upper Middle Frequency
DWF1_MONO.      : Display Waveform 1 Monopole Component
DWF2     .      : Display Waveform Array 2 Monopole Lower Middle Frequency
DWF2_MONO.      : Display Waveform 2 Monopole Component
DWF3     .      : Display Waveform Array 3 Monopole Far Middle Frequency
DWF3_MONO.      : Display Waveform 3 Monopole Component
DWF4_MONO.      : Display Waveform 4 Monopole Component
DWF5_DIIN.      : Display Waveform 5 Dipole Inline Component
DWF6_DIIN.      : Display Waveform 6 Dipole Inline Component
ITT      .s     : Integrated Transit Time
LQC_WF1  .      : Log Quality Control for Waveform Array Measurement 1
LQC_WF2  .      : Log Quality Control for Waveform Array Measurement 2
LQC_WF3  .      : Log Quality Control for Waveform Array Measurement 3
LQC_WF4  .      : Log Quality Control for Waveform Array Measurement 4
LQC_WF5  .      : Log Quality Control for Waveform Array Measurement 5
~Params ----------------------------------------------------
PROD   .            TerraStation II : 
PROG   .                         [] : 
RUN    .                         [] : 
DESCENT.                         [] : 
VERSION.                            : 
LINEAGE. Python-converted from DLIS : 
ORFILE .          DynamicImage.dlis : 
~Other -----------------------------------------------------
~ASCII -----------------------------------------------------
# ...
  872.00000    0.00000   76.19114   76.19114  135.42082  135.97746  135.22569  135.97746  232.04785  240.75183   31.00000   42.00000  190.00000  196.00000  243.00000  253.00000  180.00000   17.00000   -2.00000    0.15352    0.00000    0.00000    0.00000    0.00000    0.00000
  872.50000    0.00000   76.33531   76.33531  134.99371  135.84576  134.89365  135.84576  232.00853  240.77673  -23.00000  -20.00000  124.00000  118.00000  156.00000  145.00000   59.00000    0.00000   -2.00000    0.15348    0.00000    0.00000    0.00000    0.00000    0.00000
  873.00000    0.00000   76.69526   76.69526  135.57594  135.08551  134.13316  135.08551  231.74649  240.70415  142.00000  150.00000 -238.00000 -208.00000   37.00000   52.00000  253.00000    2.00000   -5.00000    0.15344    0.00000    0.00000    0.00000    0.00000    0.00000
  873.50000    0.00000   76.78545   76.78545  135.03177  134.93420  133.74841  134.93420  231.69531  240.84340   -2.00000    0.00000   82.00000   86.00000 -264.00000 -223.00000  253.00000  -17.00000    0.00000    0.15341    0.00000    0.00000    0.00000    0.00000    0.00000
  874.00000    0.00000   77.29220   77.29220  134.34636  135.30185  132.56749  135.30185  231.79974  240.86981   66.00000   72.00000  126.00000  128.00000   99.00000   96.00000  168.00000    5.00000    5.00000    0.15337    0.00000    0.00000    0.00000    0.00000    0.00000
  874.50000    0.00000   79.58642   79.58642  134.31789  135.42963  132.86809  135.42963  231.91583  241.43465  243.00000  252.00000   39.00000   56.00000 -107.00000  -97.00000 -144.00000   -2.00000    8.00000    0.15333    0.00000    0.00000    0.00000    0.00000    0.00000
  875.00000    0.00000   80.04791   80.04791  137.53851  136.71533  133.10303  136.71533  232.36589  241.92607  156.00000  156.00000  -15.00000  -12.00000 -296.00000 -292.00000 -144.00000   -2.00000    0.00000    0.15329    0.00000    0.00000    0.00000    0.00000    0.00000
  875.50000    0.00000   80.69296   80.69296  137.53680  137.40950  134.16156  137.40950  232.69450  242.33954 -111.00000  -94.00000   10.00000   33.00000 -109.00000  -96.00000   11.00000    0.00000    5.00000    0.15325    0.00000    0.00000    0.00000    0.00000    0.00000
  876.00000    0.00000   81.74866   81.74866  138.95238  139.26909  134.80850  139.26909  233.42264  242.82567  119.00000  134.00000  -68.00000  -60.00000   43.00000   25.00000   71.00000    8.00000    8.00000    0.15321    0.00000    0.00000    0.00000    0.00000    0.00000
  876.50000    0.00000   83.76155   83.76155  139.19656  139.95631  135.02641  139.95631  233.74783  243.71317  134.00000  140.00000  140.00000  140.00000 -182.00000 -171.00000  -95.00000   20.00000    5.00000    0.15317    0.00000    0.00000    0.00000    0.00000    0.00000
  877.00000    0.00000   83.91112   83.91112  139.46872  140.65057  136.13689  140.65057  234.17732  244.23952 -158.00000 -128.00000  119.00000  116.00000  130.00000  123.00000  132.00000   14.00000    5.00000    0.15313    0.00000    0.00000    0.00000    0.00000    0.00000
  877.50000    0.00000   84.55054   84.55054  140.50964  141.26430  135.52786  141.26430  234.44557  244.57416   -2.00000   22.00000   84.00000   94.00000   14.00000   25.00000  -59.00000    5.00000    2.00000    0.15308    0.00000    0.00000    0.00000    0.00000    0.00000
  878.00000    0.00000   86.33157   86.33157  140.43034  143.75504  136.20537  143.75504  235.34341  245.15480  108.00000  118.00000  150.00000  169.00000   41.00000   49.00000 -337.00000   -2.00000    0.00000    0.15304    0.00000    0.00000    0.00000    0.00000    0.00000
  878.50000    0.00000   86.01310   86.01310  140.96625  144.34300  137.94048  144.34300  235.56979  246.06734   34.00000   52.00000   97.00000  111.00000   25.00000   29.00000  -59.00000    2.00000    0.00000    0.15300    0.00000    0.00000    0.00000    0.00000    0.00000
  879.00000    0.00000   87.85352   87.85352  142.21553  145.48959  137.12695  145.48959  236.00027  246.52394   71.00000   79.00000  -97.00000  -95.00000    0.00000  -10.00000  -11.00000   -5.00000    0.00000    0.15295    0.00000    0.00000    0.00000    0.00000    0.00000
  879.50000    0.00000   88.09616   88.09616  143.80530  146.27486  139.36237  146.27486  236.42239  246.97186  296.00000  299.00000  -84.00000  -64.00000  -41.00000  -33.00000  -35.00000    0.00000    8.00000    0.15291    0.00000    0.00000    0.00000    0.00000    0.00000
  880.00000    0.00000   88.71050   88.71050  145.00558  148.67465  139.34358  148.67465  237.41783  247.33269   18.00000   25.00000   23.00000   31.00000 -186.00000 -181.00000   71.00000   -5.00000    2.00000    0.15287    0.00000    0.00000    0.00000    0.00000    0.00000
  880.50000    0.00000   89.18996   89.18996  147.11124  152.77663  140.92856  152.77663  239.22723  247.76096   52.00000   63.00000 -150.00000 -150.00000 -300.00000 -287.00000   59.00000   -8.00000   -2.00000    0.15282    0.00000    0.00000    0.00000    0.00000    0.00000
  881.00000    0.00000   90.77805   90.77805  155.64502  153.16617  142.72220  153.16617  239.46622  249.04744   13.00000   29.00000   27.00000   34.00000  -13.00000  -16.00000   95.00000   -8.00000    2.00000    0.15278    0.00000    0.00000    0.00000    0.00000    0.00000
  881.50000    0.00000   91.35616   91.35616  157.01646  155.86646  144.09294  155.86646  240.67435  249.57884   15.00000   32.00000  150.00000  160.00000 -118.00000 -109.00000  -47.00000   -2.00000    0.00000    0.15273    0.00000    0.00000    0.00000    0.00000    0.00000
  882.00000    0.00000   91.99775   91.99775  160.14658  156.27827  146.57884  156.27827  241.19749  250.33118  -34.00000  -52.00000 -131.00000 -113.00000  104.00000  100.00000   11.00000   -8.00000    5.00000    0.15269    0.00000    0.00000    0.00000    0.00000    0.00000
  882.50000    0.00000   92.51961   92.51961  159.40031  156.74005  147.96471  156.74005  241.51395  251.21136   55.00000   47.00000  118.00000  126.00000  127.00000  122.00000   23.00000  -17.00000    2.00000    0.15264    0.00000    0.00000    0.00000    0.00000    0.00000
  883.00000    0.00000   93.66226   93.66226  160.60239  159.35483  148.50876  159.35483  242.65427  251.60446   66.00000   87.00000 -218.00000 -194.00000  -63.00000  -59.00000   59.00000    5.00000    5.00000    0.15259    0.00000    0.00000    0.00000    0.00000    0.00000
  883.50000    0.00000   93.68692   93.68692  158.46498  160.48207  149.18748  160.48207  243.12166  251.75368  195.00000  165.00000    1.00000  -11.00000   60.00000   41.00000   35.00000   11.00000   -2.00000    0.15255    0.00000    0.00000    0.00000    0.00000    0.00000
  884.00000    0.00000   93.46206   93.46206  160.98232  160.22897  149.30742  160.22897  242.90083  251.76758  322.00000  313.00000  106.00000   99.00000  194.00000  184.00000  -23.00000  -17.00000    2.00000    0.15250    0.00000    0.00000    0.00000    0.00000    0.00000
  884.50000    0.00000   93.49873   93.49873  160.49117  161.09814  149.85703  161.09814  243.29918  251.90552  -71.00000  -59.00000   94.00000   90.00000   72.00000   82.00000  325.00000   -5.00000    0.00000    0.15245    0.00000    0.00000    0.00000    0.00000    0.00000
  885.00000    0.00000   93.19548   93.19548  157.63429  159.77962  153.29245  159.77962  243.05397  251.89326  -95.00000  -98.00000  109.00000  101.00000 -114.00000 -104.00000  -11.00000    0.00000    0.00000    0.15241    0.00000    0.00000    0.00000    0.00000    0.00000
  885.50000    0.00000   92.90735   92.90735  157.49005  159.39154  149.30145  159.39154  242.73505  251.74379  141.00000  146.00000  217.00000  200.00000  -30.00000  -23.00000 -313.00000    0.00000   -2.00000    0.15236    0.00000    0.00000    0.00000    0.00000    0.00000
  886.00000    0.00000   92.84831   92.84831  157.23543  160.11307  148.08121  160.11307  242.84779  251.54430   10.00000   30.00000 -225.00000 -217.00000  -30.00000  -45.00000  -47.00000  -20.00000   -2.00000    0.15231    0.00000    0.00000    0.00000    0.00000    0.00000
