~Version ---------------------------------------------------
VERS.   2.0 : CWLS log ASCII Standard -VERSION 2.0
WRAP.    NO : One line per depth step
DLM . SPACE : Column Data Section Delimiter
~Well ------------------------------------------------------
STRT.ft              16.5 : START DEPTH
STOP.ft            1462.0 : STOP DEPTH
STEP.ft               0.5 : STEP
NULL.             -999.25 : NULL VALUE
COMP.                     : COMPANY
WELL.           Umiat #18 : WELL
FLD .       Linc_Umiat_18 : FIELD
LOC .                     : LOCATION
PROV.                     : PROVINCE
CNTY.                     : COUNTY
STAT.                     : STATE
CTRY.                     : COUNTRY
SRVC. TERRASCIENCES, Inc. : SERVICE COMPANY
DATE.                     : DATE
UWI .           Umiat #18 : UNIQUE WELL ID
API .           Umiat #18 : API NUMBER
~Curve Information -----------------------------------------
TDEP     .ft     : Measured Depth
ECGR_EDTC.gAPI   : Environmentally Corrected Gamma Ray
GDEV_EDTC.deg    : EDTC Hole Deviation from Gravity
GR_EDTC  .gAPI   : Gamma Ray
HV       .V      : Head Voltage
RAZ_EDTC .       : EDTC Raw Z-Axis Acceleration Data
CDF      .lbf    : Calibrated Downhole Force
DF       .lbf    : Uncalibrated Downhole Force
HDAR     .in     : Hole Diameter from Area
DCAL     .in     : Differential Caliper
AZIM     .deg    : Measured Azimuth
GHD      .in     : Borehole Diameter
BHRM     .ohm.m  : Borehole Mud Resistivity
ED       .ft     : East Departure
DLS      .       : Dog Leg Severity
FCD      .in     : Future Casing Diameter
TENS     .lbf    : Cable Tension
ICV      .cuft   : Integrated Cement Volume
ND       .ft     : North Departure
FF       .       : Formation Factor
TVDSS    .ft     : Sub-sea TVD: True Vertical Depth measured from Mean Sea Leve
TDSP     .ft     : Total Displacement (of survey measure point from vertical)
INCL     .deg    : Hole inclination
X        .ft     : Depth Index
BHPR     .psi    : Borehole Pressure
~Params ----------------------------------------------------
PROD   .            TerraStation II : 
PROG   .                         [] : 
RUN    .                         [] : 
DESCENT.                         [] : 
VERSION.                            : 
LINEAGE. Python-converted from DLIS : 
ORFILE .          DynamicImage.dlis : 
~Other -----------------------------------------------------
~ASCII -----------------------------------------------------
# ...
 1263.50000   94.98348    3.20406   93.76491  254.60974    9.92839 1900.18140 1900.18140    8.64449    0.14449    0.00000    8.64449  671.12653    0.00000    0.00000    9.62500 2251.40015    0.06186    0.00000    0.00250  691.48755    0.00000    0.00000 1263.48755  656.38824
 1264.00000   98.54968    3.14803   97.29333  254.56499    9.94072 1911.33728 1911.33728    8.64259    0.14259    0.00000    8.64259  671.21747    0.00000    0.00000    9.62500 2271.55005    0.06186    0.00000    0.00250  691.98669    0.00000    0.00000 1263.98669  656.64801
 1264.50000  104.03135    3.15331  102.59554  255.50484    9.92379 1906.44507 1906.44507    8.66735    0.16735    0.00000    8.66735  671.30841    0.00000    0.00000    9.62500 2266.28589    0.06186    0.00000    0.00250  692.49329    0.00000    0.00000 1264.49329  656.90778
 1265.00000  112.45625    3.25089  110.95878  254.87827    9.98255 1924.30457 1924.30457    8.65593    0.15593    0.00000    8.65593  671.39935    0.00000    0.00000    9.62500 2269.55005    0.06186    0.00000    0.00250  692.99792    0.00000    0.00000 1264.99792  657.16748
 1265.50000  111.52778    3.18911  110.05247  254.84023    9.93849 1896.77039 1896.77039    8.65386    0.15386    0.00000    8.65386  671.49036    0.00000    0.00000    9.62500 2237.00000    0.06186    0.00000    0.00250  693.49670    0.00000    0.00000 1265.49670  657.42725
 1266.00000  112.39275    3.12819  110.78781  254.60974    9.93043 1895.50916 1895.50916    8.67861    0.17861    0.00000    8.67861  671.58136    0.00000    0.00000    9.62500 2255.15015    0.06186    0.00000    0.00250  694.00415    0.00000    0.00000 1266.00415  657.68701
 1266.50000  107.45344    3.20326  106.08398  255.14679    9.95304 1897.38818 1897.38818    8.64250    0.14250    0.00000    8.64250  671.67242    0.00000    0.00000    9.62500 2236.30005    0.06186    0.00000    0.00250  694.49750    0.00000    0.00000 1266.49756  657.94678
 1267.00000  111.44717    3.39488  109.91832  254.96777    9.99345 1916.17896 1916.17896    8.66539    0.16539    0.00000    8.66539  671.76343    0.00000    0.00000    9.62500 2262.90015    0.06186    0.00000    0.00250  694.99207    0.00000    0.00000 1266.99207  658.20648
 1267.50000  111.06721    3.10715  109.54396  254.65450    9.91648 1881.39075 1881.39075    8.66531    0.16531    0.00000    8.66531  671.85455    0.00000    0.00000    9.62500 2245.40015    0.06186    0.00000    0.00250  695.48749    0.00000    0.00000 1267.48755  658.46625
 1268.00000  114.71759    3.08813  113.20010  255.14679    9.96320 1915.19702 1915.19702    8.65386    0.15386    0.00000    8.65386  671.94562    0.00000    0.00000    9.62500 2268.69995    0.06186    0.00000    0.00250  695.98749    0.00000    0.00000 1267.98755  658.72601
 1268.50000  114.25108    3.29485  112.67506  255.23631    9.91180 1893.95166 1893.95166    8.66718    0.16718    0.00000    8.66718  672.03674    0.00000    0.00000    9.62500 2239.90015    0.06186    0.00000    0.00250  696.48755    0.00000    0.00000 1268.48755  658.98578
 1269.00000  112.66738    3.08553  111.12263  254.83351   10.00136 1920.56348 1920.56348    8.66521    0.16521    0.00000    8.66521  672.12793    0.00000    0.00000    9.62500 2272.71436    0.06186    0.00000    0.00250  696.99768    0.00000    0.00000 1268.99756  659.24548
 1269.50000  110.89675    3.24763  109.42979  254.69925    9.94494 1918.07495 1918.07495    8.65386    0.15386    0.00000    8.65386  672.21912    0.00000    0.00000    9.62500 2280.50000    0.06186    0.00000    0.00250  697.50458    0.00000    0.00000 1269.50464  659.50525
 1270.00000  107.87737    3.21954  106.23285  255.05728    9.91018 1885.62280 1885.62280    8.70138    0.20138    0.00000    8.70138  672.31030    0.00000    0.00000    9.62500 2230.85010    0.06186    0.00000    0.00250  698.00421    0.00000    0.00000 1270.00415  659.76495
 1270.50000  104.91128    3.10280  103.46369  255.21617    9.97361 1910.40381 1910.40381    8.66727    0.16727    0.00000    8.66727  672.40155    0.00000    0.00000    9.62500 2270.50000    0.06186    0.00000    0.00250  698.50293    0.00000    0.00000 1270.50293  660.02472
 1271.00000  101.50294    3.20937  100.11126  254.96777    9.98250 1911.79431 1911.79431    8.66521    0.16521    0.00000    8.66521  672.49280    0.00000    0.00000    9.62500 2259.40015    0.06186    0.00000    0.00250  699.00378    0.00000    0.00000 1271.00378  660.28448
 1271.50000  100.86473    3.25137   99.18185  254.25171    9.94141 1893.69788 1893.69788    8.73547    0.23547    0.00000    8.73547  672.58411    0.00000    0.00000    9.62500 2266.25000    0.06186    0.00000    0.00250  699.49420    0.00000    0.00000 1271.49414  660.54425
 1272.00000  104.00591    3.17897  101.82428  255.19156    9.89223 1864.07275 1864.07275    8.83779    0.33779    0.00000    8.83779  672.67535    0.00000    0.00000    9.62500 2205.94995    0.06186    0.00000    0.00250  699.98871    0.00000    0.00000 1271.98877  660.80402
 1272.50000  104.68183    3.24757  102.89322  254.88722   10.03187 1915.75403 1915.75403    8.74500    0.24500    0.00000    8.74500  672.76666    0.00000    0.00000    9.62500 2288.35010    0.06186    0.00000    0.00250  700.49957    0.00000    0.00000 1272.49963  661.06372
 1273.00000  109.06093    3.20455  107.24088  254.69925    9.87683 1871.03040 1871.03040    8.73556    0.23556    0.00000    8.73556  672.85803    0.00000    0.00000    9.62500 2227.68433    0.06186    0.00000    0.00250  700.99390    0.00000    0.00000 1272.99390  661.32349
 1273.50000  107.41898    3.23513  105.93720  255.32582    9.95772 1889.75342 1889.75342    8.66718    0.16718    0.00000    8.66718  672.94946    0.00000    0.00000    9.62500 2244.09985    0.06186    0.00000    0.00250  701.48749    0.00000    0.00000 1273.48755  661.58325
 1274.00000  112.71365    3.25329  111.04994  255.41533    9.98793 1919.66614 1919.66614    8.68995    0.18995    0.00000    8.68995  673.04083    0.00000    0.00000    9.62500 2276.71436    0.06186    0.00000    0.00250  701.99799    0.00000    0.00000 1273.99805  661.84302
 1274.50000  111.42632    3.20607  109.79129  254.43073    9.94785 1895.35669 1895.35669    8.68790    0.18790    0.00000    8.68790  673.13226    0.00000    0.00000    9.62500 2252.55005    0.06186    0.00000    0.00250  702.50378    0.00000    0.00000 1274.50378  662.10272
 1275.00000  112.66116    3.12650  111.16186  254.65225    9.89637 1862.00244 1862.00244    8.65574    0.15574    0.00000    8.65574  673.22375    0.00000    0.00000    9.62500 2219.30005    0.06186    0.00000    0.00250  703.00208    0.00000    0.00000 1275.00208  662.36249
 1275.50000  115.15233    3.34223  113.50845  254.78876    9.98758 1895.79688 1895.79688    8.67852    0.17852    0.00000    8.67852  673.31519    0.00000    0.00000    9.62500 2227.05005    0.06186    0.00000    0.00250  703.50415    0.00000    0.00000 1275.50415  662.62225
 1276.00000  115.87890    3.31381  114.40250  254.34122    9.96887 1885.16565 1885.16565    8.64241    0.14241    0.00000    8.64241  673.40674    0.00000    0.00000    9.62500 2251.25000    0.06186    0.00000    0.00250  704.00336    0.00000    0.00000 1276.00330  662.88202
 1276.50000  118.39934    3.13475  116.76610  255.10204    9.93469 1886.23218 1886.23218    8.66718    0.16718    0.00000    8.66718  673.49823    0.00000    0.00000    9.62500 2232.70020    0.06186    0.00000    0.00250  704.49292    0.00000    0.00000 1276.49292  663.14172
 1277.00000  115.30771    3.22477  113.60620  254.52023    9.92955 1875.63501 1875.63501    8.68985    0.18985    0.00000    8.68985  673.58978    0.00000    0.00000    9.62500 2235.05005    0.06186    0.00000    0.00250  704.98749    0.00000    0.00000 1276.98755  663.40149
 1277.50000  118.95784    3.37371  117.38474  254.52023    9.96842 1879.76562 1879.76562    8.65376    0.15376    0.00000    8.65376  673.68134    0.00000    0.00000    9.62500 2237.19995    0.06186    0.00000    0.00250  705.48584    0.00000    0.00000 1277.48584  663.66125
