~Version ---------------------------------------------------
VERS.   2.0 : CWLS log ASCII Standard -VERSION 2.0
WRAP.    NO : One line per depth step
DLM . SPACE : Column Data Section Delimiter
~Well ------------------------------------------------------
STRT.ft              16.5 : START DEPTH
STOP.ft            1462.0 : STOP DEPTH
STEP.ft               0.5 : STEP
NULL.             -999.25 : NULL VALUE
COMP.                     : COMPANY
WELL.           Umiat #18 : WELL
FLD .       Linc_Umiat_18 : FIELD
LOC .                     : LOCATION
PROV.                     : PROVINCE
CNTY.                     : COUNTY
STAT.                     : STATE
CTRY.                     : COUNTRY
SRVC. TERRASCIENCES, Inc. : SERVICE COMPANY
DATE.                     : DATE
UWI .           Umiat #18 : UNIQUE WELL ID
API .           Umiat #18 : API NUMBER
~Curve Information -----------------------------------------
TDEP     .ft    : Measured Depth
DCSI6    .      : Data Copy Status Indicator for Waveform Array 6
DTCO3    .us/F  : Compressional Slowness from Measurement 3
DTCO     .us/F  : Delta-T Compressional
DTSH3    .us/F  : Shear Slowness from Measurement 3
DTSH5    .us/F  : Shear Slowness from Measurement 5
DTSH6    .us/F  : Shear Slowness from Measurement 6
DTSM     .us/F  : Delta-T Shear
DTSTE    .us/F  : The elastic Stoneley slowness
DTST     .us/F  : Delta-T Stoneley - Monopole Stoneley
DWF1     .      : Display Waveform Array 1 Monopole Upper Middle Frequency
DWF1_MONO.      : Display Waveform 1 Monopole Component
DWF2     .      : Display Waveform Array 2 Monopole Lower Middle Frequency
DWF2_MONO.      : Display Waveform 2 Monopole Component
DWF3     .      : Display Waveform Array 3 Monopole Far Middle Frequency
DWF3_MONO.      : Display Waveform 3 Monopole Component
DWF4_MONO.      : Display Waveform 4 Monopole Component
DWF5_DIIN.      : Display Waveform 5 Dipole Inline Component
DWF6_DIIN.      : Display Waveform 6 Dipole Inline Component
ITT      .s     : Integrated Transit Time
LQC_WF1  .      : Log Quality Control for Waveform Array Measurement 1
LQC_WF2  .      : Log Quality Control for Waveform Array Measurement 2
LQC_WF3  .      : Log Quality Control for Waveform Array Measurement 3
LQC_WF4  .      : Log Quality Control for Waveform Array Measurement 4
LQC_WF5  .      : Log Quality Control for Waveform Array Measurement 5
~Params ----------------------------------------------------
PROD   .            TerraStation II : 
PROG   .                         [] : 
RUN    .                         [] : 
DESCENT.                         [] : 
VERSION.                            : 
LINEAGE. Python-converted from DLIS : 
ORFILE .          DynamicImage.dlis : 
~Other -----------------------------------------------------
~ASCII -----------------------------------------------------
# ...
  306.50000    0.00000   92.36864   92.36864 -999.25000  195.80670  191.95737  195.80670  262.54816  252.08839  -17.00000  -21.00000  203.00000  210.00000  -93.00000  -81.00000  -23.00000   -5.00000   11.00000    0.20073    0.00000    0.00000    0.00000    0.00000    0.00000
  307.00000    0.00000   92.06376   92.06376 -999.25000  192.20650  191.38699  192.20650  260.66458  251.94450 -106.00000 -111.00000  -79.00000  -93.00000  -98.00000  -69.00000  132.00000   -8.00000    2.00000    0.20069    0.00000    0.00000    0.00000    0.00000    0.00000
  307.50000    0.00000   91.79041   91.79041 -999.25000  183.54077  188.29599  183.54077  255.88737  254.47641  145.00000  134.00000  -81.00000  -79.00000  104.00000   84.00000  -23.00000    0.00000    0.00000    0.20064    0.00000    0.00000    0.00000    0.00000    0.00000
  308.00000    0.00000   91.30228   91.30228 -999.25000  175.95451  184.00546  175.95451  251.42886  254.55989   57.00000   62.00000  149.00000  167.00000  -51.00000  -57.00000   83.00000  -11.00000    0.00000    0.20060    0.00000    0.00000    0.00000    0.00000    0.00000
  308.50000    0.00000   99.06337   99.06337 -999.25000  154.10558  181.48363  154.10558  241.66595  254.71198  -45.00000  -35.00000 -138.00000 -135.00000   57.00000   49.00000    0.00000    2.00000   -5.00000    0.20055    0.00000    0.00000    0.00000    0.00000    0.00000
  309.00000    0.00000   91.27251   91.27251  182.04477  149.64563  177.33640  149.64563  239.19467  255.06874    5.00000   11.00000  161.00000  155.00000 -133.00000 -121.00000   83.00000  -11.00000    5.00000    0.20050    0.00000    0.00000    0.00000    0.00000    0.00000
  309.50000    0.00000   90.80725   90.80725  182.04477  165.68784  175.88017  165.68784  245.81888  254.50291  126.00000  139.00000   77.00000   74.00000  -43.00000  -54.00000  -23.00000  -11.00000    2.00000    0.20045    0.00000    0.00000    0.00000    0.00000    0.00000
  310.00000    0.00000   90.68160   90.68160  172.83974  162.79491  177.48665  162.79491  244.39925  255.89618 -138.00000 -134.00000 -115.00000 -113.00000   69.00000   73.00000   59.00000   -5.00000    2.00000    0.20041    0.00000    0.00000    0.00000    0.00000    0.00000
  310.50000    0.00000   90.31239   90.31239 -999.25000  163.42130  177.76689  163.42130  244.76614  256.20883  183.00000  158.00000  -69.00000  -57.00000    9.00000  -24.00000  -47.00000  -23.00000    2.00000    0.20036    0.00000    0.00000    0.00000    0.00000    0.00000
  311.00000    0.00000   89.69702   89.69702 -999.25000  162.16161  178.46429  162.16161  244.27177  255.73152  -10.00000   -5.00000   43.00000   48.00000  -12.00000  -17.00000   11.00000    5.00000   -8.00000    0.20032    0.00000    0.00000    0.00000    0.00000    0.00000
  311.50000    0.00000   89.40998   89.40998 -999.25000  162.17892  179.20071  162.17892  244.18031  256.80276   51.00000   75.00000  -85.00000  -71.00000  227.00000  222.00000 -301.00000    5.00000   -8.00000    0.20027    0.00000    0.00000    0.00000    0.00000    0.00000
  312.00000    0.00000   88.91801   88.91801 -999.25000  161.87474  179.82111  161.87474  244.28726  256.81204 -106.00000  -81.00000  -31.00000  -24.00000 -193.00000 -189.00000 -168.00000   -2.00000    0.00000    0.20023    0.00000    0.00000    0.00000    0.00000    0.00000
  312.50000    0.00000   86.56654   86.56654 -999.25000  159.73311  178.74400  159.73311  243.29938  256.57770    2.00000    8.00000  -11.00000   -6.00000  119.00000  115.00000   23.00000  -14.00000   -5.00000    0.20018    0.00000    0.00000    0.00000    0.00000    0.00000
  313.00000    0.00000   86.54508   86.54508 -999.25000  159.25433  177.56140  159.25433  243.04970  256.34924 -109.00000  -96.00000   93.00000   87.00000   90.00000   79.00000  -23.00000    8.00000    0.00000    0.20014    0.00000    0.00000    0.00000    0.00000    0.00000
  313.50000    0.00000   86.56341   86.56341 -999.25000  158.47061  173.90001  158.47061  242.30748  255.79907  -74.00000  -79.00000  -23.00000  -35.00000  -26.00000  -27.00000  -59.00000    2.00000    2.00000    0.20010    0.00000    0.00000    0.00000    0.00000    0.00000
  314.00000    0.00000   87.26543   87.26543 -999.25000  155.93974  171.46880  155.93974  241.06941  255.38081 -151.00000 -142.00000   67.00000   74.00000 -108.00000  -97.00000  132.00000  -17.00000    0.00000    0.20005    0.00000    0.00000    0.00000    0.00000    0.00000
  314.50000    0.00000   87.60430   87.60430 -999.25000  156.06146  168.93842  156.06146  241.13654  254.91902  -67.00000  -57.00000 -130.00000 -111.00000  -12.00000  -10.00000 -120.00000    5.00000    2.00000    0.20001    0.00000    0.00000    0.00000    0.00000    0.00000
  315.00000    0.00000   88.01100   88.01100 -999.25000  152.75859  164.14383  152.75859  239.62914  254.50385  -45.00000  -34.00000  103.00000  106.00000 -152.00000 -142.00000   47.00000   17.00000   11.00000    0.19997    0.00000    0.00000    0.00000    0.00000    0.00000
  315.50000    0.00000   88.31059   88.31059 -999.25000  151.69682  163.00677  151.69682  239.03516  253.54088   17.00000   28.00000  -13.00000  -36.00000   14.00000   29.00000  132.00000  -17.00000    5.00000    0.19992    0.00000    0.00000    0.00000    0.00000    0.00000
  316.00000    0.00000   88.85730   88.85730 -999.25000  151.44077  161.67421  151.44077  239.10748  252.93271  -82.00000  -67.00000   81.00000   74.00000  -19.00000  -20.00000    0.00000  -11.00000   17.00000    0.19988    0.00000    0.00000    0.00000    0.00000    0.00000
  316.50000    0.00000   87.34274   87.34274 -999.25000  149.25148  158.97087  149.25148  238.12349  252.09450  130.00000  132.00000 -156.00000 -150.00000 -215.00000 -222.00000  132.00000    8.00000   -5.00000    0.19983    0.00000    0.00000    0.00000    0.00000    0.00000
  317.00000    0.00000   88.34676   88.34676 -999.25000  147.08554  154.52170  147.08554  237.05103  249.80077   84.00000   99.00000  121.00000  123.00000 -209.00000 -193.00000  -59.00000    0.00000   -8.00000    0.19979    0.00000    0.00000    0.00000    0.00000    0.00000
  317.50000    0.00000   89.44471   89.44471 -999.25000  140.17459  152.16043  140.17459  235.12479  249.60475 -121.00000 -105.00000   63.00000   80.00000  -59.00000  -42.00000  144.00000  -23.00000   -2.00000    0.19975    0.00000    0.00000    0.00000    0.00000    0.00000
  318.00000    0.00000   90.24315   90.24315 -999.25000  140.53850  148.26993  140.53850  234.49704  248.26898  -66.00000  -55.00000  113.00000  107.00000   40.00000   36.00000  180.00000    8.00000    0.00000    0.19970    0.00000    0.00000    0.00000    0.00000    0.00000
  318.50000    0.00000   89.51746   89.51746 -999.25000  141.10939  148.54604  141.10939  234.76956  246.88452  153.00000  158.00000   49.00000   50.00000  115.00000  113.00000  -47.00000    8.00000    2.00000    0.19966    0.00000    0.00000    0.00000    0.00000    0.00000
  319.00000    0.00000   87.99264   87.99264 -999.25000  142.19774  148.22476  142.19774  235.06223  246.02457  261.00000  275.00000   42.00000   60.00000   87.00000   82.00000   83.00000    5.00000    5.00000    0.19961    0.00000    0.00000    0.00000    0.00000    0.00000
  319.50000    0.00000   87.82192   87.82192 -999.25000  143.41364  148.86235  143.41364  235.49712  245.69582  190.00000  201.00000  116.00000  126.00000   70.00000   27.00000    0.00000   -5.00000    8.00000    0.19957    0.00000    0.00000    0.00000    0.00000    0.00000
  320.00000    0.00000   78.56325   78.56325 -999.25000  143.89153  149.79890  143.89153  235.25589  245.48451  -66.00000  -41.00000  126.00000  128.00000  -12.00000  -14.00000   35.00000    0.00000    5.00000    0.19952    0.00000    0.00000    0.00000    0.00000    0.00000
  320.50000    0.00000   80.01900   80.01900 -999.25000  145.01071  151.16121  145.01071  235.69440  245.66180  201.00000  201.00000   -5.00000   -1.00000  -84.00000  -76.00000  108.00000    0.00000   14.00000    0.19949    0.00000    0.00000    0.00000    0.00000    0.00000
