~Version ---------------------------------------------------
VERS.   2.0 : CWLS log ASCII Standard -VERSION 2.0
WRAP.    NO : One line per depth step
DLM . SPACE : Column Data Section Delimiter
~Well ------------------------------------------------------
STRT.ft              16.5 : START DEPTH
STOP.ft            1462.0 : STOP DEPTH
STEP.ft               0.5 : STEP
NULL.             -999.25 : NULL VALUE
COMP.                     : COMPANY
WELL.           Umiat #18 : WELL
FLD .       Linc_Umiat_18 : FIELD
LOC .                     : LOCATION
PROV.                     : PROVINCE
CNTY.                     : COUNTY
STAT.                     : STATE
CTRY.                     : COUNTRY
SRVC. TERRASCIENCES, Inc. : SERVICE COMPANY
DATE.                     : DATE
UWI .           Umiat #18 : UNIQUE WELL ID
API .           Umiat #18 : API NUMBER
~Curve Information -----------------------------------------
TDEP     .ft     : Measured Depth
QUAF2    .       : 
EHGR_EDTC.gAPI   : High Resolution Corrected Gamma Ray
HGR_EDTC .gAPI   : High Resolution Gamma Ray
HCAL     .in     : HRCC Caliper Calibrated
NPHI     .%/100  : Thermal Neutron Porosity (original Ratio Method) in Selected
GR       .gAPI   : Gamma Ray
AF10     .ohm.m  : Array Induction Four Foot Resistivity A10
AF20     .ohm.m  : Array Induction Four Foot Resistivity A20
AF30     .ohm.m  : Array Induction Four Foot Resistivity A30
AF60     .ohm.m  : Array Induction Four Foot Resistivity A60
AF90     .ohm.m  : Array Induction Four Foot Resistivity A90
AO10     .ohm.m  : Array Induction One Foot Resistivity A10
AO30     .ohm.m  : Array Induction One Foot Resistivity A30
AO60     .ohm.m  : Array Induction One Foot Resistivity A60
AO90     .ohm.m  : Array Induction One Foot Resistivity A90
AT10     .ohm.m  : Array Induction Two Foot Resistivity A10
AT20     .ohm.m  : Array Induction Two Foot Resistivity A20
AT30     .ohm.m  : Array Induction Two Foot Resistivity A30
AT60     .ohm.m  : Array Induction Two Foot Resistivity A60
AT90     .ohm.m  : Array Induction Two Foot Resistivity A90
HMIN     .ohm.m  : HIP Micro Inverse Resistivity
HMNO     .ohm.m  : HIP Micro Normal Resistivity
RXOZ     .ohm.m  : Invaded Formation Resistivity filtered at 18 inches
DPHZ     .%/100  : Standard Resolution Density Porosity
~Params ----------------------------------------------------
PROD   .            TerraStation II : 
PROG   .                         [] : 
RUN    .                         [] : 
DESCENT.                         [] : 
VERSION.                            : 
LINEAGE. Python-converted from DLIS : 
ORFILE .          DynamicImage.dlis : 
~Other -----------------------------------------------------
~ASCII -----------------------------------------------------
# ...
  248.50000 -999.25000   98.38114   96.13163    9.10430    0.30900   85.19740   53.16450   65.71550   94.63620   91.40630   94.66650   47.67200   69.83610   62.92350   68.49620   49.38990   62.50120   82.22340   79.99400   74.36530  638.62970  569.96759  585.06769    0.02790
  249.00000 -999.25000   83.06097   81.08362    9.12820    0.28790   75.00660   58.53630   72.32360  107.89010  104.17520  107.13710   58.74310   90.51120   79.91330   88.51070   56.87350   73.52670  101.00380   97.92780   85.06840  373.90820  332.93039  619.67047    0.03040
  249.50000 -999.25000   67.84307   66.16918    9.14020    0.24600   63.97140   64.39220   79.93300  125.85800  123.20290  125.27290   69.77320  119.29560  105.87580  119.17990   65.84840   85.02720  126.38140  124.02350  103.72990  299.15771  268.05380  664.49591    0.03160
  250.00000   18.00000   49.93995   48.63759    9.17610    0.20200   50.31530   72.76430   92.23410  152.80840  147.03819  149.69740   84.63010  198.78000  170.53990  198.46010   79.06250  106.02560  180.07050  168.82060  126.40810   66.67420   93.55190 1057.25256    0.02050
  250.50000 -999.25000   49.81581   48.53658    9.15220    0.15250   43.18140   80.27210  101.42700  171.48779  166.91409  169.93970   92.32290  284.72031  261.94958  331.91379   94.32220  124.42200  214.47400  203.50369  159.01221   72.64050  101.16420 2668.43726    0.01100
  251.00000 -999.25000   41.89313   40.93829    9.12820    0.12090   41.17210   81.21710  103.90750  173.45441  172.68179  175.77470   98.31760  418.48779  401.47281  531.36279   98.31320  143.03360  222.31419  208.34140  170.40739  719.16827  669.88239 2318.60229   -0.00450
  251.50000 -999.25000   42.26785   41.36115    9.10430    0.10990   42.22030   74.52780   96.04810  156.59441  156.23531  158.20930   98.67190  407.49741  414.26071  540.52551   95.20040  144.06650  212.71120  216.59441  189.62939 1164.85168 1054.17102 1689.78442   -0.01020
  252.00000   18.00000   44.48647   43.53550    9.10430    0.11640   47.72380   62.45780   79.67310  126.27280  126.45860  128.53600   84.14510  235.64050  270.37521  333.22400   71.69170   99.00160  169.22340  155.56841  141.53380  832.25403  743.37817  554.44092   -0.01520
  252.50000 -999.25000   61.87113   60.60253    9.08040    0.15640   56.28420   50.95370   62.95980   94.41140   97.33430   98.98920   67.97720  147.44209  166.80910  187.00140   54.79430   71.31120  111.68310  110.75860  102.98910  283.09000  251.84320  566.58612   -0.01150
  253.00000 -999.25000   71.99010   70.45119    9.08040    0.19870   69.91140   41.89830   50.54980   71.03270   75.19160   76.09210   43.63380   73.87500   84.94380   94.45460   42.99160   54.02230   75.26100   78.05470   74.74470   66.99960   92.79640  623.17950   -0.01040
  253.50000 -999.25000   87.19153   85.41035    9.08040    0.23870   78.47150   35.36110   41.73260   55.64170   59.96470   60.35930   32.78910   50.55850   57.49520   61.85380   33.99230   40.98860   54.74380   59.28990   58.37670  206.95680  218.51340 2573.77563   -0.01510
  254.00000   18.00000  101.69338   99.03471    9.08040    0.27420   84.49880   30.85870   35.82610   46.03260   49.93470   50.19460   26.54000   38.06600   42.77070   45.29770   28.36150   33.05300   41.60510   44.81510   44.38180  598.28778  565.13092  530.49890    0.00370
  254.50000 -999.25000   98.30909   95.78423    9.17610    0.31630   86.74110   27.97480   32.10640   40.27350   43.62980   44.01210   22.12380   30.75240   32.60960   34.18850   25.23290   28.83920   35.34630   39.15940   37.96920  229.10291  203.68100   87.32630    0.01690
  255.00000 -999.25000  103.80653  101.05079    9.20000    0.35560   90.61390   26.27330   29.95960   36.98420   39.76210   40.25880   24.66080   35.12160   35.82670   37.52770   24.93730   29.16640   35.61100   37.95280   38.52790   37.56980   33.20400   56.35460    0.01970
  255.50000 -999.25000   98.88924   96.11956    9.24790    0.34380   92.73980   25.26410   28.76810   35.02020   37.29700   37.85690   26.44590   37.45170   37.48550   39.27140   25.22360   29.06940   35.38720   37.12420   38.19090   64.68030   57.25840   61.82130    0.00740
  256.00000   18.00000  108.01144  105.08658    9.22400    0.33720   98.53390   24.49550   27.72240   33.33630   35.27810   35.86900   26.22550   35.23810   36.57370   38.35580   25.89130   29.23690   34.35130   36.29250   37.80360   73.02850  101.59720  157.56740    0.00440
  256.50000 -999.25000  112.62691  109.58473    9.20000    0.33050  101.79490   23.60020   26.60070   31.64910   33.37230   34.06390   24.14880   32.92360   35.60680   37.28690   23.83260   27.38580   32.18370   33.85500   35.54760  142.22200  164.59959 2791.71704    0.02690
  257.00000 -999.25000  109.64182  106.57098    9.17610    0.37700  106.48310   22.62850   25.33280   29.91320   31.56130   32.33930   22.62890   29.28080   31.04780   32.38440   22.61850   26.00870   30.02820   31.42710   33.18780  509.47110  488.66269 2192.19360    0.02480
  257.50000 -999.25000  118.73767  115.46696    9.21200    0.37540  107.21070   21.53540   24.14120   28.31570   29.92350   30.83120   22.30470   29.39900   31.52400   32.76800   21.56620   24.43400   28.41040   29.75240   31.65440 1165.21167 1044.23254   68.98520    0.01910
  258.00000   14.00000  119.63577  116.73990    9.15220    0.39610  104.96900   21.02410   23.43090   27.38370   29.06930   30.00750   21.48750   25.07630   25.50090   26.39490   19.96280   22.42950   25.87290   27.53160   28.41180   16.24220   14.35110   33.43970    0.01890
  258.50000 -999.25000  131.89279  128.63860    9.15220    0.39510  108.17130   21.27450   23.70040   27.69510   29.41400   30.31390   15.91760   21.49320   21.51610   22.15140   18.36540   20.07370   22.86790   24.71070   24.93000   18.32860   16.19050   33.62870    0.05500
  259.00000 -999.25000  130.73572  127.31777    9.15220    0.43050  106.74500   22.69700   25.40100   29.85890   31.53310   32.40500   17.13550   20.26120   20.89950   21.57820   18.92980   20.66400   23.42630   24.89130   25.52030  445.63199  428.00290  111.23500    0.07810
  259.50000 -999.25000  108.73812  104.02408    9.15220    0.37210  106.94860   25.50220   29.03350   34.54000   36.16900   37.33380   24.66750   29.44050   28.57980   29.69500   24.40110   27.61490   32.12540   33.74580   34.50400   64.04340   90.16340  157.02060    0.08150
  260.00000   17.00000  106.67001  103.68240    9.20000    0.29330   95.76760   29.36650   33.70890   40.73550   42.25250   43.58990   49.39430   61.69180   60.86490   63.61320   35.26050   43.04580   51.72020   53.42540   54.75310   53.09730   48.72010  136.30701    0.05580
  260.50000 -999.25000   88.77657   85.32333    9.42740    0.21910   92.30270   33.18230   38.65370   47.44240   48.88680   50.69960   64.52120   83.75000   75.01780   78.67660   45.61440   57.60990   68.45060   69.31210   70.27960   60.12760   62.92220  120.75360    0.04600
  261.00000 -999.25000   89.27150   85.63916    9.60690    0.23090   89.65280   35.55730   41.50910   51.66800   53.09560   55.27970   47.95740   72.25570   74.63640   81.43220   45.17620   55.34210   66.82770   67.35450   67.20980  205.14140  197.99879  752.40411    0.05420
  261.50000 -999.25000  113.10687  108.24764    9.53510    0.31020   97.83490   35.92370   41.51430   52.21100   53.70550   55.54710   38.35070   59.13110   58.79360   63.83090   37.47640   44.23670   55.05870   56.51110   56.45760  375.27359  348.13800  769.46429    0.07650
  262.00000   17.00000   99.66476   94.98815    9.53510    0.38830  105.95850   34.83230   39.72910   50.59450   52.01070   53.78480   31.52220   43.74580   45.02510   48.41560   32.75600   37.63120   46.96620   48.71470   48.38540   73.81730  104.06860 3278.54785    0.09500
  262.50000 -999.25000  105.00270  101.33882    9.41540    0.43520  116.96490   34.01190   38.77770   49.40430   50.56210   51.98580   28.79270   38.09750   37.67780   40.05760   30.01640   34.30370   42.80420   44.58840   43.73070  554.65778  528.12292  447.14151    0.09220
