~Version ---------------------------------------------------
VERS.   2.0 : CWLS log ASCII Standard -VERSION 2.0
WRAP.    NO : One line per depth step
DLM . SPACE : Column Data Section Delimiter
~Well ------------------------------------------------------
STRT.ft              16.5 : START DEPTH
STOP.ft            1462.0 : STOP DEPTH
STEP.ft               0.5 : STEP
NULL.             -999.25 : NULL VALUE
COMP.                     : COMPANY
WELL.           Umiat #18 : WELL
FLD .       Linc_Umiat_18 : FIELD
LOC .                     : LOCATION
PROV.                     : PROVINCE
CNTY.                     : COUNTY
STAT.                     : STATE
CTRY.                     : COUNTRY
SRVC. TERRASCIENCES, Inc. : SERVICE COMPANY
DATE.                     : DATE
UWI .           Umiat #18 : UNIQUE WELL ID
API .           Umiat #18 : API NUMBER
~Curve Information -----------------------------------------
TDEP     .ft     : Measured Depth
ECGR_EDTC.gAPI   : Environmentally Corrected Gamma Ray
GDEV_EDTC.deg    : EDTC Hole Deviation from Gravity
GR_EDTC  .gAPI   : Gamma Ray
HV       .V      : Head Voltage
RAZ_EDTC .       : EDTC Raw Z-Axis Acceleration Data
CDF      .lbf    : Calibrated Downhole Force
DF       .lbf    : Uncalibrated Downhole Force
HDAR     .in     : Hole Diameter from Area
DCAL     .in     : Differential Caliper
AZIM     .deg    : Measured Azimuth
GHD      .in     : Borehole Diameter
BHRM     .ohm.m  : Borehole Mud Resistivity
ED       .ft     : East Departure
DLS      .       : Dog Leg Severity
FCD      .in     : Future Casing Diameter
TENS     .lbf    : Cable Tension
ICV      .cuft   : Integrated Cement Volume
ND       .ft     : North Departure
FF       .       : Formation Factor
TVDSS    .ft     : Sub-sea TVD: True Vertical Depth measured from Mean Sea Leve
TDSP     .ft     : Total Displacement (of survey measure point from vertical)
INCL     .deg    : Hole inclination
X        .ft     : Depth Index
BHPR     .psi    : Borehole Pressure
~Params ----------------------------------------------------
PROD   .            TerraStation II : 
PROG   .                         [] : 
RUN    .                         [] : 
DESCENT.                         [] : 
VERSION.                            : 
LINEAGE. Python-converted from DLIS : 
ORFILE .          DynamicImage.dlis : 
~Other -----------------------------------------------------
~ASCII -----------------------------------------------------
# ...
  306.50000  120.82507 -999.25000  118.06284  254.74400    9.95662 1797.17114 1797.17114    8.88309    0.38309    0.00000    8.88309  532.96613    0.00000    0.00000    9.62500 1819.75000    0.06370    0.00000    0.00250 -265.50705    0.00000    0.00000  306.49292  159.22673
  307.00000  116.38302 -999.25000  114.05263  254.65450    9.99578 1811.96667 1811.96667    8.81498    0.31498    0.00000    8.81498  533.02350    0.00000    0.00000    9.62500 1806.33337    0.06370    0.00000    0.00250 -265.00873    0.00000    0.00000  306.99127  159.48650
  307.50000  108.70285 -999.25000  106.52625  254.05844    9.97078 1784.38391 1784.38391    8.81498    0.31498    0.00000    8.81498  533.08081    0.00000    0.00000    9.62500 1775.66675    0.06370    0.00000    0.00250 -264.49683    0.00000    0.00000  307.50317  159.74625
  308.00000   99.85728    0.50085   97.66861  254.83351    9.92625 1780.27637 1780.27637    8.86040    0.36040    0.00000    8.86040  533.13818    0.00000    0.00000    9.62500 1791.40002    0.06370    0.00000    0.00250 -263.99832    0.00000    0.00000  308.00168  160.00600
  308.50000   94.74803 -999.25000   92.67837  254.78876    9.95497 1785.82886 1785.82886    8.85862    0.35862    0.00000    8.85862  533.19556    0.00000    0.00000    9.62500 1795.40002    0.06370    0.00000    0.00250 -263.50833    0.00000    0.00000  308.49167  160.26575
  309.00000   82.24679    0.27976   80.29507  254.11743   10.02660 1823.32581 1823.32581    8.90404    0.40404    0.00000    8.90404  533.25293    0.00000    0.00000    9.62500 1817.57153    0.06370    0.00000    0.00250 -263.00555    0.00000    0.00000  308.99445  160.52550
  309.50000   71.49651 -999.25000   69.36669  255.08374    9.93551 1777.12842 1777.12842    9.05148    0.55148    0.00000    9.05148  533.31030    0.00000    0.00000    9.62500 1772.90479    0.06370    0.00000    0.00250 -262.49957    0.00000    0.00000  309.50040  160.78526
  310.00000   60.19090 -999.25000   58.17339  254.20694    9.97192 1792.60034 1792.60034    9.14340    0.64340    0.00000    9.14340  533.36774    0.00000    0.00000    9.62500 1790.80005    0.06370    0.00000    0.00250 -261.99957    0.00000    0.00000  310.00043  161.04500
  310.50000   56.64737 -999.25000   54.82641  254.83351    9.95743 1784.08533 1784.08533    9.10945    0.60945    0.00000    9.10945  533.42511    0.00000    0.00000    9.62500 1774.40002    0.06370    0.00000    0.00250 -261.50623    0.00000    0.00000  310.49374  161.30475
  311.00000   52.01313 -999.25000   50.43669  257.81784    9.92665 1785.27258 1785.27258    9.06423    0.56423    0.00000    9.06423  533.48254    0.00000    0.00000    9.62500 1803.90479    0.06370    0.00000    0.00250 -261.00555    0.00000    0.00000  310.99445  161.56450
  311.50000   51.09229 -999.25000   49.40296  259.35373    9.99903 1848.09216 1848.09216    9.13215    0.63215    0.00000    9.13215  533.53998    0.00000    0.00000    9.62500 1863.25012    0.06370    0.00000    0.00250 -260.50125    0.00000    0.00000  311.49875  161.82425
  312.00000   49.21103 -999.25000   47.81021  259.93555    9.97968 1802.97766 1802.97766    9.01908    0.51908    0.00000    9.01908  533.59747    0.00000    0.00000    9.62500 1806.19043    0.06370    0.00000    0.00250 -260.00513    0.00000    0.00000  311.99484  162.08398
  312.50000   52.48074 -999.25000   51.08456  259.86841    9.93961 1803.67786 1803.67786    8.97368    0.47368    0.00000    8.97368  533.65491    0.00000    0.00000    9.62500 1812.50000    0.06370    0.00000    0.00250 -259.50833    0.00000    0.00000  312.49167  162.34375
  313.00000   55.06538 -999.25000   53.60044  259.48801    9.99225 1805.05981 1805.05981    8.97368    0.47368    0.00000    8.97368  533.71240    0.00000    0.00000    9.62500 1799.66675    0.06370    0.00000    0.00250 -259.00592    0.00000    0.00000  312.99405  162.60350
  313.50000   58.53235 -999.25000   56.68118  260.02505    9.97158 1799.03320 1799.03320    9.09665    0.59665    0.00000    9.09665  533.76990    0.00000    0.00000    9.62500 1809.25012    0.06370    0.00000    0.00250 -258.50372    0.00000    0.00000  313.49625  162.86325
  314.00000   58.36298 -999.25000   56.41029  260.29562    9.96137 1808.73560 1808.73560    9.14189    0.64189    0.00000    9.14189  533.82739    0.00000    0.00000    9.62500 1818.38098    0.06370    0.00000    0.00250 -258.00116    0.00000    0.00000  313.99881  163.12300
  314.50000   60.47689 -999.25000   58.56449  260.02505    9.96447 1808.76721 1808.76721    9.09654    0.59654    0.00000    9.09654  533.88489    0.00000    0.00000    9.62500 1823.00000    0.06370    0.00000    0.00250 -257.50540    0.00000    0.00000  314.49460  163.38275
  315.00000   59.36930 -999.25000   57.51906  260.15933    9.96573 1809.90137 1809.90137    9.08529    0.58529    0.00000    9.08529  533.94244    0.00000    0.00000    9.62500 1821.00000    0.06370    0.00000    0.00250 -257.00513    0.00000    0.00000  314.99484  163.64252
  315.50000   59.19030 -999.25000   57.15241  259.48801    9.95016 1826.11902 1826.11902    9.16598    0.66598    0.00000    9.16598  533.99994    0.00000    0.00000    9.62500 1844.54993    0.06370    0.00000    0.00250 -256.50623    0.00000    0.00000  315.49374  163.90225
  316.00000   57.45705 -999.25000   55.71931  259.44327    9.97844 1835.17566 1835.17566    9.06265    0.56265    0.00000    9.06265  534.05750    0.00000    0.00000    9.62500 1838.34998    0.06370    0.00000    0.00250 -256.01248    0.00000    0.00000  315.98749  164.16200
  316.50000   60.81070    0.30583   59.05195  259.93555    9.95486 1834.43091 1834.43091    9.03023    0.53023    0.00000    9.03023  534.11511    0.00000    0.00000    9.62500 1852.76208    0.06370    0.00000    0.00250 -255.50475    0.00000    0.00000  316.49524  164.42175
  317.00000   64.62325 -999.25000   62.84393  259.56937    9.99100 1856.37256 1856.37256    8.99633    0.49633    0.00000    8.99633  534.17267    0.00000    0.00000    9.62500 1850.50012    0.06370    0.00000    0.00250 -255.00833    0.00000    0.00000  316.99167  164.68150
  317.50000   69.90136 -999.25000   68.07446  259.57751    9.95031 1819.58447 1819.58447    8.96229    0.46229    0.00000    8.96229  534.23022    0.00000    0.00000    9.62500 1831.47620    0.06370    0.00000    0.00250 -254.50554    0.00000    0.00000  317.49445  164.94124
  318.00000   71.79875 -999.25000   69.92226  260.02505    9.96698 1856.67505 1856.67505    8.96229    0.46229    0.00000    8.96229  534.28784    0.00000    0.00000    9.62500 1874.55005    0.06370    0.00000    0.00250 -254.00374    0.00000    0.00000  317.99625  165.20100
  318.50000   69.77439 -999.25000   68.04848  259.53278    9.97026 1844.41858 1844.41858    8.92835    0.42835    0.00000    8.92835  534.34546    0.00000    0.00000    9.62500 1860.80945    0.06370    0.00000    0.00250 -253.50476    0.00000    0.00000  318.49524  165.46075
  319.00000   67.77602 -999.25000   66.13630  259.31305    9.96898 1879.44775 1879.44775    8.91523    0.41523    0.00000    8.91523  534.40314    0.00000    0.00000    9.62500 1895.23816    0.06370    0.00000    0.00250 -252.99564    0.00000    0.00000  319.00436  165.72050
  319.50000   67.63428    0.30067   65.92981  259.65482    9.94683 1854.43335 1854.43335    8.93963    0.43963    0.00000    8.93963  534.46075    0.00000    0.00000    9.62500 1876.20007    0.06370    0.00000    0.00250 -252.50082    0.00000    0.00000  319.49918  165.98026
  320.00000   68.59408    0.43251   66.76923  258.95096    9.95204 1860.87341 1860.87341    8.97368    0.47368    0.00000    8.97368  534.51837    0.00000    0.00000    9.62500 1874.23804    0.06370    0.00000    0.00250 -252.00395    0.00000    0.00000  319.99603  166.24001
  320.50000   70.18497 -999.25000   68.18742  259.04047    9.99009 1857.77539 1857.77539    9.01897    0.51897    0.00000    9.01897  534.57605    0.00000    0.00000    9.62500 1867.29993    0.06370    0.00000    0.00250 -251.50456    0.00000    0.00000  320.49542  166.49977
