~Version ---------------------------------------------------
VERS.   2.0 : CWLS log ASCII Standard -VERSION 2.0
WRAP.    NO : One line per depth step
DLM . SPACE : Column Data Section Delimiter
~Well ------------------------------------------------------
STRT.ft              16.5 : START DEPTH
STOP.ft            1462.0 : STOP DEPTH
STEP.ft               0.5 : STEP
NULL.             -999.25 : NULL VALUE
COMP.                     : COMPANY
WELL.           Umiat #18 : WELL
FLD .       Linc_Umiat_18 : FIELD
LOC .                     : LOCATION
PROV.                     : PROVINCE
CNTY.                     : COUNTY
STAT.                     : STATE
CTRY.                     : COUNTRY
SRVC. TERRASCIENCES, Inc. : SERVICE COMPANY
DATE.                     : DATE
UWI .           Umiat #18 : UNIQUE WELL ID
API .           Umiat #18 : API NUMBER
~Curve Information -----------------------------------------
TDEP     .ft     : Measured Depth
ECGR_EDTC.gAPI   : Environmentally Corrected Gamma Ray
GDEV_EDTC.deg    : EDTC Hole Deviation from Gravity
GR_EDTC  .gAPI   : Gamma Ray
HV       .V      : Head Voltage
RAZ_EDTC .       : EDTC Raw Z-Axis Acceleration Data
CDF      .lbf    : Calibrated Downhole Force
DF       .lbf    : Uncalibrated Downhole Force
HDAR     .in     : Hole Diameter from Area
DCAL     .in     : Differential Caliper
AZIM     .deg    : Measured Azimuth
GHD      .in     : Borehole Diameter
BHRM     .ohm.m  : Borehole Mud Resistivity
ED       .ft     : East Departure
DLS      .       : Dog Leg Severity
FCD      .in     : Future Casing Diameter
TENS     .lbf    : Cable Tension
ICV      .cuft   : Integrated Cement Volume
ND       .ft     : North Departure
FF       .       : Formation Factor
TVDSS    .ft     : Sub-sea TVD: True Vertical Depth measured from Mean Sea Leve
TDSP     .ft     : Total Displacement (of survey measure point from vertical)
INCL     .deg    : Hole inclination
X        .ft     : Depth Index
BHPR     .psi    : Borehole Pressure
~Params ----------------------------------------------------
PROD   .            TerraStation II : 
PROG   .                         [] : 
RUN    .                         [] : 
DESCENT.                         [] : 
VERSION.                            : 
LINEAGE. Python-converted from DLIS : 
ORFILE .          DynamicImage.dlis : 
~Other -----------------------------------------------------
~ASCII -----------------------------------------------------
# ...
  872.00000   88.05698    2.33070   86.80653  260.10339    9.98862 1907.71973 1907.71973    8.67675    0.17675    0.00000    8.67675  606.77869    0.00000    0.00000    9.62500 2121.47363    0.06186    0.00000    0.00250  299.99124    0.00000    0.00000  871.99121  453.00400
  872.50000   89.12785    2.24341   87.86219  260.19736    9.93807 1899.96973 1899.96973    8.67675    0.17675    0.00000    8.67675  606.85297    0.00000    0.00000    9.62500 2123.44995    0.06186    0.00000    0.00250  300.49127    0.00000    0.00000  872.49127  453.26376
  873.00000   88.57114    2.51816   87.35611  260.11456    9.96379 1941.47021 1941.47021    8.66539    0.16539    0.00000    8.66539  606.92731    0.00000    0.00000    9.62500 2160.89990    0.06186    0.00000    0.00250  301.00211    0.00000    0.00000  873.00208  453.52353
  873.50000   88.04973    2.47465   86.83450  260.29135    9.94676 1930.72046 1930.72046    8.66735    0.16735    0.00000    8.66735  607.00165    0.00000    0.00000    9.62500 2144.47388    0.06186    0.00000    0.00250  301.50046    0.00000    0.00000  873.50043  453.78329
  874.00000   90.58192    2.57413   89.33173  260.52631    9.96327 1939.12817 1939.12817    8.66735    0.16735    0.00000    8.66735  607.07605    0.00000    0.00000    9.62500 2157.30005    0.06186    0.00000    0.00250  302.00085    0.00000    0.00000  874.00085  454.04300
  874.50000   90.73126    2.53320   89.44284  260.15933    9.94408 1938.69397 1938.69397    8.67675    0.17675    0.00000    8.67675  607.15039    0.00000    0.00000    9.62500 2156.57910    0.06186    0.00000    0.00250  302.50351    0.00000    0.00000  874.50348  454.30276
  875.00000   85.79134    2.46029   84.56595  260.24435    9.96359 1944.49609 1944.49609    8.67870    0.17870    0.00000    8.67870  607.22485    0.00000    0.00000    9.62500 2154.09985    0.06186    0.00000    0.00250  303.00043    0.00000    0.00000  875.00043  454.56250
  875.50000   74.65819    2.33129   73.63401  259.91541    9.94569 1930.41833 1930.41833    8.66539    0.16539    0.00000    8.66539  607.29926    0.00000    0.00000    9.62500 2162.94751    0.06186    0.00000    0.00250  303.49915    0.00000    0.00000  875.49915  454.82224
  876.00000   63.43820    2.47298   62.56794  260.24884    9.94178 1925.50659 1925.50659    8.66539    0.16539    0.00000    8.66539  607.37372    0.00000    0.00000    9.62500 2150.75000    0.06186    0.00000    0.00250  303.99875    0.00000    0.00000  875.99878  455.08200
  876.50000   52.64896    2.45423   51.92671  260.10339    9.96597 1929.40515 1929.40515    8.66539    0.16539    0.00000    8.66539  607.44812    0.00000    0.00000    9.62500 2129.63159    0.06186    0.00000    0.00250  304.50003    0.00000    0.00000  876.50000  455.34174
  877.00000   45.84646    2.38220   45.35116  260.05640    9.96948 1930.15161 1930.15161    8.59703    0.09703    0.00000    8.59703  607.52264    0.00000    0.00000    9.62500 2144.30005    0.06186    0.00000    0.00250  305.00168    0.00000    0.00000  877.00165  455.60150
  877.50000   45.09679    2.52422   44.63171  260.43234    9.98037 1951.01953 1951.01953    8.58558    0.08558    0.00000    8.58558  607.59711    0.00000    0.00000    9.62500 2156.89478    0.06186    0.00000    0.00250  305.50046    0.00000    0.00000  877.50043  455.86124
  878.00000   49.52575    2.66021   48.93829  260.78589    9.93952 1931.65149 1931.65149    8.62179    0.12179    0.00000    8.62179  607.67163    0.00000    0.00000    9.62500 2138.70020    0.06186    0.00000    0.00250  305.99835    0.00000    0.00000  877.99835  456.12100
  878.50000   51.34871    2.59133   50.66496  260.76129    9.92939 1915.98511 1915.98511    8.65593    0.15593    0.00000    8.65593  607.74615    0.00000    0.00000    9.62500 2134.57886    0.06186    0.00000    0.00250  306.49695    0.00000    0.00000  878.49695  456.38074
  879.00000   46.03690    2.42777   45.40152  260.19736    9.97700 1927.46777 1927.46777    8.66735    0.16735    0.00000    8.66735  607.82068    0.00000    0.00000    9.62500 2126.85010    0.06186    0.00000    0.00250  306.99835    0.00000    0.00000  878.99835  456.64050
  879.50000   45.77062    2.42067   45.16114  260.47934    9.94321 1897.01904 1897.01904    8.65593    0.15593    0.00000    8.65593  607.89526    0.00000    0.00000    9.62500 2112.57910    0.06186    0.00000    0.00250  307.49561    0.00000    0.00000  879.49561  456.90024
  880.00000   46.45263    2.45830   45.90163  260.65164    9.94702 1890.14282 1890.14282    8.62179    0.12179    0.00000    8.62179  607.96985    0.00000    0.00000    9.62500 2101.30005    0.06186    0.00000    0.00250  307.99374    0.00000    0.00000  879.99377  457.16000
  880.50000   51.55374    2.47283   51.04738  260.38535    9.99352 1914.34985 1914.34985    8.57413    0.07413    0.00000    8.57413  608.04443    0.00000    0.00000    9.62500 2105.10522    0.06186    0.00000    0.00250  308.49387    0.00000    0.00000  880.49384  457.41974
  881.00000   47.02834    2.48806   46.47455  260.47934    9.89656 1845.96948 1845.96948    8.61978    0.11978    0.00000    8.61978  608.11908    0.00000    0.00000    9.62500 2043.05273    0.06186    0.00000    0.00250  308.98642    0.00000    0.00000  880.98639  457.67950
  881.50000   41.56948    2.49206   41.12052  260.43729   10.02841 1926.37976 1926.37976    8.59696    0.09696    0.00000    8.59696  608.19373    0.00000    0.00000    9.62500 2147.84229    0.06186    0.00000    0.00250  309.48730    0.00000    0.00000  881.48730  457.93924
  882.00000   33.45385    2.47915   33.05991  260.60687    9.92548 1890.63379 1890.63379    8.61978    0.11978    0.00000    8.61978  608.26837    0.00000    0.00000    9.62500 2096.35010    0.06186    0.00000    0.00250  309.99460    0.00000    0.00000  881.99457  458.19901
  882.50000   32.30075    2.45917   31.94898  260.66730    9.93958 1898.22791 1898.22791    8.59907    0.09907    0.00000    8.59907  608.34302    0.00000    0.00000    9.62500 2113.26318    0.06186    0.00000    0.00250  310.49738    0.00000    0.00000  882.49738  458.45874
  883.00000   31.80234    2.33129   31.42785  260.43234    9.93716 1910.93701 1910.93701    8.61978    0.11978    0.00000    8.61978  608.41772    0.00000    0.00000    9.62500 2115.10010    0.06186    0.00000    0.00250  310.99710    0.00000    0.00000  882.99707  458.71851
  883.50000   37.32501    2.40965   36.88228  260.00940    9.93506 1934.45325 1934.45325    8.62179    0.12179    0.00000    8.62179  608.49243    0.00000    0.00000    9.62500 2131.15771    0.06186    0.00000    0.00250  311.49387    0.00000    0.00000  883.49384  458.97821
  884.00000   37.05760    2.56552   36.54615  260.29358   10.02631 1948.14001 1948.14001    8.66735    0.16735    0.00000    8.66735  608.56720    0.00000    0.00000    9.62500 2158.50000    0.06186    0.00000    0.00250  311.99710    0.00000    0.00000  883.99707  459.23804
  884.50000   37.55239    2.61861   37.01602  260.43234    9.99404 1971.44312 1971.44312    8.67870    0.17870    0.00000    8.67870  608.64203    0.00000    0.00000    9.62500 2192.21069    0.06186    0.00000    0.00250  312.50003    0.00000    0.00000  884.50000  459.49774
  885.00000   31.47242    2.43895   31.11720  260.76129    9.89542 1913.30103 1913.30103    8.60833    0.10833    0.00000    8.60833  608.71667    0.00000    0.00000    9.62500 2129.15015    0.06186    0.00000    0.00250  312.99500    0.00000    0.00000  884.99500  459.75751
  885.50000   31.77503    2.50960   31.46014  260.42786    9.95988 1925.92969 1925.92969    8.57619    0.07619    0.00000    8.57619  608.79150    0.00000    0.00000    9.62500 2131.94751    0.06186    0.00000    0.00250  313.49564    0.00000    0.00000  885.49561  460.01724
  886.00000   30.33410    2.48136   29.96219  259.86841    9.92905 1898.03223 1898.03223    8.63114    0.13114    0.00000    8.63114  608.86627    0.00000    0.00000    9.62500 2114.00000    0.06186    0.00000    0.00250  313.99585    0.00000    0.00000  885.99585  460.27701
