~Version ---------------------------------------------------
VERS.   2.0 : CWLS log ASCII Standard -VERSION 2.0
WRAP.    NO : One line per depth step
DLM . SPACE : Column Data Section Delimiter
~Well ------------------------------------------------------
STRT.ft              16.5 : START DEPTH
STOP.ft            1462.0 : STOP DEPTH
STEP.ft               0.5 : STEP
NULL.             -999.25 : NULL VALUE
COMP.                     : COMPANY
WELL.           Umiat #18 : WELL
FLD .       Linc_Umiat_18 : FIELD
LOC .                     : LOCATION
PROV.                     : PROVINCE
CNTY.                     : COUNTY
STAT.                     : STATE
CTRY.                     : COUNTRY
SRVC. TERRASCIENCES, Inc. : SERVICE COMPANY
DATE.                     : DATE
UWI .           Umiat #18 : UNIQUE WELL ID
API .           Umiat #18 : API NUMBER
~Curve Information -----------------------------------------
TDEP     .ft     : Measured Depth
QUAF2    .       : 
EHGR_EDTC.gAPI   : High Resolution Corrected Gamma Ray
HGR_EDTC .gAPI   : High Resolution Gamma Ray
HCAL     .in     : HRCC Caliper Calibrated
NPHI     .%/100  : Thermal Neutron Porosity (original Ratio Method) in Selected
GR       .gAPI   : Gamma Ray
AF10     .ohm.m  : Array Induction Four Foot Resistivity A10
AF20     .ohm.m  : Array Induction Four Foot Resistivity A20
AF30     .ohm.m  : Array Induction Four Foot Resistivity A30
AF60     .ohm.m  : Array Induction Four Foot Resistivity A60
AF90     .ohm.m  : Array Induction Four Foot Resistivity A90
AO10     .ohm.m  : Array Induction One Foot Resistivity A10
AO30     .ohm.m  : Array Induction One Foot Resistivity A30
AO60     .ohm.m  : Array Induction One Foot Resistivity A60
AO90     .ohm.m  : Array Induction One Foot Resistivity A90
AT10     .ohm.m  : Array Induction Two Foot Resistivity A10
AT20     .ohm.m  : Array Induction Two Foot Resistivity A20
AT30     .ohm.m  : Array Induction Two Foot Resistivity A30
AT60     .ohm.m  : Array Induction Two Foot Resistivity A60
AT90     .ohm.m  : Array Induction Two Foot Resistivity A90
HMIN     .ohm.m  : HIP Micro Inverse Resistivity
HMNO     .ohm.m  : HIP Micro Normal Resistivity
RXOZ     .ohm.m  : Invaded Formation Resistivity filtered at 18 inches
DPHZ     .%/100  : Standard Resolution Density Porosity
~Params ----------------------------------------------------
PROD   .            TerraStation II : 
PROG   .                         [] : 
RUN    .                         [] : 
DESCENT.                         [] : 
VERSION.                            : 
LINEAGE. Python-converted from DLIS : 
ORFILE .          DynamicImage.dlis : 
~Other -----------------------------------------------------
~ASCII -----------------------------------------------------
# ...
 1162.00000   18.00000   68.13011   67.12477    9.02050    0.16050   64.61150   73.99960   85.27140  131.23140  116.28960  115.26410   75.15290  134.74451  118.28700  130.96561   75.02730   89.78670  138.02280  119.71830  112.61970   77.95460   69.05070  140.31790   -0.00120
 1162.50000 -999.25000   84.92816   83.72281    9.02050    0.18270   70.93040   67.52040   77.49460  116.26430  104.66580  103.19200   64.52600  105.65540   93.41110  101.72930   65.06110   76.88730  113.14160  100.89290   95.87680  186.06979  176.10280  211.48860    0.01450
 1163.00000 -999.25000   89.14301   87.82760    8.98460    0.20070   78.67570   62.49600   71.02670  103.71140   94.82110   94.08970   57.45840   88.98340   78.67490   84.68300   59.51310   69.45930   97.27900   89.42760   84.97040  352.59641  350.40051 2475.64697    0.02220
 1163.50000 -999.25000   72.17798   71.18233    8.93680    0.21680   81.12160   58.58940   66.58490   95.20860   88.15740   87.30670   54.79050   84.39070   75.81530   81.34130   56.35130   66.00630   89.93140   85.27240   81.58460  868.02271  804.14319 3054.67627    0.02190
 1164.00000   16.00000   86.28700   85.02048    8.94880    0.21920   82.14040   56.25590   63.57760   89.41020   83.51290   82.86640   53.88660   80.94240   72.91720   77.94450   54.23510   64.21300   86.64880   81.12440   77.57360  442.69849  405.77161  244.58160    0.02170
 1164.50000 -999.25000   88.50640   87.03010    8.99660    0.20780   83.77070   54.88620   61.51440   85.39760   80.57000   80.43450   54.84990   81.73990   75.19470   80.46030   54.77030   62.67870   84.35240   79.58300   76.19010   53.84790   47.64170  101.38350    0.02210
 1165.00000 -999.25000   94.85030   93.50413    9.03250    0.20160   84.38270   53.75410   60.28120   82.81990   78.60370   78.17000   54.92410   82.73730   77.60360   83.09760   55.04130   61.95580   82.59210   78.16450   75.04160   59.80620   52.92840   84.69340    0.01900
 1165.50000 -999.25000   70.10909   69.10823    9.00860    0.20500   83.77130   52.56530   59.22310   80.91590   76.71860   75.93710   53.08420   78.54930   73.86810   79.13380   53.77310   61.85350   81.32370   77.19650   74.49950  161.25940  148.63820  149.22861    0.00740
 1166.00000   16.00000   75.68898   74.49887    8.96070    0.22050   82.75240   51.50280   58.27720   79.11130   74.94360   74.26830   50.49810   76.45790   73.97240   78.88470   51.25340   59.27970   79.15470   73.07200   72.22300 1279.79492 1163.40625  458.54190    0.00710
 1166.50000 -999.25000   83.95338   82.76151    8.91290    0.22590   83.77130   50.55620   57.45840   77.37930   73.79890   73.23250   48.29560   73.42980   70.46360   75.06050   49.10670   56.72060   74.65630   70.78930   68.17290  890.87549  823.81482 2573.88867    0.00900
 1167.00000 -999.25000   87.96286   86.62192    8.93680    0.21990   80.10250   49.65240   56.75490   76.10490   72.82770   72.43110   46.49030   72.96880   68.41440   72.65830   48.25330   58.07090   76.26100   72.91720   70.58090  182.35280  161.99699  274.63211    0.02130
 1167.50000 -999.25000   77.26227   76.01666    9.00860    0.20770   73.37640   48.95130   56.04160   74.76490   72.16580   71.65000   51.05730   75.89420   69.53830   73.82100   49.64100   58.77370   76.81320   73.75690   72.18660   59.37190   52.54270  122.20500    0.01810
 1168.00000   17.00000   67.07201   65.95294    9.08040    0.20150   74.39560   47.95650   55.03650   73.00320   70.89600   70.44910   50.86980   77.44140   70.60810   74.83340   50.27530   59.87020   76.87650   74.46240   71.95450   80.62280   72.59130  134.75490    0.01950
 1168.50000 -999.25000   80.52740   79.14508    9.08040    0.20220   78.06400   46.61000   53.52660   70.52510   68.62910   68.45480   48.66670   74.47330   69.45240   73.55150   48.38900   57.44850   74.16630   72.16060   69.41450  605.49512  569.45508  329.66171    0.02290
 1169.00000 -999.25000   78.63218   77.16949    8.98460    0.22100   86.21700   45.00340   51.62400   67.46630   65.38620   65.62100   45.54720   69.55700   64.53370   68.15320   44.96920   53.27730   67.72430   65.97180   63.36820  322.06720  323.02399 3294.87158    0.03140
 1169.50000 -999.25000   85.06263   83.81375    8.96070    0.23940   87.64360   43.20340   49.32350   63.96290   61.97320   62.42370   41.15460   60.61110   58.35160   61.42090   42.49630   49.61710   63.19910   61.53750   59.24220  333.66519  335.78030 1012.48151    0.03870
 1170.00000    8.00000  103.35248  101.77693    8.94880    0.25400   89.07030   41.44830   47.20910   60.88700   58.98000   59.60440   40.72100   58.22320   56.82210   59.70050   41.25810   48.06540   60.61420   59.03820   57.80850  114.69150  101.72490   86.24260    0.03540
 1170.50000 -999.25000   84.40219   82.99366    8.98460    0.26230   85.60530   39.93820   45.47130   58.13220   56.16330   56.95710   40.57530   57.83730   57.72490   60.57270   40.26830   46.61560   58.88850   55.90330   56.00290   30.00780   26.51020   44.81690    0.03280
 1171.00000 -999.25000   92.62709   91.35674    9.03250    0.26720   90.90470   38.48030   43.75330   55.39820   53.49340   54.59310   40.15520   55.26440   53.99950   56.46660   39.25260   45.56390   56.44430   54.36200   54.20770   24.68880   21.80700   39.28300    0.03170
 1171.50000 -999.25000  103.13270  101.61002    9.00860    0.28460   90.70110   37.16220   42.16910   53.05610   51.58030   52.63830   36.36850   49.60480   48.74980   50.81950   36.60360   42.16730   52.00310   50.21980   51.00590   62.86310   56.61170   70.49570    0.03310
 1172.00000 -999.25000   98.11641   96.62031    8.96070    0.30140   94.57390   36.20810   41.21310   51.62260   50.34790   51.12550   32.95280   43.65010   42.04160   43.67690   34.17320   39.21220   48.09830   46.69190   46.84420  268.57831  276.32831  307.60370    0.02820
 1172.50000 -999.25000   94.15503   92.85553    8.93680    0.30850   91.31280   35.76990   40.73270   50.83590   49.81910   50.30010   34.80400   46.66780   45.56470   47.36630   34.82090   39.87710   48.72070   47.29600   47.39860 1202.30518 1100.23474  530.33862    0.01940
 1173.00000 -999.25000   96.49326   95.07656    8.94880    0.30490   91.72050   35.60490   40.62310   50.56310   49.83360   50.08370   35.87450   49.66260   46.65350   48.46930   35.73630   41.35900   50.53770   49.33150   48.86250   69.46480   61.50870   55.70270    0.01150
 1173.50000 -999.25000  101.75557  100.15518    8.98460    0.29020   94.37030   35.59010   40.62330   50.46950   50.01340   49.88200   36.22110   51.11610   49.16500   51.09460   36.20120   42.11980   51.66250   49.75040   49.55760   17.61190   15.55860   29.03800    0.00930
 1174.00000   17.00000   95.46675   94.15712    9.03250    0.28970   94.57410   35.48230   40.55250   50.30540   50.16890   49.73750   36.31200   52.08150   50.07300   52.01920   35.65960   42.35570   51.66580   51.60070   50.02520   18.17620   16.05610   28.32470    0.01510
 1174.50000 -999.25000   91.99607   90.63719    9.00860    0.29120   95.79690   35.30090   40.31430   49.94860   50.05470   49.36370   33.86110   47.92290   47.10840   48.86890   35.26850   40.92630   50.30940   50.94010   49.26850   67.20430   59.50050   53.50210    0.02040
 1175.00000 -999.25000   95.40109   93.94608    8.96070    0.29150   96.81550   35.07140   39.98410   49.45140   49.68820   48.89880   34.64150   46.41330   45.88090   47.53300   35.09210   40.42330   48.97530   50.07360   47.64330  427.25400  416.55042  264.21600    0.02040
 1175.50000 -999.25000   97.22912   95.84809    8.93680    0.30080  101.09570   34.72730   39.66360   48.92350   49.10270   48.31600   37.31150   49.78550   48.41220   50.13390   34.76630   40.38310   49.06280   49.31520   47.59500  848.41913  788.29529  235.60770    0.02710
 1176.00000   17.00000   92.22266   90.86073    8.98460    0.28380  102.93000   34.25310   39.12640   48.13540   48.34900   47.61570   34.54790   48.13750   46.81540   48.40970   34.44700   40.33230   48.75440   49.10690   47.67980   38.76570   34.26260   42.89050    0.03090
