~Version ---------------------------------------------------
VERS.   2.0 : CWLS log ASCII Standard -VERSION 2.0
WRAP.    NO : One line per depth step
DLM . SPACE : Column Data Section Delimiter
~Well ------------------------------------------------------
STRT.ft              16.5 : START DEPTH
STOP.ft            1462.0 : STOP DEPTH
STEP.ft               0.5 : STEP
NULL.             -999.25 : NULL VALUE
COMP.                     : COMPANY
WELL.           Umiat #18 : WELL
FLD .       Linc_Umiat_18 : FIELD
LOC .                     : LOCATION
PROV.                     : PROVINCE
CNTY.                     : COUNTY
STAT.                     : STATE
CTRY.                     : COUNTRY
SRVC. TERRASCIENCES, Inc. : SERVICE COMPANY
DATE.                     : DATE
UWI .           Umiat #18 : UNIQUE WELL ID
API .           Umiat #18 : API NUMBER
~Curve Information -----------------------------------------
TDEP     .ft     : Measured Depth
QUAF2    .       : 
EHGR_EDTC.gAPI   : High Resolution Corrected Gamma Ray
HGR_EDTC .gAPI   : High Resolution Gamma Ray
HCAL     .in     : HRCC Caliper Calibrated
NPHI     .%/100  : Thermal Neutron Porosity (original Ratio Method) in Selected
GR       .gAPI   : Gamma Ray
AF10     .ohm.m  : Array Induction Four Foot Resistivity A10
AF20     .ohm.m  : Array Induction Four Foot Resistivity A20
AF30     .ohm.m  : Array Induction Four Foot Resistivity A30
AF60     .ohm.m  : Array Induction Four Foot Resistivity A60
AF90     .ohm.m  : Array Induction Four Foot Resistivity A90
AO10     .ohm.m  : Array Induction One Foot Resistivity A10
AO30     .ohm.m  : Array Induction One Foot Resistivity A30
AO60     .ohm.m  : Array Induction One Foot Resistivity A60
AO90     .ohm.m  : Array Induction One Foot Resistivity A90
AT10     .ohm.m  : Array Induction Two Foot Resistivity A10
AT20     .ohm.m  : Array Induction Two Foot Resistivity A20
AT30     .ohm.m  : Array Induction Two Foot Resistivity A30
AT60     .ohm.m  : Array Induction Two Foot Resistivity A60
AT90     .ohm.m  : Array Induction Two Foot Resistivity A90
HMIN     .ohm.m  : HIP Micro Inverse Resistivity
HMNO     .ohm.m  : HIP Micro Normal Resistivity
RXOZ     .ohm.m  : Invaded Formation Resistivity filtered at 18 inches
DPHZ     .%/100  : Standard Resolution Density Porosity
~Params ----------------------------------------------------
PROD   .            TerraStation II : 
PROG   .                         [] : 
RUN    .                         [] : 
DESCENT.                         [] : 
VERSION.                            : 
LINEAGE. Python-converted from DLIS : 
ORFILE .          DynamicImage.dlis : 
~Other -----------------------------------------------------
~ASCII -----------------------------------------------------
# ...
  886.50000 -999.25000   30.49469   30.08863    8.91290    0.23840   30.98110   71.55570   70.80080   91.34210   82.43370   82.99590   79.54500  100.31490   86.23580   93.01890   75.80750   76.48270   98.02680   90.24060   87.37540 1049.05090  958.35870 2157.19922    0.17250
  887.00000 -999.25000   29.59609   29.21879    8.91290    0.26180   32.20380   70.62000   69.87150   90.24090   81.09840   81.75310   73.04280   87.71510   77.12920   82.99680   72.33190   73.42560   93.46150   84.75750   84.24750 1620.07739 1465.74719 1124.49377    0.18160
  887.50000 -999.25000   32.79375   32.35983    8.91290    0.27220   34.03810   68.45560   67.75250   87.43070   78.73060   79.55070   68.44740   85.04280   76.34990   81.70490   68.66350   69.86480   87.75310   79.13070   78.57000  478.04709  426.14828  987.17358    0.18740
  888.00000   10.00000   35.01099   34.53082    8.88890    0.27940   31.99990   66.45330   66.26920   85.03780   76.68020   77.72420   66.53580   80.48870   67.92930   72.34060   65.01970   66.59360   83.66150   76.44240   75.50240  407.19940  364.24661  500.34290    0.18350
  888.50000 -999.25000   35.08834   34.62111    8.91290    0.26910   29.96180   65.07530   65.08740   83.42030   74.41840   75.36930   59.11760   74.44190   63.83310   67.93220   61.77740   63.25660   77.80510   70.79180   69.05820  324.46600  288.78580  407.44241    0.17700
  889.00000 -999.25000   42.28823   41.74913    8.88890    0.27630   28.12740   64.96340   65.45630   84.07780   74.87900   75.66310   54.50070   65.82470   58.30090   61.59570   60.22660   62.17140   76.89200   68.83100   67.84150  157.98470  140.28650  308.34750    0.17420
  889.50000 -999.25000   33.66699   33.18611    8.90090    0.25570   27.51600   66.29930   67.16110   86.61650   76.75610   77.56030   67.71930   84.58070   71.16380   76.26190   65.65100   68.63780   84.11170   74.01980   72.72450  221.13029  196.56970  441.30389    0.17680
  890.00000   17.00000   32.65377   32.20593    8.88890    0.24810   28.12750   68.70470   69.68340   90.26420   79.61980   80.44830   71.90540   88.80980   73.07810   78.29620   70.18530   73.05640   91.21990   80.54190   78.90500 1840.90796 1667.88110  923.48383    0.17330
  890.50000 -999.25000   37.63444   37.16981    8.90090    0.24550   35.58170   71.22730   71.66150   93.99070   82.82090   83.47450   71.84190   93.71410   77.27010   83.24130   73.29730   77.00770   96.69190   84.00880   82.52000  362.26450  332.48920 1024.81250    0.16870
  891.00000 -999.25000   40.71569   40.09833    8.88890    0.23760   34.63070   73.65440   73.99200   98.24860   86.83040   87.36410   78.05370  104.99140   86.22820   93.54460   75.53650   79.23680  102.62570   90.04430   88.03300  490.89410  453.41409  415.59949    0.16380
  891.50000 -999.25000   37.66594   37.10983    8.88890    0.24150   39.31860   75.54600   75.65710  101.49080   89.69900   91.28360   75.47320  100.78410   84.50300   91.81070   76.06500   78.36380  103.04930   91.38410   88.59360  247.40520  222.25639  331.07431    0.16060
  892.00000   18.00000   36.71635   36.19205    8.88890    0.22520   35.32950   76.88590   76.44160  103.52700   91.75530   93.73220   74.57430   97.62870   84.67260   92.38760   76.51350   77.68790  103.32830   93.19910   89.58990  154.77499  137.42889  169.18910    0.15850
  892.50000 -999.25000   37.22257   36.67300    8.91290    0.22390   39.36700   77.56880   77.03740  105.12730   93.18690   95.61740   78.01390  112.57000   96.60010  105.93750   78.77250   79.98920  107.44340   95.48430   93.87910   91.36920   80.98110  177.92430    0.14770
  893.00000 -999.25000   47.49882   46.80163    8.93680    0.22940   39.57060   77.64530   77.52700  106.11610   93.81930   96.55900   83.19820  112.34210   99.42210  109.04830   79.95100   80.77940  108.08940   96.00740   94.79030  126.74310  121.31580  250.15120    0.13170
  893.50000 -999.25000   40.37439   39.62651    8.93680    0.24880   41.20130   77.07590   77.93140  106.61320   93.85150   96.64880   75.72980  101.79750   87.52940   95.76220   78.18800   79.24320  108.25760   95.50920   94.25630   68.73830   94.55890  347.05481    0.12200
  894.00000   11.00000   47.10381   46.36680    8.93680    0.27310   40.96830   76.08010   77.65780  106.10270   92.59120   95.73160   76.25540  103.98200   87.49400   95.16480   75.85760   79.93670  106.63970   93.38790   92.15700  152.12550  135.06850  281.85089    0.13060
  894.50000 -999.25000   42.47160   41.82763    8.91290    0.27390   41.37610   75.33370   77.59910  105.25620   92.37300   94.31150   75.32720  102.04560   82.57680   89.42550   75.30600   80.26940  105.89660   92.09120   91.02530  218.02870  202.11301  250.63139    0.14400
  895.00000 -999.25000   36.38630   35.70946    8.87700    0.25760   40.56080   74.50600   77.35360  104.93210   91.78430   93.46890   72.63670  100.47160   80.12790   86.60420   73.51890   79.00090  106.30580   92.01820   90.28130  200.13200  184.90410  147.33720    0.14630
  895.50000 -999.25000   46.98658   46.27415    8.84110    0.23840   41.17230   74.16210   76.88290  104.67500   91.33400   92.52160   73.67910  100.79750   80.50330   86.99860   73.40720   79.59140  104.33160   91.60870   89.22520   72.42000   64.13400  163.05870    0.13660
  896.00000   14.00000   48.74508   47.97863    8.86500    0.24210   40.15330   73.71120   76.49090  104.72980   91.49730   91.63720   73.86720  103.90860   80.99080   87.54120   74.44370   79.30670  105.58130   90.66440   87.80670  313.16150  303.68100  199.38770    0.13480
  896.50000 -999.25000   42.39933   41.75662    8.86500    0.24500   42.21390   73.49750   76.44110  104.45530   91.93200   91.39660   72.48220   99.83010   83.02560   89.97440   73.42030   79.15750  102.45210   89.54660   86.27230  174.29230  175.91350  616.22150    0.13930
  897.00000 -999.25000   41.36327   40.73271    8.88890    0.25730   43.84470   73.22830   76.38990  103.87560   91.75960   91.14550   69.83280   88.11860   77.20940   83.48070   72.90020   78.24770  104.62560   91.18950   88.21930  165.31351  146.81731  273.03720    0.13590
  897.50000 -999.25000   53.72315   52.90857    8.86500    0.23350   45.67890   73.55050   76.36190  104.23090   91.19100   90.99700   72.56110   97.03540   83.19180   90.16560   73.41420   76.52310  100.80190   89.92070   85.22980  164.05530  145.69521  307.08310    0.13370
  898.00000 -999.25000   46.49857   45.83458    8.84110    0.23150   48.10230   74.18000   77.90200  106.74190   92.86410   92.39250   77.66710  105.50760   87.43370   94.67790   74.94380   82.08190  103.42590   89.86820   87.49400 1244.62732 1117.49780  507.07370    0.12910
  898.50000 -999.25000   34.33237   33.86165    8.84110    0.22100   48.10210   75.03570   79.75130  109.59850   95.00010   94.15340   70.79300  102.44060   83.39510   90.34910   74.58870   81.64610  108.96560   94.16040   91.50920 1004.70300  921.43640 1931.16296    0.13350
  899.00000 -999.25000   53.65549   52.91535    8.81710    0.23740   47.57820   76.20920   80.62840  112.88520   97.58190   95.91080   73.73590  110.33530   85.93950   93.34930   75.65090   83.41880  112.68680   97.91520   94.49640  257.72580  252.07260 1318.82324    0.12780
  899.50000 -999.25000   45.17719   44.57958    8.81710    0.25070   50.63550   77.53210   82.54900  117.09060  100.73940   98.62950   77.13330  119.59280   92.35300  100.67090   77.77300   87.88880  119.59470  101.87350   98.51250  542.00592  494.88269 1300.19348    0.12080
  900.00000 -999.25000   52.92822   52.17263    8.81710    0.24790   49.61610   78.92030   83.47290  120.42390  104.74380  101.50410   83.45230  134.56050  100.89200  110.35510   80.26670   88.65260  124.48040  107.96610  102.27670  790.47778  733.82391  584.19440    0.11850
  900.50000 -999.25000   47.42497   46.74794    8.81710    0.23450   50.36670   80.26260   84.19590  123.52990  108.00710  104.70460   79.14930  118.47010   93.41540  102.18670   81.24500   86.85250  123.99460  108.31420  101.01020  173.83940  154.41270  247.89610    0.11440
