~Version ---------------------------------------------------
VERS.   2.0 : CWLS log ASCII Standard -VERSION 2.0
WRAP.    NO : One line per depth step
DLM . SPACE : Column Data Section Delimiter
~Well ------------------------------------------------------
STRT.ft              16.5 : START DEPTH
STOP.ft            1462.0 : STOP DEPTH
STEP.ft               0.5 : STEP
NULL.             -999.25 : NULL VALUE
COMP.                     : COMPANY
WELL.           Umiat #18 : WELL
FLD .       Linc_Umiat_18 : FIELD
LOC .                     : LOCATION
PROV.                     : PROVINCE
CNTY.                     : COUNTY
STAT.                     : STATE
CTRY.                     : COUNTRY
SRVC. TERRASCIENCES, Inc. : SERVICE COMPANY
DATE.                     : DATE
UWI .           Umiat #18 : UNIQUE WELL ID
API .           Umiat #18 : API NUMBER
~Curve Information -----------------------------------------
TDEP     .ft     : Measured Depth
QUAF2    .       : 
EHGR_EDTC.gAPI   : High Resolution Corrected Gamma Ray
HGR_EDTC .gAPI   : High Resolution Gamma Ray
HCAL     .in     : HRCC Caliper Calibrated
NPHI     .%/100  : Thermal Neutron Porosity (original Ratio Method) in Selected
GR       .gAPI   : Gamma Ray
AF10     .ohm.m  : Array Induction Four Foot Resistivity A10
AF20     .ohm.m  : Array Induction Four Foot Resistivity A20
AF30     .ohm.m  : Array Induction Four Foot Resistivity A30
AF60     .ohm.m  : Array Induction Four Foot Resistivity A60
AF90     .ohm.m  : Array Induction Four Foot Resistivity A90
AO10     .ohm.m  : Array Induction One Foot Resistivity A10
AO30     .ohm.m  : Array Induction One Foot Resistivity A30
AO60     .ohm.m  : Array Induction One Foot Resistivity A60
AO90     .ohm.m  : Array Induction One Foot Resistivity A90
AT10     .ohm.m  : Array Induction Two Foot Resistivity A10
AT20     .ohm.m  : Array Induction Two Foot Resistivity A20
AT30     .ohm.m  : Array Induction Two Foot Resistivity A30
AT60     .ohm.m  : Array Induction Two Foot Resistivity A60
AT90     .ohm.m  : Array Induction Two Foot Resistivity A90
HMIN     .ohm.m  : HIP Micro Inverse Resistivity
HMNO     .ohm.m  : HIP Micro Normal Resistivity
RXOZ     .ohm.m  : Invaded Formation Resistivity filtered at 18 inches
DPHZ     .%/100  : Standard Resolution Density Porosity
~Params ----------------------------------------------------
PROD   .            TerraStation II : 
PROG   .                         [] : 
RUN    .                         [] : 
DESCENT.                         [] : 
VERSION.                            : 
LINEAGE. Python-converted from DLIS : 
ORFILE .          DynamicImage.dlis : 
~Other -----------------------------------------------------
~ASCII -----------------------------------------------------
# ...
   60.00000 -999.25000   29.08414   33.15822   13.25640    0.85310   30.70920 1950.00000    0.51800    2.23080    3.62190    1.74410 1950.00000    2.34090    8.74200    2.67380 1950.00000    0.48870    2.14780    3.44620    1.39060   65.28880   91.82040   22.57850    0.37960
   60.50000 -999.25000   31.32751   35.71584   13.23250    0.80510   28.01410 1950.00000    0.50610    2.13090    3.72510    1.74560 1950.00000    2.53830    5.42810    2.53230 1950.00000    0.46260    1.92600    3.87990    1.42070    2.24140    1.59700    1.92550    0.37810
   61.00000 -999.25000   27.07023   30.86221   13.22050    0.91730   27.31230 1950.00000    0.50110    2.06180    3.74560    1.71680 1950.00000    1.93350    4.22700    2.15860 1950.00000    0.46720    2.05310    4.36640    1.60260    1.90600    1.17040    1.80940    0.38400
   61.50000 -999.25000   30.66143   34.95646   13.24440    0.85210   29.75800 1950.00000    0.50300    2.03170    3.67300    1.69330 1950.00000    1.63990    2.56400    1.42260 1950.00000    0.47520    1.99160    3.76800    1.54600    2.18560    1.62380    1.06680    0.38920
   62.00000 -999.25000   35.06284   39.97441   13.22050    0.84550   29.55440 1950.00000    0.51050    2.02630    3.48950    1.70080 1950.00000    2.49550    2.80250    1.51720 1950.00000    0.49270    1.98170    4.25370    1.75300    1.69710    1.11330    1.99410    0.38070
   62.50000 -999.25000   34.79134   39.66488   13.24440    0.67950   27.72000 1950.00000    0.52170    2.01860    3.32980    1.71580 1950.00000    2.32510    2.40400    1.37430 1950.00000    0.51440    2.11800    4.80330    1.85350 2500.88892 2253.24731    2.29130    0.37030
   63.00000 -999.25000   34.64326   39.49606   13.24440    0.75580   25.88570 1950.00000    0.53550    1.98520    3.04970    1.70170 1950.00000    1.96620    1.87310    1.20250 1950.00000    0.53820    2.11920    3.72420    1.72900  785.41309  732.24890 3615.61304    0.35800
   63.50000 -999.25000   33.85726   38.59995   13.26840    0.70510   28.33150 1950.00000    0.55070    1.95350    2.88330    1.68370 1950.00000    1.40950    1.38230    0.99760 1950.00000    0.55090    1.98620    2.80120    1.49780 1034.11877  946.77869 1838.44006    0.35350
   64.00000 -999.25000   30.60843   34.89603   13.26840    0.70510   29.03020 1950.00000    0.56920    1.89690    2.58920    1.67320 1950.00000    1.48890    1.37710    0.99660 1950.00000    0.56260    1.77310    2.61310    1.49570  962.62268  864.97272 1894.05835    0.35300
   64.50000 -999.25000   32.65520   37.22952   13.26840    0.62560   30.25320 1950.00000    0.59230    1.86890    2.37250    1.68240 1950.00000    1.78000    1.34800    0.95440 1950.00000    0.59860    1.66700    2.42800    1.29130  518.46973  497.60690 1888.26086    0.34360
   65.00000 -999.25000   34.58708   39.43201   13.26840    0.72190   27.19590 1950.00000    0.62460    1.94740    2.35060    1.70270 1950.00000    1.17820    0.99940    0.78530 1950.00000    0.63250    1.76060    2.11950    1.21610  997.52258  916.89447 3737.30933    0.32930
   65.50000 -999.25000   31.65281   36.08671   13.26840    0.74830   30.77740 1950.00000    0.66320    2.09910    2.47730    1.74920 1950.00000    0.88770    0.75010    0.62470 1950.00000    0.70410    1.97130    2.12240    1.19040 2510.84668 2261.11426 4024.60498    0.32250
   66.00000 -999.25000   26.85506   30.61690   13.24440    0.82420   29.52540 1950.00000    0.69390    2.20680    2.52380    1.77290 1950.00000    2.13670    1.25440    0.92980 1950.00000    0.75620    2.12740    2.52620    1.26010 1003.63800  927.30182 4262.15137    0.31750
   66.50000 -999.25000   26.72547   30.46915   13.25640    0.82920   30.13690 1950.00000    0.71860    2.42100    2.61490    1.81230 1950.00000    3.12780    1.77720    1.21570 1950.00000    0.80540    2.62790    2.85920    1.31040  392.81100  388.43561 4270.89844    0.31460
   67.00000 -999.25000   26.57000   30.29190   13.24440    0.89600   28.09830 1950.00000    0.72890    2.62570    2.79930    1.87700 1950.00000    2.90660    1.48620    1.03860 1950.00000    0.81890    3.16090    3.04700    1.28940 1953.49316 1769.70508 4510.93066    0.31190
   67.50000 -999.25000   35.21319   40.14582   13.25640    0.90850   29.55420 1950.00000    0.72610    2.73880    3.13180    2.00190 1950.00000    1.96850    1.48620    1.03340 1950.00000    0.76420    3.05610    2.97330    1.23720  551.33221  527.14539 3834.50171    0.30620
   68.00000 -999.25000   25.58226   29.16580   13.25640    0.91310   30.98090 1950.00000    0.69060    2.51360    3.04820    2.01960 1950.00000    2.27120    1.99380    1.43070 1950.00000    0.71430    2.34550    2.86410    1.26720 1108.86011 1014.01660 3743.16235    0.30880
   68.50000 -999.25000   26.56122   30.28189   13.25640    0.84830   31.76730 1950.00000    0.68330    2.43880    3.09250    2.03280 1950.00000    2.18060    2.67960    1.59100 1950.00000    0.67050    2.34020    3.06010    1.31270 2479.38599 2231.02905 3776.86548    0.31380
   69.00000 -999.25000   31.91375   36.38420   13.26840    0.83280   31.97090 1950.00000    0.67040    2.35810    3.07260    2.03770 1950.00000    2.19140    2.78260    1.86870 1950.00000    0.64560    2.29790    2.83150    1.27760  681.44189  638.96680 3140.42798    0.32110
   69.50000 -999.25000   27.65765   31.53191   13.26840    0.82360   31.35960 1950.00000    0.66100    2.17790    2.94110    2.01510 1950.00000    1.61820    2.35220    1.37470 1950.00000    0.63520    2.10050    2.61750    1.28450  685.29071  637.43121 3169.61694    0.31690
   70.00000 -999.25000   28.17388   32.12045   13.24440    0.82080   30.98100 1950.00000    0.67110    2.25610    3.00660    2.03390 1950.00000    1.74510    2.40730    1.36880 1950.00000    0.64270    2.01310    2.61480    1.22940 2072.88696 1873.55566 3725.78516    0.29870
   70.50000 -999.25000   29.24013   33.33606   13.25640    0.77450   28.15680 1950.00000    0.67160    2.22300    2.99300    2.02010 1950.00000    1.86040    2.56980    1.42910 1950.00000    0.65390    2.34080    3.30870    1.31840 1709.28247 1545.81091 3559.41553    0.29110
   71.00000 -999.25000   29.96864   34.16661   13.24440    0.71140   28.76830 1950.00000    0.66620    2.26500    3.10040    2.06160 1950.00000    1.89090    2.36360    1.37470 1950.00000    0.66640    2.36160    3.47900    1.45340 1203.23389 1093.89124 3447.17749    0.28940
   71.50000 -999.25000   31.40285   35.80173   13.24440    0.74580   27.34140 1950.00000    0.66040    2.41110    3.30760    2.14610 1950.00000    1.67910    2.46500    1.51440 1950.00000    0.67510    2.63030    2.85320    1.24550 1817.15686 1645.45715  724.57422    0.28560
   72.00000 -999.25000   29.27558   33.37648   13.24440    0.70870   27.51600 1950.00000    0.65200    2.57970    3.76390    2.22200 1950.00000    3.59280    4.80980    2.29210 1950.00000    0.71170    4.33860    7.25020    1.83860  258.21500  238.32001  740.27319    0.27950
   72.50000 -999.25000   24.91043   28.39986   13.24440    0.71770   27.31190 1950.00000    0.61670    2.32980    3.62250    2.14390 1950.00000    2.85940    5.05160    2.64290 1950.00000    0.59580    2.36160    3.57600    1.43640 1458.38794 1322.22229  744.06409    0.26010
   73.00000 -999.25000   26.97251   30.75079   13.26840    0.63780   26.08920 1950.00000    0.60050    2.29040    3.74850    2.12510 1950.00000    1.88300    5.48730    1.96340 1950.00000    0.56620    2.02810    2.97230    1.28560 2208.56445 1994.20874 4045.77588    0.25350
   73.50000 -999.25000   30.01738   34.22219   13.26840    0.66450   27.92370 1950.00000    0.58410    2.19800    3.71780    2.11700 1950.00000    1.50420    7.52470    1.82390 1950.00000    0.53260    2.01060    3.24660    1.40460  412.15851  404.75159 4031.30713    0.24870
   74.00000 -999.25000   26.79933   30.55336   13.25640    0.72020   29.55440 1950.00000    0.57260    2.06460    3.66920    2.09560 1950.00000    2.28880    6.57320    2.28600 1950.00000    0.52970    1.98020    3.47400    1.53850  780.85327  729.41052 4039.21631    0.25750
