~Version ---------------------------------------------------
VERS.   2.0 : CWLS log ASCII Standard -VERSION 2.0
WRAP.    NO : One line per depth step
DLM . SPACE : Column Data Section Delimiter
~Well ------------------------------------------------------
STRT.ft              16.5 : START DEPTH
STOP.ft            1462.0 : STOP DEPTH
STEP.ft               0.5 : STEP
NULL.             -999.25 : NULL VALUE
COMP.                     : COMPANY
WELL.           Umiat #18 : WELL
FLD .       Linc_Umiat_18 : FIELD
LOC .                     : LOCATION
PROV.                     : PROVINCE
CNTY.                     : COUNTY
STAT.                     : STATE
CTRY.                     : COUNTRY
SRVC. TERRASCIENCES, Inc. : SERVICE COMPANY
DATE.                     : DATE
UWI .           Umiat #18 : UNIQUE WELL ID
API .           Umiat #18 : API NUMBER
~Curve Information -----------------------------------------
TDEP     .ft     : Measured Depth
QUAF2    .       : 
EHGR_EDTC.gAPI   : High Resolution Corrected Gamma Ray
HGR_EDTC .gAPI   : High Resolution Gamma Ray
HCAL     .in     : HRCC Caliper Calibrated
NPHI     .%/100  : Thermal Neutron Porosity (original Ratio Method) in Selected
GR       .gAPI   : Gamma Ray
AF10     .ohm.m  : Array Induction Four Foot Resistivity A10
AF20     .ohm.m  : Array Induction Four Foot Resistivity A20
AF30     .ohm.m  : Array Induction Four Foot Resistivity A30
AF60     .ohm.m  : Array Induction Four Foot Resistivity A60
AF90     .ohm.m  : Array Induction Four Foot Resistivity A90
AO10     .ohm.m  : Array Induction One Foot Resistivity A10
AO30     .ohm.m  : Array Induction One Foot Resistivity A30
AO60     .ohm.m  : Array Induction One Foot Resistivity A60
AO90     .ohm.m  : Array Induction One Foot Resistivity A90
AT10     .ohm.m  : Array Induction Two Foot Resistivity A10
AT20     .ohm.m  : Array Induction Two Foot Resistivity A20
AT30     .ohm.m  : Array Induction Two Foot Resistivity A30
AT60     .ohm.m  : Array Induction Two Foot Resistivity A60
AT90     .ohm.m  : Array Induction Two Foot Resistivity A90
HMIN     .ohm.m  : HIP Micro Inverse Resistivity
HMNO     .ohm.m  : HIP Micro Normal Resistivity
RXOZ     .ohm.m  : Invaded Formation Resistivity filtered at 18 inches
DPHZ     .%/100  : Standard Resolution Density Porosity
~Params ----------------------------------------------------
PROD   .            TerraStation II : 
PROG   .                         [] : 
RUN    .                         [] : 
DESCENT.                         [] : 
VERSION.                            : 
LINEAGE. Python-converted from DLIS : 
ORFILE .          DynamicImage.dlis : 
~Other -----------------------------------------------------
~ASCII -----------------------------------------------------
# ...
  698.00000 -999.25000  107.79051  104.97571    9.22400    0.32740  106.80290   26.42460   30.30640   36.23630   37.14200   37.61720   26.05300   34.36740   34.30720   35.44320   25.97420   30.37170   35.73750   36.52700   36.52390   29.65090   26.19430   60.80610    0.01810
  698.50000 -999.25000  111.92487  109.27244    9.17610    0.34890  105.37590   25.96830   29.77230   35.47250   36.41360   36.74080   25.36260   33.82310   33.82720   34.90490   25.50600   29.60110   34.63520   35.71100   35.61340   57.59090   50.96260   65.64250    0.00690
  699.00000 -999.25000  114.80302  111.96573    9.14020    0.36470  101.09620   25.82600   29.54780   35.12080   36.14680   36.41130   25.18890   32.69380   32.78090   33.80990   25.25600   29.09060   33.67360   35.14070   34.80840   73.86340  104.09540  358.12979    0.00350
  699.50000 -999.25000  108.39476  105.71651    9.12820    0.36790  104.56170   26.04390   29.71550   35.31230   36.34430   36.64090   25.38780   32.64500   32.50400   33.52930   25.65830   29.15940   34.15620   35.15370   35.12940  841.95142  776.88733  240.00580    0.00460
  700.00000 -999.25000   94.92663   92.72141    9.15220    0.37410  108.02650   26.52130   30.24400   35.98860   37.02110   37.36680   27.01700   35.85280   34.94850   36.09710   26.21290   30.45840   35.39150   36.46340   36.29810   80.74350   71.53000   64.92440    0.00790
  700.50000 -999.25000  119.56708  116.50094    9.17610    0.35100  106.19180   27.20990   31.09150   37.07420   38.08240   38.50130   25.25170   34.28490   34.53430   35.67300   27.13070   31.28610   36.76200   37.82000   37.84090   32.16850   28.42280   63.94480    0.01200
  701.00000 -999.25000  104.11991  100.96767    9.27180    0.35850  104.56100   27.95710   31.97320   38.31230   39.21450   39.78810   30.11170   39.48240   39.12780   40.52790   28.36530   32.89900   38.68770   39.51550   39.58470  493.28040  439.78922   88.47170    0.02400
  701.50000 -999.25000  108.08771  105.52621    9.15220    0.32820  101.50370   28.71990   32.86860   39.52710   40.36900   40.96310   29.06800   39.68300   39.35080   40.79830   29.24090   33.73540   39.90040   40.62300   40.73720   71.13980   98.49610 1666.27222    0.03520
  702.00000 -999.25000   90.74139   88.66924    9.09230    0.37080  102.93050   29.36640   33.77980   40.84450   41.49480   42.27980   29.86010   39.75810   39.19970   40.67910   29.45160   33.99730   40.52970   41.25590   41.36600  272.87030  279.73010 2886.56860    0.03610
  702.50000 -999.25000   94.19897   91.95984    9.10430    0.36980  107.41460   29.98870   34.52980   41.96380   42.54900   43.31580   29.58630   40.19850   39.39280   40.90300   29.99680   35.05480   42.15350   42.90170   42.77460 1268.38501 1159.90063 3633.51270    0.02460
  703.00000 -999.25000  110.11208  107.49470    9.15220    0.38040  105.98770   30.62800   35.31190   43.12230   43.78720   44.40650   33.13280   46.09610   44.05200   45.82040   30.74230   35.92620   43.56070   44.55660   44.05700 2139.05103 1924.59973 3584.13037    0.01610
  703.50000 -999.25000  115.99886  112.97047    9.17610    0.32970  108.02640   31.27080   36.10760   44.30790   45.20910   45.51040   30.16800   41.27120   40.05980   41.63930   31.13260   36.56700   44.14240   45.15500   44.29280 1021.43921  921.64948  495.79410    0.01830
  704.00000   17.00000  101.65875   99.09904    9.17610    0.31850  100.89220   31.84350   36.84040   45.30680   46.44140   46.30600   32.15070   44.29070   43.46300   45.28760   31.96510   37.69300   45.75040   46.99530   46.02050  179.15089  165.34911  496.41769    0.02750
  704.50000 -999.25000  107.41142  104.45689    9.16410    0.30060  100.07730   32.24860   37.15250   45.74790   46.94780   46.62850   32.72810   47.07710   46.54930   48.57920   33.12280   38.97180   47.37390   48.74840   47.42120  473.42990  456.11511  503.76450    0.03630
  705.00000 -999.25000  108.27157  105.90192    9.10430    0.29870   94.57370   32.16780   36.93300   45.46580   46.71410   46.25110   34.26880   49.53010   48.28000   50.44780   33.71810   39.50470   48.60130   50.49430   48.33950  815.59912  756.12238 3452.16333    0.04670
  705.50000 -999.25000  110.64346  107.39505    9.15220    0.29600   92.73950   31.55290   36.09740   44.34500   45.58340   44.90520   34.05160   47.27130   46.88590   48.91990   33.03660   38.56190   47.10040   48.29360   47.13140  123.55150  125.74080   82.07450    0.04970
  706.00000   18.00000  106.53703  104.00462    9.10430    0.29570   92.53540   30.60690   34.79540   42.56920   43.73480   43.13610   31.76920   42.71080   42.24280   43.96760   31.22960   35.74890   43.12110   44.51220   43.47960   31.26950   27.62710   73.58120    0.04480
  706.50000 -999.25000  115.52003  112.56573    9.12820    0.31130   92.53550   29.59020   33.57410   40.84450   41.90490   41.41740   29.08550   39.28190   38.97630   40.48760   29.17440   33.48820   40.08260   41.77520   40.86070  148.02460  137.07739   50.47240    0.03350
  707.00000 -999.25000   99.62526   97.31151    9.12820    0.31290   96.81520   28.85140   32.58670   39.45490   40.33560   40.09000   26.81330   36.06690   35.46440   36.75100   27.26710   31.25030   37.39880   38.34110   38.06070   58.35910   51.64410  129.54700    0.02310
  707.50000 -999.25000  107.59691  105.50026    9.03250    0.36790  102.52270   28.62210   32.25770   38.93750   39.73230   39.52560   26.24370   35.21320   34.71370   35.95170   26.91930   30.60710   36.33130   37.13030   37.09560  144.06210  128.60699  136.83611    0.01950
  708.00000    8.00000  109.35262  107.12325    8.98460    0.38690  103.74570   28.94990   32.72560   39.48390   40.25590   40.26040   26.16140   34.35170   33.59080   34.79580   27.77500   31.68870   37.14380   37.86640   38.62240 1657.23584 1506.69910 2292.78540    0.02080
  708.50000 -999.25000  102.86999  101.16512    8.92480    0.38580  101.50370   29.80660   33.83130   40.88140   41.60890   41.75510   30.04250   39.17010   38.20160   39.64700   29.85730   34.01230   40.17770   40.86840   41.04090 1407.89539 1274.26013  476.43680    0.02540
  709.00000 -999.25000  114.99007  113.07586    8.94880    0.34570  101.91160   30.83430   35.09530   42.51120   43.21310   43.51270   33.97640   44.16980   43.16510   44.93350   31.90460   37.01600   44.24880   44.95570   45.04010  108.93540   96.60520  181.74471    0.02900
  709.50000 -999.25000  121.74399  119.78522    8.93680    0.32290  103.54240   31.76280   36.33050   44.18030   44.87800   45.20680   33.58630   45.56240   43.71900   45.71940   32.76360   38.16080   45.96310   46.77520   45.90740  117.89390  104.57330  181.24020    0.02450
  710.00000   17.00000  103.70307  102.03457    8.93680    0.33160  105.72630   32.52250   37.32680   45.57710   46.11250   46.58890   32.57220   44.18540   45.18900   47.23700   33.20930   38.55010   46.49250   47.17270   46.72350  902.01031  821.49481  242.41670    0.02450
  710.50000 -999.25000  118.31693  116.40376    8.91290    0.33080   98.79590   32.99820   37.90300   46.51000   46.96870   47.66580   32.58310   45.76710   46.41540   48.55370   32.91470   38.58680   47.02800   47.41190   46.73230  329.72879  295.34799  759.94421    0.02340
  711.00000 -999.25000  109.93578  108.15813    8.93680    0.33200  100.63040   33.15630   38.17860   47.11090   47.32970   47.82740   33.32500   45.60610   45.22150   47.31640   33.16250   39.06840   47.54090   47.17150   47.01540  369.78751  345.12659  739.37622    0.03390
  711.50000 -999.25000  111.89397  110.08466    8.93680    0.32630  102.11570   33.28840   38.41360   47.56360   47.83190   48.49610   32.79780   45.62700   44.28190   46.23620   33.06370   39.01500   47.70690   47.91660   46.79180  483.24109  463.29861 3414.32031    0.03370
  712.00000   15.00000  115.52620  113.66747    8.92480    0.32630  101.30060   33.43250   38.65990   48.14030   48.39100   49.09210   33.03750   46.40260   44.67550   46.64850   33.04990   39.04080   47.99780   48.18090   46.90520 1063.95544  979.86780 4044.48389    0.03170
