~Version ---------------------------------------------------
VERS.   2.0 : CWLS log ASCII Standard -VERSION 2.0
WRAP.    NO : One line per depth step
DLM . SPACE : Column Data Section Delimiter
~Well ------------------------------------------------------
STRT.ft              16.5 : START DEPTH
STOP.ft            1462.0 : STOP DEPTH
STEP.ft               0.5 : STEP
NULL.             -999.25 : NULL VALUE
COMP.                     : COMPANY
WELL.           Umiat #18 : WELL
FLD .       Linc_Umiat_18 : FIELD
LOC .                     : LOCATION
PROV.                     : PROVINCE
CNTY.                     : COUNTY
STAT.                     : STATE
CTRY.                     : COUNTRY
SRVC. TERRASCIENCES, Inc. : SERVICE COMPANY
DATE.                     : DATE
UWI .           Umiat #18 : UNIQUE WELL ID
API .           Umiat #18 : API NUMBER
~Curve Information -----------------------------------------
TDEP     .ft    : Measured Depth
DCSI6    .      : Data Copy Status Indicator for Waveform Array 6
DTCO3    .us/F  : Compressional Slowness from Measurement 3
DTCO     .us/F  : Delta-T Compressional
DTSH3    .us/F  : Shear Slowness from Measurement 3
DTSH5    .us/F  : Shear Slowness from Measurement 5
DTSH6    .us/F  : Shear Slowness from Measurement 6
DTSM     .us/F  : Delta-T Shear
DTSTE    .us/F  : The elastic Stoneley slowness
DTST     .us/F  : Delta-T Stoneley - Monopole Stoneley
DWF1     .      : Display Waveform Array 1 Monopole Upper Middle Frequency
DWF1_MONO.      : Display Waveform 1 Monopole Component
DWF2     .      : Display Waveform Array 2 Monopole Lower Middle Frequency
DWF2_MONO.      : Display Waveform 2 Monopole Component
DWF3     .      : Display Waveform Array 3 Monopole Far Middle Frequency
DWF3_MONO.      : Display Waveform 3 Monopole Component
DWF4_MONO.      : Display Waveform 4 Monopole Component
DWF5_DIIN.      : Display Waveform 5 Dipole Inline Component
DWF6_DIIN.      : Display Waveform 6 Dipole Inline Component
ITT      .s     : Integrated Transit Time
LQC_WF1  .      : Log Quality Control for Waveform Array Measurement 1
LQC_WF2  .      : Log Quality Control for Waveform Array Measurement 2
LQC_WF3  .      : Log Quality Control for Waveform Array Measurement 3
LQC_WF4  .      : Log Quality Control for Waveform Array Measurement 4
LQC_WF5  .      : Log Quality Control for Waveform Array Measurement 5
~Params ----------------------------------------------------
PROD   .            TerraStation II : 
PROG   .                         [] : 
RUN    .                         [] : 
DESCENT.                         [] : 
VERSION.                            : 
LINEAGE. Python-converted from DLIS : 
ORFILE .          DynamicImage.dlis : 
~Other -----------------------------------------------------
~ASCII -----------------------------------------------------
# ...
  785.00000    0.00000   88.71064   88.71064  146.02496  151.21471  160.13797  151.21471  239.23296  253.24950  -38.00000  -17.00000  207.00000  205.00000 -153.00000 -139.00000  349.00000    0.00000    0.00000    0.16071    0.00000    0.00000    0.00000    0.00000    0.00000
  785.50000    0.00000   88.28078   88.28078  144.86319  150.84999  159.51968  150.84999  239.06487  252.81360   34.00000   32.00000   41.00000   37.00000  120.00000  133.00000  144.00000  -17.00000   -2.00000    0.16067    0.00000    0.00000    0.00000    0.00000    0.00000
  786.00000    0.00000   87.83176   87.83176  141.83618  142.43756  156.75150  142.43756  235.72073  252.42365 -131.00000 -126.00000  -14.00000   -9.00000  -93.00000  -83.00000  229.00000  -14.00000   -5.00000    0.16062    0.00000    0.00000    0.00000    0.00000    0.00000
  786.50000    0.00000   87.91563   87.91563  141.08585  143.89944  156.65988  143.89944  236.24086  251.86122  -35.00000  -23.00000  174.00000  175.00000   50.00000   46.00000   11.00000  -14.00000  -11.00000    0.16058    0.00000    0.00000    0.00000    0.00000    0.00000
  787.00000    0.00000   87.61923   87.61923  140.87823  142.01370  155.89778  142.01370  235.54051  251.15280  -37.00000  -24.00000   70.00000   66.00000  112.00000  108.00000  -23.00000   -5.00000    8.00000    0.16053    0.00000    0.00000    0.00000    0.00000    0.00000
  787.50000    0.00000   87.19921   87.19921  139.48650  143.73180  155.53258  143.73180  236.13345  250.74724  177.00000  187.00000   45.00000   64.00000   17.00000   17.00000   35.00000   -8.00000   26.00000    0.16049    0.00000    0.00000    0.00000    0.00000    0.00000
  788.00000    0.00000   87.19549   87.19549  139.27670  146.88260  154.82437  146.88260  237.27777  250.50392  156.00000  153.00000   42.00000   47.00000   64.00000   57.00000   23.00000   -2.00000   -8.00000    0.16045    0.00000    0.00000    0.00000    0.00000    0.00000
  788.50000    0.00000   86.80100   86.80100  139.37846  143.44641  152.74870  143.44641  235.88823  250.17928   89.00000   91.00000 -250.00000 -240.00000   69.00000   62.00000  156.00000   17.00000   -5.00000    0.16040    0.00000    0.00000    0.00000    0.00000    0.00000
  789.00000    0.00000   87.02032   87.02032  139.97859  146.69273  152.44435  146.69273  237.06708  249.93839   76.00000   92.00000 -105.00000 -103.00000   12.00000   24.00000 -132.00000  -14.00000    5.00000    0.16036    0.00000    0.00000    0.00000    0.00000    0.00000
  789.50000    0.00000   87.09109   87.09109  141.57541  148.29970  152.07631  148.29970  237.66206  249.53976   76.00000   83.00000  118.00000  117.00000 -290.00000 -283.00000  -95.00000    2.00000    2.00000    0.16032    0.00000    0.00000    0.00000    0.00000    0.00000
  790.00000    0.00000   87.39474   87.39474  141.15239  142.77579  151.93752  142.77579  235.60017  249.50713  314.00000  317.00000  106.00000  111.00000  152.00000  156.00000  192.00000   11.00000    5.00000    0.16027    0.00000    0.00000    0.00000    0.00000    0.00000
  790.50000    0.00000   87.26721   87.26721  143.44801  141.55353  153.41724  141.55353  235.23735  249.42378  105.00000  103.00000  411.00000  404.00000   55.00000   54.00000   23.00000  -14.00000    0.00000    0.16023    0.00000    0.00000    0.00000    0.00000    0.00000
  791.00000    0.00000   87.20615   87.20615  146.01764  140.33128  153.48055  140.33128  234.77007  249.31549  116.00000  131.00000    3.00000   17.00000  242.00000  221.00000 -144.00000    5.00000   -2.00000    0.16019    0.00000    0.00000    0.00000    0.00000    0.00000
  791.50000    0.00000   87.26311   87.26311  143.50958  142.54254  154.49695  142.54254  235.63632  249.08371  153.00000  154.00000  248.00000  248.00000 -139.00000 -122.00000   71.00000    2.00000    0.00000    0.16014    0.00000    0.00000    0.00000    0.00000    0.00000
  792.00000    0.00000   86.19134   86.19134  144.33119  140.05634  152.89061  140.05634  234.60179  248.75795    5.00000    6.00000  -58.00000  -63.00000 -282.00000 -260.00000  132.00000    2.00000   -8.00000    0.16010    0.00000    0.00000    0.00000    0.00000    0.00000
  792.50000    0.00000   85.27312   85.27312  144.45728  139.04961  150.37921  139.04961  234.09435  248.51796  351.00000  354.00000  -71.00000  -72.00000  270.00000  275.00000 -168.00000   -5.00000    0.00000    0.16005    0.00000    0.00000    0.00000    0.00000    0.00000
  793.00000    0.00000   84.10641   84.10641  141.47882  136.94214  149.45058  136.94214  233.23499  248.13202  -52.00000  -38.00000   41.00000   51.00000   66.00000   68.00000  -23.00000    0.00000    0.00000    0.16001    0.00000    0.00000    0.00000    0.00000    0.00000
  793.50000    0.00000   83.45090   83.45090  141.01529  136.71065  149.00340  136.71065  233.10033  248.02052  338.00000  345.00000   14.00000   31.00000 -217.00000 -193.00000   59.00000  -14.00000  -11.00000    0.15997    0.00000    0.00000    0.00000    0.00000    0.00000
  794.00000    0.00000   83.72421   83.72421  141.30821  135.28929  150.52644  135.28929  232.72504  248.31360   31.00000   62.00000    9.00000   14.00000   21.00000   35.00000  241.00000    2.00000    5.00000    0.15993    0.00000    0.00000    0.00000    0.00000    0.00000
  794.50000    0.00000   83.52829   83.52829  142.37720  135.00841  152.84941  135.00841  232.71884  248.68869  -11.00000   -7.00000  235.00000  255.00000   -4.00000   -5.00000   83.00000   -8.00000    0.00000    0.15989    0.00000    0.00000    0.00000    0.00000    0.00000
  795.00000    0.00000   83.78345   83.78345  142.02802  136.08549  155.14355  136.08549  233.18166  249.17116   38.00000   42.00000   17.00000   38.00000   50.00000   56.00000  132.00000    0.00000   -2.00000    0.15984    0.00000    0.00000    0.00000    0.00000    0.00000
  795.50000    0.00000   85.02804   85.02804  146.40167  139.09314  154.90302  139.09314  234.29829  250.27388   74.00000   81.00000 -113.00000  -98.00000  143.00000  147.00000  192.00000   -2.00000    0.00000    0.15980    0.00000    0.00000    0.00000    0.00000    0.00000
  796.00000    0.00000   86.08756   86.08756  146.67709  142.10080  156.46085  142.10080  235.47874  250.93587  206.00000  211.00000  242.00000  259.00000   24.00000   24.00000  168.00000    0.00000    2.00000    0.15976    0.00000    0.00000    0.00000    0.00000    0.00000
  796.50000    0.00000   86.63531   86.63531  148.01138  145.10844  158.35971  145.10844  236.67117  251.51228  -15.00000    0.00000  129.00000  144.00000  126.00000  122.00000  156.00000   14.00000   11.00000    0.15972    0.00000    0.00000    0.00000    0.00000    0.00000
  797.00000    0.00000   87.15000   87.15000  148.69031  148.11609  162.01437  148.11609  238.18637  252.19356   25.00000   61.00000  107.00000  118.00000  -59.00000  -41.00000   23.00000   -5.00000   -5.00000    0.15967    0.00000    0.00000    0.00000    0.00000    0.00000
  797.50000    0.00000   88.23158   88.23158  150.57983  151.12375  164.35269  151.12375  239.47131  253.37677   14.00000   28.00000   69.00000   82.00000    9.00000   16.00000  156.00000  -14.00000   -5.00000    0.15963    0.00000    0.00000    0.00000    0.00000    0.00000
  798.00000    0.00000   88.84422   88.84422  150.75743  154.13141  164.65047  154.13141  240.77576  253.79132   -2.00000   -1.00000 -121.00000 -115.00000   35.00000   40.00000   11.00000    5.00000  -17.00000    0.15959    0.00000    0.00000    0.00000    0.00000    0.00000
  798.50000    0.00000   89.68474   89.68474  151.04901  157.13905  164.74637  157.13905  242.00237  254.05064   35.00000   51.00000  225.00000  227.00000   21.00000   34.00000  -11.00000  -17.00000    0.00000    0.15954    0.00000    0.00000    0.00000    0.00000    0.00000
  799.00000    0.00000   89.05842   89.05842  151.72372  160.14668  165.59010  160.14668  243.31151  254.07253  -30.00000  -35.00000  205.00000  202.00000  132.00000  120.00000  -23.00000    8.00000   -2.00000    0.15950    0.00000    0.00000    0.00000    0.00000    0.00000
