~Version ---------------------------------------------------
VERS.   2.0 : CWLS log ASCII Standard -VERSION 2.0
WRAP.    NO : One line per depth step
DLM . SPACE : Column Data Section Delimiter
~Well ------------------------------------------------------
STRT.ft              16.5 : START DEPTH
STOP.ft            1462.0 : STOP DEPTH
STEP.ft               0.5 : STEP
NULL.             -999.25 : NULL VALUE
COMP.                     : COMPANY
WELL.           Umiat #18 : WELL
FLD .       Linc_Umiat_18 : FIELD
LOC .                     : LOCATION
PROV.                     : PROVINCE
CNTY.                     : COUNTY
STAT.                     : STATE
CTRY.                     : COUNTRY
SRVC. TERRASCIENCES, Inc. : SERVICE COMPANY
DATE.                     : DATE
UWI .           Umiat #18 : UNIQUE WELL ID
API .           Umiat #18 : API NUMBER
~Curve Information -----------------------------------------
TDEP     .ft     : Measured Depth
ECGR_EDTC.gAPI   : Environmentally Corrected Gamma Ray
GDEV_EDTC.deg    : EDTC Hole Deviation from Gravity
GR_EDTC  .gAPI   : Gamma Ray
HV       .V      : Head Voltage
RAZ_EDTC .       : EDTC Raw Z-Axis Acceleration Data
CDF      .lbf    : Calibrated Downhole Force
DF       .lbf    : Uncalibrated Downhole Force
HDAR     .in     : Hole Diameter from Area
DCAL     .in     : Differential Caliper
AZIM     .deg    : Measured Azimuth
GHD      .in     : Borehole Diameter
BHRM     .ohm.m  : Borehole Mud Resistivity
ED       .ft     : East Departure
DLS      .       : Dog Leg Severity
FCD      .in     : Future Casing Diameter
TENS     .lbf    : Cable Tension
ICV      .cuft   : Integrated Cement Volume
ND       .ft     : North Departure
FF       .       : Formation Factor
TVDSS    .ft     : Sub-sea TVD: True Vertical Depth measured from Mean Sea Leve
TDSP     .ft     : Total Displacement (of survey measure point from vertical)
INCL     .deg    : Hole inclination
X        .ft     : Depth Index
BHPR     .psi    : Borehole Pressure
~Params ----------------------------------------------------
PROD   .            TerraStation II : 
PROG   .                         [] : 
RUN    .                         [] : 
DESCENT.                         [] : 
VERSION.                            : 
LINEAGE. Python-converted from DLIS : 
ORFILE .          DynamicImage.dlis : 
~Other -----------------------------------------------------
~ASCII -----------------------------------------------------
# ...
  785.00000   28.45986    2.40566   28.01430  260.99625    9.96946 1848.35120 1848.35120    8.71111    0.21111    0.00000    8.71111  594.11993    0.00000    0.00000    9.62500 2011.63171    0.06186    0.00000    0.00250  212.99913    0.00000    0.00000  784.99915  407.80750
  785.50000   29.09074    2.44697   28.63294  260.94925    9.98559 1826.09692 1826.09692    8.71303    0.21303    0.00000    8.71303  594.19122    0.00000    0.00000    9.62500 1987.36841    0.06186    0.00000    0.00250  213.49168    0.00000    0.00000  785.49164  408.06726
  786.00000   31.06829    2.54114   30.58197  261.18420    9.98855 1854.50146 1854.50146    8.71104    0.21104    0.00000    8.71104  594.26245    0.00000    0.00000    9.62500 2048.85010    0.06186    0.00000    0.00250  213.99959    0.00000    0.00000  785.99957  408.32700
  786.50000   31.80642    2.36836   31.29063  261.27820    9.89885 1830.73621 1830.73621    8.72437    0.22437    0.00000    8.72437  594.33368    0.00000    0.00000    9.62500 2015.63171    0.06186    0.00000    0.00250  214.50090    0.00000    0.00000  786.50085  408.58673
  787.00000   31.50347    2.30435   31.02548  261.27820    9.94527 1826.27466 1826.27466    8.69968    0.19968    0.00000    8.69968  594.40497    0.00000    0.00000    9.62500 1998.31592    0.06186    0.00000    0.00250  214.98993    0.00000    0.00000  786.98993  408.84650
  787.50000   30.84738    2.42802   30.36444  261.05441    9.98037 1820.38013 1820.38013    8.71111    0.21111    0.00000    8.71111  594.47632    0.00000    0.00000    9.62500 1987.30005    0.06186    0.00000    0.00250  215.49585    0.00000    0.00000  787.49585  409.10626
  788.00000   33.72411    2.31029   33.19339  261.08032    9.98985 1829.57141 1829.57141    8.71303    0.21303    0.00000    8.71303  594.54761    0.00000    0.00000    9.62500 1991.57886    0.06186    0.00000    0.00250  216.00395    0.00000    0.00000  788.00397  409.36600
  788.50000   35.18853    2.36496   34.63762  260.96490    9.96354 1813.38867 1813.38867    8.71111    0.21111    0.00000    8.71111  594.61896    0.00000    0.00000    9.62500 1992.10535    0.06186    0.00000    0.00250  216.49475    0.00000    0.00000  788.49475  409.62576
  789.00000   37.03063    2.54522   36.44788  261.22873    9.91040 1785.86365 1785.86365    8.71303    0.21303    0.00000    8.71303  594.69031    0.00000    0.00000    9.62500 1964.57898    0.06186    0.00000    0.00250  216.98421    0.00000    0.00000  788.98419  409.88550
  789.50000   36.73004    2.43357   36.13441  260.52631    9.91605 1792.51990 1792.51990    8.72437    0.22437    0.00000    8.72437  594.76178    0.00000    0.00000    9.62500 1969.00012    0.06186    0.00000    0.00250  217.49458    0.00000    0.00000  789.49457  410.14526
  790.00000   37.22369    2.46442   36.62006  259.63345    9.99892 1832.90479 1832.90479    8.72437    0.22437    0.00000    8.72437  594.83313    0.00000    0.00000    9.62500 2006.10522    0.06186    0.00000    0.00250  218.00439    0.00000    0.00000  790.00439  410.40500
  790.50000   36.84788    2.39056   36.28880  260.80829    9.97477 1808.58862 1808.58862    8.69968    0.19968    0.00000    8.69968  594.90454    0.00000    0.00000    9.62500 1977.94434    0.06186    0.00000    0.00250  218.49632    0.00000    0.00000  790.49628  410.66476
  791.00000   37.02243    2.22317   36.44281  258.03571    9.97283 1811.93018 1811.93018    8.71111    0.21111    0.00000    8.71111  594.97595    0.00000    0.00000    9.62500 1983.65002    0.06186    0.00000    0.00250  218.99501    0.00000    0.00000  790.99500  410.92450
  791.50000   41.88223    2.23081   41.24334  256.34399    9.92355 1778.92212 1778.92212    8.70162    0.20162    0.00000    8.70162  595.04742    0.00000    0.00000    9.62500 1949.00000    0.06186    0.00000    0.00250  219.50046    0.00000    0.00000  791.50043  411.18427
  792.00000   44.25235    2.27107   43.53831  255.96805    9.97366 1825.79468 1825.79468    8.72246    0.22246    0.00000    8.72246  595.11884    0.00000    0.00000    9.62500 2014.63171    0.06186    0.00000    0.00250  219.99211    0.00000    0.00000  791.99213  411.44403
  792.50000   45.56475    2.43446   44.85152  256.06204    9.90105 1784.98340 1784.98340    8.71104    0.21104    0.00000    8.71104  595.19031    0.00000    0.00000    9.62500 1963.50000    0.06186    0.00000    0.00250  220.49794    0.00000    0.00000  792.49792  411.70374
  793.00000   39.50965    2.64582   38.87214  256.25000    9.99635 1833.11804 1833.11804    8.72246    0.22246    0.00000    8.72246  595.26184    0.00000    0.00000    9.62500 2005.10522    0.06186    0.00000    0.00250  221.00397    0.00000    0.00000  793.00397  411.96350
  793.50000   37.97185    2.46752   37.33791  257.14285    9.98212 1825.04822 1825.04822    8.73571    0.23571    0.00000    8.73571  595.33344    0.00000    0.00000    9.62500 2011.05249    0.06186    0.00000    0.00250  221.49474    0.00000    0.00000  793.49475  412.22324
  794.00000   37.40500    2.29865   36.79843  257.75375    9.94512 1816.35620 1816.35620    8.72437    0.22437    0.00000    8.72437  595.40491    0.00000    0.00000    9.62500 1991.05273    0.06186    0.00000    0.00250  221.98598    0.00000    0.00000  793.98596  412.48300
  794.50000   39.24913    2.39882   38.63147  257.75375    9.92931 1811.73474 1811.73474    8.71303    0.21303    0.00000    8.71303  595.47650    0.00000    0.00000    9.62500 1984.00000    0.06186    0.00000    0.00250  222.49167    0.00000    0.00000  794.49164  412.74274
  795.00000   41.60717    2.53497   40.95577  255.02820    9.98008 1827.46570 1827.46570    8.71111    0.21111    0.00000    8.71111  595.54803    0.00000    0.00000    9.62500 1998.05273    0.06186    0.00000    0.00250  222.99739    0.00000    0.00000  794.99738  413.00250
  795.50000   39.22951    2.44409   38.61215  249.20113    9.97846 1822.11536 1822.11536    8.71303    0.21303    0.00000    8.71303  595.61963    0.00000    0.00000    9.62500 1992.47375    0.06186    0.00000    0.00250  223.49255    0.00000    0.00000  795.49255  413.26224
  796.00000   36.98174    2.27159   36.40275  249.28392    9.95659 1829.09839 1829.09839    8.71111    0.21111    0.00000    8.71111  595.69122    0.00000    0.00000    9.62500 2005.89990    0.06186    0.00000    0.00250  223.99210    0.00000    0.00000  795.99207  413.52200
  796.50000   32.38509    2.52499   31.85992  249.30748    9.89698 1807.38086 1807.38086    8.72437    0.22437    0.00000    8.72437  595.76282    0.00000    0.00000    9.62500 1983.84216    0.06186    0.00000    0.00250  224.49344    0.00000    0.00000  796.49341  413.78174
  797.00000   33.17152    2.42576   32.63627  248.87218    9.93401 1815.11206 1815.11206    8.72246    0.22246    0.00000    8.72246  595.83447    0.00000    0.00000    9.62500 1979.47375    0.06186    0.00000    0.00250  224.98642    0.00000    0.00000  796.98639  414.04150
  797.50000   32.96363    2.29601   32.41585  248.92589    9.98611 1859.43433 1859.43433    8.73388    0.23388    0.00000    8.73388  595.90613    0.00000    0.00000    9.62500 2040.70007    0.06186    0.00000    0.00250  225.49208    0.00000    0.00000  797.49207  414.30124
  798.00000   31.98131    2.38909   31.46527  248.91917    9.94415 1805.65564 1805.65564    8.72246    0.22246    0.00000    8.72246  595.97778    0.00000    0.00000    9.62500 1993.78943    0.06186    0.00000    0.00250  225.99342    0.00000    0.00000  797.99341  414.56100
  798.50000   28.05819    2.54699   27.57627  251.92670    9.98969 1829.40308 1829.40308    8.74712    0.24712    0.00000    8.74712  596.04950    0.00000    0.00000    9.62500 1995.40002    0.06186    0.00000    0.00250  226.49792    0.00000    0.00000  798.49792  414.82074
  799.00000   29.36828    2.36323   28.87798  252.49060    9.96275 1829.22522 1829.22522    8.73571    0.23571    0.00000    8.73571  596.12115    0.00000    0.00000    9.62500 2018.36853    0.06186    0.00000    0.00250  227.00352    0.00000    0.00000  799.00348  415.08051
