~Version ---------------------------------------------------
VERS.   2.0 : CWLS log ASCII Standard -VERSION 2.0
WRAP.    NO : One line per depth step
DLM . SPACE : Column Data Section Delimiter
~Well ------------------------------------------------------
STRT.ft              16.5 : START DEPTH
STOP.ft            1462.0 : STOP DEPTH
STEP.ft               0.5 : STEP
NULL.             -999.25 : NULL VALUE
COMP.                     : COMPANY
WELL.           Umiat #18 : WELL
FLD .       Linc_Umiat_18 : FIELD
LOC .                     : LOCATION
PROV.                     : PROVINCE
CNTY.                     : COUNTY
STAT.                     : STATE
CTRY.                     : COUNTRY
SRVC. TERRASCIENCES, Inc. : SERVICE COMPANY
DATE.                     : DATE
UWI .           Umiat #18 : UNIQUE WELL ID
API .           Umiat #18 : API NUMBER
~Curve Information -----------------------------------------
TDEP     .ft     : Measured Depth
ECGR_EDTC.gAPI   : Environmentally Corrected Gamma Ray
GDEV_EDTC.deg    : EDTC Hole Deviation from Gravity
GR_EDTC  .gAPI   : Gamma Ray
HV       .V      : Head Voltage
RAZ_EDTC .       : EDTC Raw Z-Axis Acceleration Data
CDF      .lbf    : Calibrated Downhole Force
DF       .lbf    : Uncalibrated Downhole Force
HDAR     .in     : Hole Diameter from Area
DCAL     .in     : Differential Caliper
AZIM     .deg    : Measured Azimuth
GHD      .in     : Borehole Diameter
BHRM     .ohm.m  : Borehole Mud Resistivity
ED       .ft     : East Departure
DLS      .       : Dog Leg Severity
FCD      .in     : Future Casing Diameter
TENS     .lbf    : Cable Tension
ICV      .cuft   : Integrated Cement Volume
ND       .ft     : North Departure
FF       .       : Formation Factor
TVDSS    .ft     : Sub-sea TVD: True Vertical Depth measured from Mean Sea Leve
TDSP     .ft     : Total Displacement (of survey measure point from vertical)
INCL     .deg    : Hole inclination
X        .ft     : Depth Index
BHPR     .psi    : Borehole Pressure
~Params ----------------------------------------------------
PROD   .            TerraStation II : 
PROG   .                         [] : 
RUN    .                         [] : 
DESCENT.                         [] : 
VERSION.                            : 
LINEAGE. Python-converted from DLIS : 
ORFILE .          DynamicImage.dlis : 
~Other -----------------------------------------------------
~ASCII -----------------------------------------------------
   16.50000    8.39808 -999.25000    9.57448  255.21773    9.96833 1565.95374 1565.95374    3.57981   -9.79519    0.00000    3.57981  501.67047    0.00000    0.00000    9.62500 1387.91479    2.08219    0.00000    0.00250 -451.54947    0.00000    0.00000  120.45051    8.57175
   17.00000    8.39808 -999.25000    9.57448  255.21773    9.96833 1565.95374 1565.95374    3.57981   -9.79519    0.00000    3.57981  501.72128    0.00000    0.00000    9.62500 1387.91479    2.08219    0.00000    0.00250 -451.54947    0.00000    0.00000  120.45051    8.83150
   17.50000    8.39808 -999.25000    9.57448  255.21773    9.96833 1565.95374 1565.95374    3.57981   -9.79519    0.00000    3.57981  501.77213    0.00000    0.00000    9.62500 1387.91479    2.08219    0.00000    0.00250 -451.54947    0.00000    0.00000  120.45051    9.09125
   18.00000    8.39808 -999.25000    9.57448  255.21773    9.96833 1565.95374 1565.95374    3.57981   -9.79519    0.00000    3.57981  501.82300    0.00000    0.00000    9.62500 1387.91479    2.08219    0.00000    0.00250 -451.54947    0.00000    0.00000  120.45051    9.35100
   18.50000    8.39808 -999.25000    9.57448  255.21773    9.96833 1565.95374 1565.95374    3.57981   -9.79519    0.00000    3.57981  501.87384    0.00000    0.00000    9.62500 1387.91479    2.08219    0.00000    0.00250 -451.54947    0.00000    0.00000  120.45051    9.61075
   19.00000    8.39808 -999.25000    9.57448  255.21773    9.96833 1565.95374 1565.95374    3.57981   -9.79519    0.00000    3.57981  501.92468    0.00000    0.00000    9.62500 1387.91479    2.08219    0.00000    0.00250 -451.54947    0.00000    0.00000  120.45051    9.87050
   19.50000    8.39808 -999.25000    9.57448  255.21773    9.96833 1565.95374 1565.95374    3.57981   -9.79519    0.00000    3.57981  501.97537    0.00000    0.00000    9.62500 1387.91479    2.08219    0.00000    0.00250 -451.54947    0.00000    0.00000  120.45051   10.13025
   20.00000    8.39808 -999.25000    9.57448  255.21773    9.96833 1565.95374 1565.95374    3.57981   -9.79519    0.00000    3.57981  502.02625    0.00000    0.00000    9.62500 1387.91479    2.08219    0.00000    0.00250 -451.54947    0.00000    0.00000  120.45051   10.39000
   20.50000    8.39808 -999.25000    9.57448  255.21773    9.96833 1565.95374 1565.95374    3.57981   -9.79519    0.00000    3.57981  502.07712    0.00000    0.00000    9.62500 1387.91479    2.08219    0.00000    0.00250 -451.54947    0.00000    0.00000  120.45051   10.64975
   21.00000    8.39808 -999.25000    9.57448  255.21773    9.96833 1565.95374 1565.95374    3.57981   -9.79519    0.00000    3.57981  502.12799    0.00000    0.00000    9.62500 1387.91479    2.08219    0.00000    0.00250 -451.54947    0.00000    0.00000  120.45051   10.90950
   21.50000    8.39808 -999.25000    9.57448  255.21773    9.96833 1565.95374 1565.95374    3.57981   -9.79519    0.00000    3.57981  502.17892    0.00000    0.00000    9.62500 1387.91479    2.08219    0.00000    0.00250 -451.54947    0.00000    0.00000  120.45051   11.16925
   22.00000    8.39808 -999.25000    9.57448  255.21773    9.96833 1565.95374 1565.95374    3.57981   -9.79519    0.00000    3.57981  502.22989    0.00000    0.00000    9.62500 1387.91479    2.08219    0.00000    0.00250 -451.54947    0.00000    0.00000  120.45051   11.42900
   22.50000    8.39808 -999.25000    9.57448  255.21773    9.96833 1565.95374 1565.95374    3.57981   -9.79519    0.00000    3.57981  502.28082    0.00000    0.00000    9.62500 1387.91479    2.08219    0.00000    0.00250 -451.54947    0.00000    0.00000  120.45051   11.68875
   23.00000    8.39808 -999.25000    9.57448  255.21773    9.96833 1565.95374 1565.95374    3.57981   -9.79519    0.00000    3.57981  502.33173    0.00000    0.00000    9.62500 1387.91479    2.08219    0.00000    0.00250 -451.54947    0.00000    0.00000  120.45051   11.94850
   23.50000    8.39808 -999.25000    9.57448  255.21773    9.96833 1565.95374 1565.95374    3.57981   -9.79519    0.00000    3.57981  502.38257    0.00000    0.00000    9.62500 1387.91479    2.08219    0.00000    0.00250 -451.54947    0.00000    0.00000  120.45051   12.20825
   24.00000    8.39808 -999.25000    9.57448  255.21773    9.96833 1565.95374 1565.95374    3.57981   -9.79519    0.00000    3.57981  502.43347    0.00000    0.00000    9.62500 1387.91479    2.08219    0.00000    0.00250 -451.54947    0.00000    0.00000  120.45051   12.46800
   24.50000    8.39808 -999.25000    9.57448  255.21773    9.96833 1565.95374 1565.95374    3.57981   -9.79519    0.00000    3.57981  502.48441    0.00000    0.00000    9.62500 1387.91479    2.08219    0.00000    0.00250 -451.54947    0.00000    0.00000  120.45051   12.72775
   25.00000    8.39808 -999.25000    9.57448  255.21773    9.96833 1565.95374 1565.95374    3.57981   -9.79519    0.00000    3.57981  502.53537    0.00000    0.00000    9.62500 1387.91479    2.08219    0.00000    0.00250 -451.54947    0.00000    0.00000  120.45051   12.98750
   25.50000   10.48975 -999.25000   11.95915  255.21773    9.96833 1565.95374 1565.95374    3.57981   -9.79519    0.00000    3.57981  502.58640    0.00000    0.00000    9.62500 1387.91479    2.08219    0.00000    0.00250 -451.54947    0.00000    0.00000  120.45051   13.24725
   26.00000   10.37764 -999.25000   11.83134  255.21773    9.96833 1565.95374 1565.95374    3.57981   -9.79519    0.00000    3.57981  502.63745    0.00000    0.00000    9.62500 1387.91479    2.08219    0.00000    0.00250 -451.54947    0.00000    0.00000  120.45051   13.50700
   26.50000    9.74871 -999.25000   11.11430  255.21773    9.96833 1565.95374 1565.95374    3.57981   -9.79519    0.00000    3.57981  502.68845    0.00000    0.00000    9.62500 1387.91479    2.08219    0.00000    0.00250 -451.54947    0.00000    0.00000  120.45051   13.76675
   27.00000    8.70377 -999.25000    9.92299  255.21773    9.96833 1565.95374 1565.95374    3.57981   -9.79519    0.00000    3.57981  502.73944    0.00000    0.00000    9.62500 1387.91479    2.08219    0.00000    0.00250 -451.54947    0.00000    0.00000  120.45051   14.02650
   27.50000    8.80973 -999.25000   10.04379  255.21773    9.96833 1565.95374 1565.95374    3.57981   -9.79519    0.00000    3.57981  502.79037    0.00000    0.00000    9.62500 1387.91479    2.08219    0.00000    0.00250 -451.54947    0.00000    0.00000  120.45051   14.28625
   28.00000    7.23435 -999.25000    8.24773  255.21773    9.96833 1565.95374 1565.95374    3.57981   -9.79519    0.00000    3.57981  502.84134    0.00000    0.00000    9.62500 1387.91479    2.08219    0.00000    0.00250 -451.54947    0.00000    0.00000  120.45051   14.54600
   28.50000    6.87448 -999.25000    7.83745  255.21773    9.96833 1565.95374 1565.95374    3.57981   -9.79519    0.00000    3.57981  502.89236    0.00000    0.00000    9.62500 1387.91479    2.08219    0.00000    0.00250 -451.54947    0.00000    0.00000  120.45051   14.80575
   29.00000    6.70662 -999.25000    7.64608  255.21773    9.96833 1565.95374 1565.95374    3.57981   -9.79519    0.00000    3.57981  502.94342    0.00000    0.00000    9.62500 1387.91479    2.08219    0.00000    0.00250 -451.54947    0.00000    0.00000  120.45051   15.06550
   29.50000    7.79295 -999.25000    8.88457  255.21773    9.96833 1565.95374 1565.95374    3.57981   -9.79519    0.00000    3.57981  502.99454    0.00000    0.00000    9.62500 1387.91479    2.08219    0.00000    0.00250 -451.54947    0.00000    0.00000  120.45051   15.32525
   30.00000    8.08417 -999.25000    9.21660  255.21773    9.96833 1565.95374 1565.95374    3.57981   -9.79519    0.00000    3.57981  503.04565    0.00000    0.00000    9.62500 1387.91479    2.08219    0.00000    0.00250 -451.54947    0.00000    0.00000  120.45051   15.58500
   30.50000    7.26363 -999.25000    8.28112  255.21773    9.96833 1565.95374 1565.95374    3.57981   -9.79519    0.00000    3.57981  503.09674    0.00000    0.00000    9.62500 1387.91479    2.08219    0.00000    0.00250 -451.54947    0.00000    0.00000  120.45051   15.84475
