~Version ---------------------------------------------------
VERS.   2.0 : CWLS log ASCII Standard -VERSION 2.0
WRAP.    NO : One line per depth step
DLM . SPACE : Column Data Section Delimiter
~Well ------------------------------------------------------
STRT.ft              16.5 : START DEPTH
STOP.ft            1462.0 : STOP DEPTH
STEP.ft               0.5 : STEP
NULL.             -999.25 : NULL VALUE
COMP.                     : COMPANY
WELL.           Umiat #18 : WELL
FLD .       Linc_Umiat_18 : FIELD
LOC .                     : LOCATION
PROV.                     : PROVINCE
CNTY.                     : COUNTY
STAT.                     : STATE
CTRY.                     : COUNTRY
SRVC. TERRASCIENCES, Inc. : SERVICE COMPANY
DATE.                     : DATE
UWI .           Umiat #18 : UNIQUE WELL ID
API .           Umiat #18 : API NUMBER
~Curve Information -----------------------------------------
TDEP     .ft    : Measured Depth
DCSI6    .      : Data Copy Status Indicator for Waveform Array 6
DTCO3    .us/F  : Compressional Slowness from Measurement 3
DTCO     .us/F  : Delta-T Compressional
DTSH3    .us/F  : Shear Slowness from Measurement 3
DTSH5    .us/F  : Shear Slowness from Measurement 5
DTSH6    .us/F  : Shear Slowness from Measurement 6
DTSM     .us/F  : Delta-T Shear
DTSTE    .us/F  : The elastic Stoneley slowness
DTST     .us/F  : Delta-T Stoneley - Monopole Stoneley
DWF1     .      : Display Waveform Array 1 Monopole Upper Middle Frequency
DWF1_MONO.      : Display Waveform 1 Monopole Component
DWF2     .      : Display Waveform Array 2 Monopole Lower Middle Frequency
DWF2_MONO.      : Display Waveform 2 Monopole Component
DWF3     .      : Display Waveform Array 3 Monopole Far Middle Frequency
DWF3_MONO.      : Display Waveform 3 Monopole Component
DWF4_MONO.      : Display Waveform 4 Monopole Component
DWF5_DIIN.      : Display Waveform 5 Dipole Inline Component
DWF6_DIIN.      : Display Waveform 6 Dipole Inline Component
ITT      .s     : Integrated Transit Time
LQC_WF1  .      : Log Quality Control for Waveform Array Measurement 1
LQC_WF2  .      : Log Quality Control for Waveform Array Measurement 2
LQC_WF3  .      : Log Quality Control for Waveform Array Measurement 3
LQC_WF4  .      : Log Quality Control for Waveform Array Measurement 4
LQC_WF5  .      : Log Quality Control for Waveform Array Measurement 5
~Params ----------------------------------------------------
PROD   .            TerraStation II : 
PROG   .                         [] : 
RUN    .                         [] : 
DESCENT.                         [] : 
VERSION.                            : 
LINEAGE. Python-converted from DLIS : 
ORFILE .          DynamicImage.dlis : 
~Other -----------------------------------------------------
~ASCII -----------------------------------------------------
# ...
 1075.00000    0.00000   79.56678   79.56678  144.82806  143.69138  145.95180  143.69138  236.35255  243.25325   79.00000   79.00000  169.00000  177.00000  224.00000  208.00000   83.00000   14.00000    2.00000    0.13725    0.00000    0.00000    0.00000    0.00000    0.00000
 1075.50000    0.00000   78.69409   78.69409  143.43990  141.90352  144.66797  141.90352  234.77852  242.31587  201.00000  214.00000   26.00000   50.00000   35.00000   28.00000  -23.00000   -2.00000  -11.00000    0.13721    0.00000    0.00000    0.00000    0.00000    0.00000
 1076.00000    0.00000   78.38102   78.38102  140.67123  141.61038  143.34679  141.61038  234.51587  242.07085  121.00000  124.00000   42.00000   50.00000  -31.00000  -26.00000   35.00000  -14.00000    5.00000    0.13717    0.00000    0.00000    0.00000    0.00000    0.00000
 1076.50000    0.00000   78.04359   78.04359  141.02322  138.66290  140.93628  138.66290  233.40836  241.70499   23.00000   18.00000  206.00000  202.00000 -119.00000 -114.00000  -59.00000  -14.00000   -5.00000    0.13713    0.00000    0.00000    0.00000    0.00000    0.00000
 1077.00000    0.00000   77.74902   77.74902  140.16876  138.33940  140.25571  138.33940  233.95375  242.29684  246.00000  258.00000   34.00000   46.00000   83.00000   80.00000   71.00000  -23.00000   -8.00000    0.13709    0.00000    0.00000    0.00000    0.00000    0.00000
 1077.50000    0.00000   77.27497   77.27497  140.01079  138.47298  140.57443  138.47298  233.35669  241.43832   82.00000   93.00000  148.00000  146.00000  101.00000   82.00000  -47.00000  -14.00000   -5.00000    0.13706    0.00000    0.00000    0.00000    0.00000    0.00000
 1078.00000    0.00000   77.54242   77.54242  139.12988  138.92178  140.61922  138.92178  233.43439  241.50981  -76.00000  -70.00000  137.00000  134.00000  -28.00000  -27.00000 -144.00000   -5.00000    8.00000    0.13702    0.00000    0.00000    0.00000    0.00000    0.00000
 1078.50000    0.00000   76.98874   76.98874  140.99635  138.50249  140.90460  138.50249  233.31456  241.64493  267.00000  266.00000   29.00000   32.00000   14.00000   29.00000    0.00000   -2.00000    2.00000    0.13698    0.00000    0.00000    0.00000    0.00000    0.00000
 1079.00000    0.00000   77.11217   77.11217  141.26988  139.42198  140.87517  139.42198  233.54906  241.44154   13.00000   22.00000   50.00000   58.00000   32.00000   23.00000  132.00000   -8.00000    5.00000    0.13694    0.00000    0.00000    0.00000    0.00000    0.00000
 1079.50000    0.00000   77.73417   77.73417  141.86128  138.57024  139.90509  138.57024  233.27757  241.37416  161.00000  158.00000  148.00000  150.00000 -166.00000 -151.00000   35.00000   -5.00000    5.00000    0.13690    0.00000    0.00000    0.00000    0.00000    0.00000
 1080.00000    0.00000   77.97263   77.97263  141.09903  138.49220  139.76329  138.49220  233.25575  241.28557  -26.00000  -14.00000  177.00000  180.00000   60.00000   56.00000  -59.00000   20.00000   -2.00000    0.13686    0.00000    0.00000    0.00000    0.00000    0.00000
 1080.50000    0.00000   77.92641   77.92641  140.10507  138.91850  140.22023  138.91850  233.29327  241.39880  100.00000   98.00000  -74.00000  -60.00000   38.00000   13.00000  205.00000  -14.00000   14.00000    0.13682    0.00000    0.00000    0.00000    0.00000    0.00000
 1081.00000    0.00000   77.58992   77.58992  142.17085  140.27641  140.11095  140.27641  233.82333  241.55411  -66.00000  -50.00000   74.00000   86.00000  -44.00000  -44.00000  -95.00000  -14.00000    2.00000    0.13678    0.00000    0.00000    0.00000    0.00000    0.00000
 1081.50000    0.00000   78.06767   78.06767  142.89302  140.92332  142.44943  140.92332  234.25519  241.84882  248.00000  242.00000  100.00000  106.00000  -27.00000  -21.00000  -23.00000  -14.00000  -17.00000    0.13675    0.00000    0.00000    0.00000    0.00000    0.00000
 1082.00000    0.00000   78.20545   78.20545  140.54970  140.95969  142.65816  140.95969  234.21190  241.79662   84.00000   92.00000  171.00000  167.00000 -104.00000 -100.00000   23.00000   -5.00000    2.00000    0.13671    0.00000    0.00000    0.00000    0.00000    0.00000
 1082.50000    0.00000   78.44071   78.44071  141.79115  141.15874  141.26033  141.15874  234.21689  241.77083   10.00000   24.00000  145.00000  152.00000 -120.00000 -117.00000   23.00000   -8.00000  -20.00000    0.13667    0.00000    0.00000    0.00000    0.00000    0.00000
 1083.00000    0.00000   79.53740   79.53740  141.98940  140.19839  141.40981  140.19839  233.72887  241.75885    2.00000   11.00000  -44.00000  -26.00000 -124.00000 -123.00000  156.00000    2.00000   -2.00000    0.13663    0.00000    0.00000    0.00000    0.00000    0.00000
 1083.50000    0.00000   78.28639   78.28639  144.04347  143.20436  141.83801  143.20436  234.88608  242.26944 -124.00000  -98.00000  119.00000  130.00000    2.00000    1.00000  168.00000    2.00000   -5.00000    0.13659    0.00000    0.00000    0.00000    0.00000    0.00000
 1084.00000    0.00000   77.49679   77.49679  145.45163  143.48480  142.37231  143.48480  235.06824  242.48175  -15.00000   -3.00000  132.00000  144.00000 -115.00000 -118.00000   59.00000  -14.00000    2.00000    0.13655    0.00000    0.00000    0.00000    0.00000    0.00000
 1084.50000    0.00000   77.79686   77.79686  144.28444  144.67285  143.49327  144.67285  235.56493  242.66820  -74.00000  -58.00000  208.00000  216.00000   68.00000   67.00000  108.00000    2.00000   -5.00000    0.13651    0.00000    0.00000    0.00000    0.00000    0.00000
 1085.00000    0.00000   78.62395   78.62395  147.84004  144.20747  144.54355  144.20747  235.52315  242.84032   -5.00000  -12.00000  306.00000  320.00000   86.00000   80.00000   71.00000  -14.00000   -8.00000    0.13647    0.00000    0.00000    0.00000    0.00000    0.00000
 1085.50000    0.00000   79.70673   79.70673  144.38362  144.92763  145.34708  144.92763  235.88188  243.14421   -2.00000    3.00000    0.00000   15.00000  155.00000  179.00000  120.00000    2.00000    5.00000    0.13643    0.00000    0.00000    0.00000    0.00000    0.00000
 1086.00000    0.00000   80.45235   80.45235  144.32834  146.60773  145.43318  146.60773  236.56236  243.26489    5.00000   16.00000 -153.00000 -160.00000  -28.00000  -24.00000   59.00000   11.00000   14.00000    0.13639    0.00000    0.00000    0.00000    0.00000    0.00000
 1086.50000    0.00000   80.28503   80.28503  144.69499  146.64124  145.55659  146.64124  236.59550  243.30321  -52.00000  -54.00000   55.00000   60.00000    4.00000    7.00000   59.00000  -23.00000    0.00000    0.13635    0.00000    0.00000    0.00000    0.00000    0.00000
 1087.00000    0.00000   79.81552   79.81552  145.80302  147.47110  146.02260  147.47110  236.93727  243.56070   79.00000   97.00000  145.00000  152.00000  111.00000  125.00000  -11.00000   -2.00000   -5.00000    0.13631    0.00000    0.00000    0.00000    0.00000    0.00000
 1087.50000    0.00000   80.28614   80.28614  147.30986  147.07607  147.04906  147.07607  236.89951  243.87209 -113.00000  -78.00000    7.00000   24.00000  102.00000  100.00000  108.00000    0.00000    8.00000    0.13627    0.00000    0.00000    0.00000    0.00000    0.00000
 1088.00000    0.00000   80.15805   80.15805  148.81668  147.55545  147.81999  147.55545  237.08308  244.01793  105.00000  115.00000   26.00000   39.00000   65.00000   64.00000  -11.00000    5.00000   11.00000    0.13623    0.00000    0.00000    0.00000    0.00000    0.00000
 1088.50000    0.00000   81.80103   81.80103  150.31224  149.00584  148.18179  149.00584  238.25764  244.66893  -31.00000  -18.00000 -155.00000 -159.00000   60.00000   59.00000   59.00000   -5.00000    0.00000    0.13619    0.00000    0.00000    0.00000    0.00000    0.00000
 1089.00000    0.00000   81.96955   81.96955  152.52888  149.46228  149.75027  149.46228  238.03369  244.33859  126.00000  141.00000  119.00000  125.00000 -123.00000 -105.00000  -23.00000   11.00000    2.00000    0.13615    0.00000    0.00000    0.00000    0.00000    0.00000
