~Version ---------------------------------------------------
VERS.   2.0 : CWLS log ASCII Standard -VERSION 2.0
WRAP.    NO : One line per depth step
DLM . SPACE : Column Data Section Delimiter
~Well ------------------------------------------------------
STRT.ft              16.5 : START DEPTH
STOP.ft            1462.0 : STOP DEPTH
STEP.ft               0.5 : STEP
NULL.             -999.25 : NULL VALUE
COMP.                     : COMPANY
WELL.           Umiat #18 : WELL
FLD .       Linc_Umiat_18 : FIELD
LOC .                     : LOCATION
PROV.                     : PROVINCE
CNTY.                     : COUNTY
STAT.                     : STATE
CTRY.                     : COUNTRY
SRVC. TERRASCIENCES, Inc. : SERVICE COMPANY
DATE.                     : DATE
UWI .           Umiat #18 : UNIQUE WELL ID
API .           Umiat #18 : API NUMBER
~Curve Information -----------------------------------------
TDEP     .ft    : Measured Depth
DCSI6    .      : Data Copy Status Indicator for Waveform Array 6
DTCO3    .us/F  : Compressional Slowness from Measurement 3
DTCO     .us/F  : Delta-T Compressional
DTSH3    .us/F  : Shear Slowness from Measurement 3
DTSH5    .us/F  : Shear Slowness from Measurement 5
DTSH6    .us/F  : Shear Slowness from Measurement 6
DTSM     .us/F  : Delta-T Shear
DTSTE    .us/F  : The elastic Stoneley slowness
DTST     .us/F  : Delta-T Stoneley - Monopole Stoneley
DWF1     .      : Display Waveform Array 1 Monopole Upper Middle Frequency
DWF1_MONO.      : Display Waveform 1 Monopole Component
DWF2     .      : Display Waveform Array 2 Monopole Lower Middle Frequency
DWF2_MONO.      : Display Waveform 2 Monopole Component
DWF3     .      : Display Waveform Array 3 Monopole Far Middle Frequency
DWF3_MONO.      : Display Waveform 3 Monopole Component
DWF4_MONO.      : Display Waveform 4 Monopole Component
DWF5_DIIN.      : Display Waveform 5 Dipole Inline Component
DWF6_DIIN.      : Display Waveform 6 Dipole Inline Component
ITT      .s     : Integrated Transit Time
LQC_WF1  .      : Log Quality Control for Waveform Array Measurement 1
LQC_WF2  .      : Log Quality Control for Waveform Array Measurement 2
LQC_WF3  .      : Log Quality Control for Waveform Array Measurement 3
LQC_WF4  .      : Log Quality Control for Waveform Array Measurement 4
LQC_WF5  .      : Log Quality Control for Waveform Array Measurement 5
~Params ----------------------------------------------------
PROD   .            TerraStation II : 
PROG   .                         [] : 
RUN    .                         [] : 
DESCENT.                         [] : 
VERSION.                            : 
LINEAGE. Python-converted from DLIS : 
ORFILE .          DynamicImage.dlis : 
~Other -----------------------------------------------------
~ASCII -----------------------------------------------------
# ...
  973.50000    0.00000   86.00053   86.00053  153.12787  147.06854  141.70145  147.06854  236.88538  247.75862  113.00000  130.00000   71.00000   76.00000   19.00000   29.00000  -59.00000    2.00000  -11.00000    0.14506    0.00000    0.00000    0.00000    0.00000    0.00000
  974.00000    0.00000   85.82655   85.82655  153.94740  147.69870  141.99059  147.69870  237.13831  247.90065   87.00000   87.00000  211.00000  220.00000  -32.00000  -23.00000   95.00000   -8.00000    5.00000    0.14502    0.00000    0.00000    0.00000    0.00000    0.00000
  974.50000    0.00000   85.60631   85.60631  153.98238  147.06541  141.65143  147.06541  236.86288  247.87312  177.00000  187.00000  137.00000  148.00000  -12.00000  -19.00000  -11.00000   17.00000   -2.00000    0.14497    0.00000    0.00000    0.00000    0.00000    0.00000
  975.00000    0.00000   85.31816   85.31816  153.79617  144.96875  142.42950  144.96875  236.09505  247.79083  -68.00000  -66.00000  182.00000  197.00000  -49.00000  -59.00000   35.00000   -8.00000  -11.00000    0.14493    0.00000    0.00000    0.00000    0.00000    0.00000
  975.50000    0.00000   84.77368   84.77368  153.52057  145.58524  142.03334  145.58524  236.29858  247.71730  182.00000  174.00000  187.00000  202.00000   32.00000   32.00000   11.00000   17.00000   11.00000    0.14489    0.00000    0.00000    0.00000    0.00000    0.00000
  976.00000    0.00000   84.60300   84.60300  153.42519  145.53575  141.79825  145.53575  236.27278  247.68433 -116.00000 -102.00000  -23.00000  -18.00000   72.00000   59.00000  -23.00000   -5.00000    0.00000    0.14484    0.00000    0.00000    0.00000    0.00000    0.00000
  976.50000    0.00000   84.36530   84.36530  150.75494  144.17456  143.76811  144.17456  235.81735  247.56151  -55.00000  -31.00000  113.00000  126.00000 -190.00000 -177.00000  -23.00000    5.00000    2.00000    0.14480    0.00000    0.00000    0.00000    0.00000    0.00000
  977.00000    0.00000   84.05267   84.05267  149.84039  144.08638  141.70383  144.08638  235.67236  247.34282   37.00000   52.00000  156.00000  152.00000   50.00000   53.00000  -11.00000  -11.00000    2.00000    0.14476    0.00000    0.00000    0.00000    0.00000    0.00000
  977.50000    0.00000   83.54949   83.54949  149.40428  143.92296  141.23608  143.92296  235.56113  247.07896  129.00000  148.00000    2.00000    8.00000  259.00000  248.00000  144.00000  -11.00000    0.00000    0.14472    0.00000    0.00000    0.00000    0.00000    0.00000
  978.00000    0.00000   83.26822   83.26822  148.27124  143.76408  140.76834  143.76408  235.51442  246.94914  103.00000  119.00000   -5.00000    2.00000   10.00000   12.00000 -108.00000   -2.00000    8.00000    0.14468    0.00000    0.00000    0.00000    0.00000    0.00000
  978.50000    0.00000   82.70297   82.70297  147.30382  141.59441  139.88531  141.59441  234.63971  246.59035   95.00000  104.00000  298.00000  316.00000   21.00000   12.00000  120.00000    2.00000    0.00000    0.14463    0.00000    0.00000    0.00000    0.00000    0.00000
  979.00000    0.00000   81.60313   81.60313  145.05536  141.95755  139.46994  141.95755  234.67577  245.91031  119.00000  124.00000   21.00000   32.00000  204.00000  200.00000   71.00000    0.00000   -2.00000    0.14459    0.00000    0.00000    0.00000    0.00000    0.00000
  979.50000    0.00000   81.38322   81.38322  144.38785  141.03816  138.37158  141.03816  234.29240  245.47005  -55.00000  -44.00000  129.00000  132.00000  120.00000  118.00000    0.00000  -17.00000    2.00000    0.14455    0.00000    0.00000    0.00000    0.00000    0.00000
  980.00000    0.00000   81.18076   81.18076  144.36116  140.65178  138.97720  140.65178  234.16986  245.24838    5.00000   24.00000  309.00000  298.00000   67.00000   74.00000  132.00000   -5.00000    2.00000    0.14451    0.00000    0.00000    0.00000    0.00000    0.00000
  980.50000    0.00000   81.07531   81.07531  144.62326  139.74844  140.63182  139.74844  233.98502  245.05080   44.00000   52.00000   -2.00000   10.00000   68.00000   58.00000   83.00000   -5.00000    0.00000    0.14447    0.00000    0.00000    0.00000    0.00000    0.00000
  981.00000    0.00000   80.88603   80.88603  144.46812  139.42108  140.11598  139.42108  233.81171  244.81227  -60.00000  -42.00000  208.00000  208.00000   97.00000  102.00000  -83.00000   -5.00000    0.00000    0.14443    0.00000    0.00000    0.00000    0.00000    0.00000
  981.50000    0.00000   80.86877   80.86877  143.96411  140.03366  139.84245  140.03366  234.00371  244.68999   52.00000   52.00000  111.00000  116.00000  -88.00000  -92.00000   35.00000    8.00000    5.00000    0.14439    0.00000    0.00000    0.00000    0.00000    0.00000
  982.00000    0.00000   80.86577   80.86577  145.22968  139.82217  140.20465  139.82217  233.93292  244.63905  185.00000  192.00000   52.00000   52.00000   55.00000   43.00000  108.00000  -17.00000  -11.00000    0.14435    0.00000    0.00000    0.00000    0.00000    0.00000
  982.50000    0.00000   80.93267   80.93267  145.18614  139.62895  138.78410  139.62895  233.82188  244.61458  222.00000  228.00000  -13.00000   -4.00000   82.00000  105.00000  -95.00000   11.00000    2.00000    0.14431    0.00000    0.00000    0.00000    0.00000    0.00000
  983.00000    0.00000   80.92645   80.92645  143.32761  139.22499  140.33496  139.22499  233.72560  244.69388  -74.00000  -66.00000 -119.00000  -94.00000   67.00000   69.00000  -11.00000  -11.00000    8.00000    0.14427    0.00000    0.00000    0.00000    0.00000    0.00000
  983.50000    0.00000   80.93954   80.93954  142.83467  139.60005  138.80530  139.60005  233.81204  244.73270  158.00000  154.00000   26.00000   16.00000   -4.00000   -1.00000  -11.00000    0.00000   -5.00000    0.14423    0.00000    0.00000    0.00000    0.00000    0.00000
  984.00000    0.00000   80.77241   80.77241  143.84567  139.85342  139.63506  139.85342  233.93610  244.81343   82.00000   98.00000  380.00000  382.00000  207.00000  215.00000   23.00000  -20.00000   11.00000    0.14419    0.00000    0.00000    0.00000    0.00000    0.00000
  984.50000    0.00000   80.63754   80.63754  142.18987  139.35382  138.93956  139.35382  233.70912  244.82614  -31.00000  -36.00000  269.00000  262.00000  -96.00000  -80.00000  132.00000   -8.00000    0.00000    0.14415    0.00000    0.00000    0.00000    0.00000    0.00000
  985.00000    0.00000   80.50945   80.50945  143.49861  138.55113  139.22772  138.55113  233.42741  244.80757  161.00000  160.00000   63.00000   76.00000  -17.00000    0.00000  -47.00000  -17.00000    0.00000    0.14411    0.00000    0.00000    0.00000    0.00000    0.00000
  985.50000    0.00000   80.33705   80.33705  141.72255  139.87601  138.88857  139.87601  234.57536  245.63585   31.00000   46.00000  119.00000  104.00000   -5.00000   12.00000  241.00000  -14.00000    0.00000    0.14407    0.00000    0.00000    0.00000    0.00000    0.00000
  986.00000    0.00000   80.15734   80.15734  143.30048  138.04709  138.33408  138.04709  233.18944  244.61957 -261.00000 -240.00000  -71.00000  -62.00000   35.00000   38.00000   59.00000  -11.00000   -5.00000    0.14403    0.00000    0.00000    0.00000    0.00000    0.00000
  986.50000    0.00000   79.92882   79.92882  141.41994  137.92557  138.63484  137.92557  233.18607  244.46527   21.00000   46.00000   87.00000  106.00000 -164.00000 -164.00000  -71.00000   -5.00000  -17.00000    0.14399    0.00000    0.00000    0.00000    0.00000    0.00000
  987.00000    0.00000   79.75187   79.75187  141.72748  139.29562  138.63307  139.29562  233.67915  244.36105 -137.00000 -128.00000  -58.00000  -38.00000   61.00000   63.00000  -23.00000  -17.00000    2.00000    0.14395    0.00000    0.00000    0.00000    0.00000    0.00000
  987.50000    0.00000   79.73874   79.73874  141.41940  137.69353  138.99782  137.69353  233.07147  244.37947  230.00000  228.00000   26.00000   34.00000 -197.00000 -192.00000  -23.00000    8.00000   -2.00000    0.14391    0.00000    0.00000    0.00000    0.00000    0.00000
