~Version ---------------------------------------------------
VERS.   2.0 : CWLS log ASCII Standard -VERSION 2.0
WRAP.    NO : One line per depth step
DLM . SPACE : Column Data Section Delimiter
~Well ------------------------------------------------------
STRT.ft              16.5 : START DEPTH
STOP.ft            1462.0 : STOP DEPTH
STEP.ft               0.5 : STEP
NULL.             -999.25 : NULL VALUE
COMP.                     : COMPANY
WELL.           Umiat #18 : WELL
FLD .       Linc_Umiat_18 : FIELD
LOC .                     : LOCATION
PROV.                     : PROVINCE
CNTY.                     : COUNTY
STAT.                     : STATE
CTRY.                     : COUNTRY
SRVC. TERRASCIENCES, Inc. : SERVICE COMPANY
DATE.                     : DATE
UWI .           Umiat #18 : UNIQUE WELL ID
API .           Umiat #18 : API NUMBER
~Curve Information -----------------------------------------
TDEP     .ft     : Measured Depth
ECGR_EDTC.gAPI   : Environmentally Corrected Gamma Ray
GDEV_EDTC.deg    : EDTC Hole Deviation from Gravity
GR_EDTC  .gAPI   : Gamma Ray
HV       .V      : Head Voltage
RAZ_EDTC .       : EDTC Raw Z-Axis Acceleration Data
CDF      .lbf    : Calibrated Downhole Force
DF       .lbf    : Uncalibrated Downhole Force
HDAR     .in     : Hole Diameter from Area
DCAL     .in     : Differential Caliper
AZIM     .deg    : Measured Azimuth
GHD      .in     : Borehole Diameter
BHRM     .ohm.m  : Borehole Mud Resistivity
ED       .ft     : East Departure
DLS      .       : Dog Leg Severity
FCD      .in     : Future Casing Diameter
TENS     .lbf    : Cable Tension
ICV      .cuft   : Integrated Cement Volume
ND       .ft     : North Departure
FF       .       : Formation Factor
TVDSS    .ft     : Sub-sea TVD: True Vertical Depth measured from Mean Sea Leve
TDSP     .ft     : Total Displacement (of survey measure point from vertical)
INCL     .deg    : Hole inclination
X        .ft     : Depth Index
BHPR     .psi    : Borehole Pressure
~Params ----------------------------------------------------
PROD   .            TerraStation II : 
PROG   .                         [] : 
RUN    .                         [] : 
DESCENT.                         [] : 
VERSION.                            : 
LINEAGE. Python-converted from DLIS : 
ORFILE .          DynamicImage.dlis : 
~Other -----------------------------------------------------
~ASCII -----------------------------------------------------
# ...
  205.00000  104.78384 -999.25000  101.27952  254.69925    9.93742 1843.04761 1843.04761    9.14154    0.64154    0.00000    9.14154  521.57800    0.00000    0.00000    9.62500 1798.75000    0.26831    0.00000    0.00250 -367.00122    0.00000    0.00000  204.99875  106.49750
  205.50000  114.18029 -999.25000  109.53217  253.53563    9.95949 1808.73328 1808.73328    9.32319    0.82319    0.00000    9.32319  521.63287    0.00000    0.00000    9.62500 1772.65002    0.26831    0.00000    0.00250 -366.51166    0.00000    0.00000  205.48833  106.75725
  206.00000  120.82559 -999.25000  117.56470  254.65652    9.97354 1802.07800 1802.07800    8.98304    0.48304    0.00000    8.98304  521.68781    0.00000    0.00000    9.62500 1781.33337    0.26831    0.00000    0.00250 -366.00992    0.00000    0.00000  205.99008  107.01699
  206.50000  115.79126 -999.25000  112.71988  253.98317    9.96444 1825.86499 1825.86499    8.97177    0.47177    0.00000    8.97177  521.74274    0.00000    0.00000    9.62500 1783.30005    0.26831    0.00000    0.00250 -365.50708    0.00000    0.00000  206.49292  107.27675
  207.00000  111.95959 -999.25000  108.72264  254.38597    9.98062 1803.90869 1803.90869    9.02999    0.52999    0.00000    9.02999  521.79773    0.00000    0.00000    9.62500 1760.85718    0.26831    0.00000    0.00250 -365.00394    0.00000    0.00000  206.99603  107.53650
  207.50000  110.48695 -999.25000  107.13932  254.02792    9.96310 1800.84460 1800.84460    9.06399    0.56399    0.00000    9.06399  521.85278    0.00000    0.00000    9.62500 1762.84998    0.26831    0.00000    0.00250 -364.50082    0.00000    0.00000  207.49916  107.79626
  208.00000  115.83218 -999.25000  112.53656  254.05844    9.98221 1840.05188 1840.05188    9.01874    0.51874    0.00000    9.01874  521.90771    0.00000    0.00000    9.62500 1804.04761    0.26831    0.00000    0.00250 -364.00711    0.00000    0.00000  207.99286  108.05600
  208.50000  110.29785 -999.25000  106.60912  254.25171    9.96101 1811.05249 1811.05249    9.14154    0.64154    0.00000    9.14154  521.96252    0.00000    0.00000    9.62500 1784.00000    0.26831    0.00000    0.00250 -363.50458    0.00000    0.00000  208.49542  108.31575
  209.00000  106.41064 -999.25000  102.70618  254.25171    9.97025 1808.95337 1808.95337    9.17551    0.67551    0.00000    9.17551  522.01752    0.00000    0.00000    9.62500 1779.23804    0.26831    0.00000    0.00250 -363.00040    0.00000    0.00000  208.99960  108.57550
  209.50000  106.26157 -999.25000  102.65907  254.11743    9.95590 1828.64124 1828.64124    9.15291    0.65291    0.00000    9.15291  522.07257    0.00000    0.00000    9.62500 1801.85010    0.26831    0.00000    0.00250 -362.49667    0.00000    0.00000  209.50333  108.83525
  210.00000  107.96465 -999.25000  104.30498  254.16219    9.96688 1826.55908 1826.55908    9.15277    0.65277    0.00000    9.15277  522.12756    0.00000    0.00000    9.62500 1807.85010    0.26831    0.00000    0.00250 -362.00415    0.00000    0.00000  209.99583  109.09500
  210.50000  108.76917 -999.25000  104.83431  254.43073    9.96248 1816.40198 1816.40198    9.20946    0.70946    0.00000    9.20946  522.18262    0.00000    0.00000    9.62500 1782.05005    0.26831    0.00000    0.00250 -361.51083    0.00000    0.00000  210.48917  109.35475
  211.00000  106.34586 -999.25000  102.25316  254.34122    9.98993 1839.50940 1839.50940    9.26721    0.76721    0.00000    9.26721  522.23767    0.00000    0.00000    9.62500 1818.85718    0.26831    0.00000    0.00250 -361.00595    0.00000    0.00000  210.99405  109.61450
  211.50000  107.90468 -999.25000  103.89793  254.96777    9.95869 1847.14417 1847.14417    9.23333    0.73333    0.00000    9.23333  522.29279    0.00000    0.00000    9.62500 1822.69995    0.26831    0.00000    0.00250 -360.50122    0.00000    0.00000  211.49875  109.87424
  212.00000  116.24502 -999.25000  111.51475  254.83351    9.96274 1849.46338 1849.46338    9.32278    0.82278    0.00000    9.32278  522.34784    0.00000    0.00000    9.62500 1830.80005    0.26831    0.00000    0.00250 -360.00665    0.00000    0.00000  211.99333  110.13400
  212.50000  119.85310 -999.25000  114.39594  254.82741    9.95857 1839.42163 1839.42163    9.44576    0.94576    0.00000    9.44576  522.40277    0.00000    0.00000    9.62500 1809.38098    0.26831    0.00000    0.00250 -359.50754    0.00000    0.00000  212.49246  110.39375
  213.00000  124.86852 -999.25000  119.51308  255.01253    9.98409 1844.60486 1844.60486    9.37839    0.87839    0.00000    9.37839  522.45789    0.00000    0.00000    9.62500 1809.14282    0.26831    0.00000    0.00250 -358.99881    0.00000    0.00000  213.00119  110.65351
  213.50000  123.75453 -999.25000  119.72828  254.29646    9.94296 1852.00269 1852.00269    9.11905    0.61905    0.00000    9.11905  522.51294    0.00000    0.00000    9.62500 1837.94995    0.26831    0.00000    0.00250 -358.49582    0.00000    0.00000  213.50417  110.91325
  214.00000  129.16997 -999.25000  124.96892  254.27205    9.98974 1825.91272 1825.91272    9.11879    0.61879    0.00000    9.11879  522.56805    0.00000    0.00000    9.62500 1784.75012    0.26831    0.00000    0.00250 -358.00583    0.00000    0.00000  213.99417  111.17300
  214.50000  128.20639 -999.25000  124.26256  254.11743    9.93655 1836.76697 1836.76697    9.07536    0.57536    0.00000    9.07536  522.62317    0.00000    0.00000    9.62500 1829.85718    0.26831    0.00000    0.00250 -357.50317    0.00000    0.00000  214.49683  111.43275
  215.00000  120.68219 -999.25000  116.74844  254.34122   10.00126 1871.40295 1871.40295    9.12057    0.62057    0.00000    9.12057  522.67834    0.00000    0.00000    9.62500 1836.35010    0.26831    0.00000    0.00250 -357.00208    0.00000    0.00000  214.99791  111.69250
  215.50000  112.56587 -999.25000  108.69255  254.61382    9.95492 1874.98779 1874.98779    9.16549    0.66549    0.00000    9.16549  522.73358    0.00000    0.00000    9.62500 1841.19055    0.26831    0.00000    0.00250 -356.50830    0.00000    0.00000  215.49167  111.95226
  216.00000  109.20285 -999.25000  105.69353  254.02792    9.96440 1825.86499 1825.86499    9.10921    0.60921    0.00000    9.10921  522.78876    0.00000    0.00000    9.62500 1798.50012    0.26831    0.00000    0.00250 -356.00998    0.00000    0.00000  215.99001  112.21200
  216.50000  109.14393 -999.25000  105.24523  254.65450    9.97437 1837.90125 1837.90125    9.19810    0.69810    0.00000    9.19810  522.84375    0.00000    0.00000    9.62500 1802.47620    0.26831    0.00000    0.00250 -355.50436    0.00000    0.00000  216.49564  112.47175
  217.00000  112.25687 -999.25000  108.13949  254.43073    9.96876 1856.87817 1856.87817    9.22198    0.72198    0.00000    9.22198  522.89893    0.00000    0.00000    9.62500 1840.50000    0.26831    0.00000    0.00250 -355.00247    0.00000    0.00000  216.99750  112.73150
  217.50000  112.11033 -999.25000  107.95379  254.78468    9.96415 1842.94446 1842.94446    9.23191    0.73191    0.00000    9.23191  522.95410    0.00000    0.00000    9.62500 1813.04773    0.26831    0.00000    0.00250 -354.50394    0.00000    0.00000  217.49603  112.99125
  218.00000  118.55209 -999.25000  114.47861  254.87827    9.97982 1838.13831 1838.13831    9.16427    0.66427    0.00000    9.16427  523.00928    0.00000    0.00000    9.62500 1822.55005    0.26831    0.00000    0.00250 -354.00623    0.00000    0.00000  217.99374  113.25100
  218.50000  121.03351 -999.25000  117.20678  255.23631    9.96567 1868.23718 1868.23718    9.09642    0.59642    0.00000    9.09642  523.06451    0.00000    0.00000    9.62500 1843.47620    0.26831    0.00000    0.00250 -353.50317    0.00000    0.00000  218.49683  113.51075
  219.00000  124.90940 -999.25000  121.07497  254.60974    9.96440 1851.56250 1851.56250    9.07379    0.57379    0.00000    9.07379  523.11981    0.00000    0.00000    9.62500 1831.75000    0.26831    0.00000    0.00250 -353.00375    0.00000    0.00000  218.99625  113.77050
