~Version ---------------------------------------------------
VERS.   2.0 : CWLS log ASCII Standard -VERSION 2.0
WRAP.    NO : One line per depth step
DLM . SPACE : Column Data Section Delimiter
~Well ------------------------------------------------------
STRT.ft              16.5 : START DEPTH
STOP.ft            1462.0 : STOP DEPTH
STEP.ft               0.5 : STEP
NULL.             -999.25 : NULL VALUE
COMP.                     : COMPANY
WELL.           Umiat #18 : WELL
FLD .       Linc_Umiat_18 : FIELD
LOC .                     : LOCATION
PROV.                     : PROVINCE
CNTY.                     : COUNTY
STAT.                     : STATE
CTRY.                     : COUNTRY
SRVC. TERRASCIENCES, Inc. : SERVICE COMPANY
DATE.                     : DATE
UWI .           Umiat #18 : UNIQUE WELL ID
API .           Umiat #18 : API NUMBER
~Curve Information -----------------------------------------
TDEP     .ft     : Measured Depth
QUAF2    .       : 
EHGR_EDTC.gAPI   : High Resolution Corrected Gamma Ray
HGR_EDTC .gAPI   : High Resolution Gamma Ray
HCAL     .in     : HRCC Caliper Calibrated
NPHI     .%/100  : Thermal Neutron Porosity (original Ratio Method) in Selected
GR       .gAPI   : Gamma Ray
AF10     .ohm.m  : Array Induction Four Foot Resistivity A10
AF20     .ohm.m  : Array Induction Four Foot Resistivity A20
AF30     .ohm.m  : Array Induction Four Foot Resistivity A30
AF60     .ohm.m  : Array Induction Four Foot Resistivity A60
AF90     .ohm.m  : Array Induction Four Foot Resistivity A90
AO10     .ohm.m  : Array Induction One Foot Resistivity A10
AO30     .ohm.m  : Array Induction One Foot Resistivity A30
AO60     .ohm.m  : Array Induction One Foot Resistivity A60
AO90     .ohm.m  : Array Induction One Foot Resistivity A90
AT10     .ohm.m  : Array Induction Two Foot Resistivity A10
AT20     .ohm.m  : Array Induction Two Foot Resistivity A20
AT30     .ohm.m  : Array Induction Two Foot Resistivity A30
AT60     .ohm.m  : Array Induction Two Foot Resistivity A60
AT90     .ohm.m  : Array Induction Two Foot Resistivity A90
HMIN     .ohm.m  : HIP Micro Inverse Resistivity
HMNO     .ohm.m  : HIP Micro Normal Resistivity
RXOZ     .ohm.m  : Invaded Formation Resistivity filtered at 18 inches
DPHZ     .%/100  : Standard Resolution Density Porosity
~Params ----------------------------------------------------
PROD   .            TerraStation II : 
PROG   .                         [] : 
RUN    .                         [] : 
DESCENT.                         [] : 
VERSION.                            : 
LINEAGE. Python-converted from DLIS : 
ORFILE .          DynamicImage.dlis : 
~Other -----------------------------------------------------
~ASCII -----------------------------------------------------
# ...
  335.50000 -999.25000  116.61249  113.35685    9.15220    0.42870  103.33810   22.36790   24.90970   28.83180   28.96580   29.80640   19.52320   23.23780   22.29610   22.90920   19.56750   22.00840   24.45870   24.31340   24.83810 1541.39600 1405.57800  841.17859    0.09680
  336.00000   12.00000  118.87756  115.39378    9.17610    0.46190  105.17260   23.89740   27.01680   31.44300   31.48660   32.21410   19.29640   23.74930   22.10310   22.65590   19.26490   23.23900   26.07550   25.96360   26.21510  166.60840  169.44569   97.47610    0.09860
  336.50000 -999.25000  100.67990   97.53735    9.21200    0.40010  101.56190   27.72260   31.62210   37.27520   37.26010   37.91410   20.52710   24.90690   23.36470   23.90600   24.24380   27.52860   30.97470   30.89680   30.54150   31.37060   29.31540   77.65500    0.07170
  337.00000 -999.25000   83.72419   81.14913    9.24790    0.29320   90.14800   34.23800   39.34250   47.48000   47.44070   47.75520   42.80910   52.03250   45.58840   46.93130   38.81540   44.18770   49.47770   48.98960   46.63200   36.36220   35.25260   83.88240    0.03020
  337.50000 -999.25000   67.42152   65.31707    9.24790    0.20570   69.96920   43.52410   51.66800   64.70410   64.66560   63.35580   94.18150   81.30290   69.68990   73.04080   67.40720   79.95350   81.34540   78.71920   73.88880   74.21590  104.04680 1292.85034   -0.01200
  338.00000   11.00000   68.45930   66.41679    9.24790    0.18220   59.72020   54.13590   66.02560   87.10220   87.48930   84.24260   92.45790  179.11670  153.70670  161.59210   84.76560  115.97600  120.25050  118.24690  119.61800  622.78967  559.02759 1384.41602   -0.03350
  338.50000 -999.25000   61.48837   59.46024    9.27180    0.18880   58.78850   64.03830   79.25980  109.15130  109.90320  105.29900   81.75140  203.65750  162.02080  187.08000   76.86080  102.61290  153.57620  154.91650  106.77900 2181.08862 1965.24805  380.91071   -0.03160
  339.00000 -999.25000   68.76431   66.71716    9.23590    0.21460   63.88390   68.58100   85.04680  121.15700  120.99360  116.15750   81.82830  232.99229  211.53850  247.50909   76.10670  100.35500  160.47310  170.44881  120.70900  200.83099  178.46330  449.04501   -0.01540
  339.50000 -999.25000   73.67599   71.48225    9.24790    0.22430   69.38720   65.79250   80.31260  115.67810  116.53760  112.79120   68.45010  185.11940  182.45779  215.67050   68.62960   90.53670  145.67770  146.54350  121.04500  264.29269  259.28711  390.62161    0.01120
  340.00000   17.00000   84.66809   82.45613    9.17610    0.23120   77.77320   59.02120   69.77650   98.54660  100.52130   97.51220   58.36560  136.04919  145.84689  167.56020   61.70330   76.51290  118.01110  119.46120  104.08850  290.85129  282.01559 1376.08118    0.02580
  340.50000 -999.25000   84.88146   82.74321    9.12820    0.23670   80.42290   49.42020   57.61510   78.23330   79.99800   78.54330   60.86430  125.53580  137.58369  152.65410   57.58880   68.95550   95.97390   96.53570   91.00040  971.75049  871.97198 1561.15662    0.02690
  341.00000 -999.25000   92.81636   90.52141    9.12820    0.24860   84.29550   39.99880   46.08730   59.91610   61.20180   60.96610   50.30530   82.88430   93.26760  100.97530   46.25260   55.59060   74.18450   70.56480   70.57040 2319.64502 2092.02661 3489.41626    0.02140
  341.50000 -999.25000  101.10429   98.70653    9.12820    0.27210   87.43980   32.00450   36.30670   45.31410   46.46700   46.18210   42.08210   58.20130   66.07960   69.67430   36.74710   44.25580   55.50270   55.35730   54.45850  103.55140  133.13560  397.56000    0.01470
  342.00000   18.00000  104.93773  102.54844    9.12820    0.29800   96.20480   26.04020   29.18370   35.20530   36.36750   36.82010   35.82700   39.03200   41.20920   42.60990   28.69630   33.95700   39.67080   39.52750   38.32330   88.26470   78.21970  206.43781    0.01890
  342.50000 -999.25000  110.47763  107.85817    9.12820    0.37860   98.70860   22.26200   24.54950   28.88380   29.98610   30.04900   21.54770   25.92570   26.66960   27.31700   19.57650   21.68860   24.58710   25.96210   25.58950  105.98390   95.96310  206.83110    0.03650
  343.00000 -999.25000  127.01601  123.22578    9.20000    0.41400  100.33930   20.49930   22.62510   26.32000   27.08760   27.16130   10.98250   11.41890   11.84450   12.06380   14.40480   15.30290   16.74610   17.30930   16.83020 1930.99744 1750.35803  593.05377    0.05710
  343.50000 -999.25000  107.92955  104.65941    9.25990    0.37850   96.46630   20.65150   23.13790   26.92840   27.76630   27.77640   16.82880   18.75280   18.37170   18.72100   16.48290   18.24530   20.54840   21.13000   20.58790  145.46040  129.13080  241.16750    0.06340
  344.00000   18.00000   96.64282   93.85509    9.22400    0.30070   96.00040   22.61080   25.54160   29.91750   30.90760   30.81830   30.56160   33.11620   31.50360   32.23910   24.19240   28.41410   33.87820   34.59220   33.45070  105.16240   93.24790  239.91640    0.05470
  344.50000 -999.25000  103.26178  100.18764    9.29580    0.26870  100.28140   25.10080   28.60350   33.82800   34.98890   34.95970   38.22130   45.59420   47.58900   49.31470   32.95340   39.41840   44.06920   44.80610   42.99010  360.77130  332.60800  324.20551    0.04260
  345.00000 -999.25000  108.26686  104.94389    9.29580    0.27170   99.05820   27.45530   31.76710   37.92960   39.33770   39.06760   31.73120   45.81040   49.37860   51.80080   33.16280   38.29050   43.24900   44.55820   43.14060  557.55231  498.13708 1195.87793    0.03660
  345.50000 -999.25000  102.90025  100.11611    9.22400    0.30870  100.22320   28.74750   33.16350   40.11410   41.86440   41.31660   29.64510   43.57680   51.44890   54.22570   29.94130   34.88710   42.77430   44.22820   42.20060 1304.06970 1196.39771   91.75710    0.03540
  346.00000   18.00000   94.96035   92.83579    9.12820    0.31620   87.99320   28.55090   32.91200   40.28120   42.40490   41.77580   28.21230   42.24740   47.26090   49.82490   28.31380   33.16660   40.69960   42.55020   41.31910   33.07640   29.22650   76.36190    0.04020
  346.50000 -999.25000  111.55474  109.05892    9.12820    0.33120   93.49650   27.56450   31.97790   39.54780   41.81910   41.30200   27.44540   40.21280   43.66230   45.88810   27.32610   32.30030   40.04230   41.96100   41.32210   61.39610   54.34080   73.46620    0.04750
  347.00000 -999.25000  106.80411  104.27175    9.12820    0.32000   87.64390   26.42870   30.74510   38.18560   40.75010   40.26590   27.04080   39.12650   40.19970   42.07410   26.45440   31.25090   38.88040   41.05140   40.64480  378.90109  337.38831  238.45450    0.05850
  347.50000 -999.25000  102.19725   99.91137    9.12820    0.32190   92.33160   25.31430   29.51600   36.57700   39.22700   38.78030   26.06040   38.45000   39.94640   41.76990   25.57060   30.12060   37.31760   40.83580   39.55130   46.72350   41.32090   96.26390    0.06310
  348.00000    9.00000  111.95036  109.39264    9.15220    0.32580   88.60450   24.28330   28.33780   34.92100   37.56250   37.22170   22.91600   31.91650   35.41500   36.97560   24.17570   28.38320   34.50370   37.64580   36.34690   52.21750   48.47380  101.99050    0.06680
  348.50000 -999.25000  110.64606  107.85876    9.15220    0.35050   95.12690   23.37660   27.14600   33.22880   35.79080   35.56130   21.80350   31.78730   34.37830   35.85600   23.33150   27.46400   32.99850   36.04460   35.17160   73.52980  103.53850  190.13550    0.05810
  349.00000 -999.25000  100.55750   97.79708    9.17610    0.37380   90.03140   22.48610   26.07690   31.64090   34.00770   33.92760   23.97610   32.58780   34.61200   36.07850   22.84270   26.64210   32.09710   34.66390   34.06270  299.18100  270.45499  603.02417    0.04810
  349.50000 -999.25000  104.69704  101.53159    9.27180    0.40790   92.12800   21.60700   25.08610   30.15760   32.31980   32.35610   22.25150   31.42500   33.36730   34.73300   21.81430   25.63160   30.86270   32.70430   31.69990  276.12500  245.62440  621.71039    0.04080
