~Version ---------------------------------------------------
VERS.   2.0 : CWLS log ASCII Standard -VERSION 2.0
WRAP.    NO : One line per depth step
DLM . SPACE : Column Data Section Delimiter
~Well ------------------------------------------------------
STRT.ft              16.5 : START DEPTH
STOP.ft            1462.0 : STOP DEPTH
STEP.ft               0.5 : STEP
NULL.             -999.25 : NULL VALUE
COMP.                     : COMPANY
WELL.           Umiat #18 : WELL
FLD .       Linc_Umiat_18 : FIELD
LOC .                     : LOCATION
PROV.                     : PROVINCE
CNTY.                     : COUNTY
STAT.                     : STATE
CTRY.                     : COUNTRY
SRVC. TERRASCIENCES, Inc. : SERVICE COMPANY
DATE.                     : DATE
UWI .           Umiat #18 : UNIQUE WELL ID
API .           Umiat #18 : API NUMBER
~Curve Information -----------------------------------------
TDEP     .ft     : Measured Depth
QUAF2    .       : 
EHGR_EDTC.gAPI   : High Resolution Corrected Gamma Ray
HGR_EDTC .gAPI   : High Resolution Gamma Ray
HCAL     .in     : HRCC Caliper Calibrated
NPHI     .%/100  : Thermal Neutron Porosity (original Ratio Method) in Selected
GR       .gAPI   : Gamma Ray
AF10     .ohm.m  : Array Induction Four Foot Resistivity A10
AF20     .ohm.m  : Array Induction Four Foot Resistivity A20
AF30     .ohm.m  : Array Induction Four Foot Resistivity A30
AF60     .ohm.m  : Array Induction Four Foot Resistivity A60
AF90     .ohm.m  : Array Induction Four Foot Resistivity A90
AO10     .ohm.m  : Array Induction One Foot Resistivity A10
AO30     .ohm.m  : Array Induction One Foot Resistivity A30
AO60     .ohm.m  : Array Induction One Foot Resistivity A60
AO90     .ohm.m  : Array Induction One Foot Resistivity A90
AT10     .ohm.m  : Array Induction Two Foot Resistivity A10
AT20     .ohm.m  : Array Induction Two Foot Resistivity A20
AT30     .ohm.m  : Array Induction Two Foot Resistivity A30
AT60     .ohm.m  : Array Induction Two Foot Resistivity A60
AT90     .ohm.m  : Array Induction Two Foot Resistivity A90
HMIN     .ohm.m  : HIP Micro Inverse Resistivity
HMNO     .ohm.m  : HIP Micro Normal Resistivity
RXOZ     .ohm.m  : Invaded Formation Resistivity filtered at 18 inches
DPHZ     .%/100  : Standard Resolution Density Porosity
~Params ----------------------------------------------------
PROD   .            TerraStation II : 
PROG   .                         [] : 
RUN    .                         [] : 
DESCENT.                         [] : 
VERSION.                            : 
LINEAGE. Python-converted from DLIS : 
ORFILE .          DynamicImage.dlis : 
~Other -----------------------------------------------------
~ASCII -----------------------------------------------------
# ...
  422.50000 -999.25000   65.29823   63.40889    9.18810    0.23540   65.51420   93.26730  109.55160  235.45200  213.06889  255.12070   90.78330  215.09470  178.55180  237.53290   92.89580  112.90320  249.23390  215.32069  227.38451   71.93780  101.30630 2399.13770    0.03460
  423.00000 -999.25000   74.33459   72.32167    9.15220    0.23290   64.00020   91.79040  108.07390  223.50900  203.09210  246.09140   95.51770  222.71510  187.89870  249.21400   94.34910  115.60400  239.41431  204.04010  217.88789  159.27811  177.41910 2864.11865    0.03750
  423.50000 -999.25000   73.42087   71.43744    9.12820    0.21750   64.00030   88.56840  103.84450  204.97681  193.26900  225.66830   95.71070  212.99210  192.38840  251.52420   92.69590  113.65830  223.51920  204.80431  221.84821  707.06348  660.11823 2465.74927    0.03490
  424.00000   16.00000   70.39587   68.52708    9.12820    0.22050   65.83490   84.26000   97.93640  183.92770  178.23151  202.12930   94.72520  191.37260  165.86920  213.56320   88.10010  107.94620  198.12100  192.61330  201.67740 1362.88074 1231.89758 2622.42041    0.02800
  424.50000 -999.25000   71.79054   69.94675    9.12820    0.23090   67.11590   79.34430   91.46730  164.11900  163.14720  180.61310   89.19710  164.43359  142.17360  175.81200   83.28100   98.73400  166.06970  163.26910  169.55009  663.76648  592.47998 1197.41650    0.02800
  425.00000 -999.25000   70.87498   69.15434    9.12820    0.24460   70.78470   74.97400   85.38910  147.89380  149.07210  160.02879   74.55760  126.77270  107.97120  127.85590   71.07700   84.56520  140.57001  145.52130  147.93190  383.70679  357.39249 1145.89331    0.03210
  425.50000 -999.25000   70.57986   68.80500    9.10430    0.24880   71.19240   72.20070   81.83630  139.02940  138.56329  148.85760   53.29160   92.63170   79.89870   90.35210   63.29860   71.80990  111.28390  111.52030  112.57650  211.50220  221.08760 1457.70154    0.03290
  426.00000   11.00000   75.54941   73.61436    9.10430    0.23040   70.31910   72.58010   82.04910  139.16110  137.84911  146.74200   56.99840   86.04080   74.81210   83.85150   63.03260   70.99150  111.36300  111.41970  112.46120  884.47382  808.07593 1237.28601    0.02000
  426.50000 -999.25000   71.34485   69.51749    9.11630    0.22640   64.40820   75.96170   85.64820  146.93280  144.53050  153.11980   79.58720  129.38940  108.63210  128.35001   75.42540   85.90310  138.43089  135.70200  137.47659  757.46912  676.40118 1453.14502    0.01500
  427.00000 -999.25000   64.98425   63.04396    9.17610    0.20450   65.22330   79.51450   90.74400  158.38530  154.38890  163.88480   97.18320  179.23820  161.33810  197.61250   89.29330  107.20190  178.36740  172.71581  175.59560  653.65833  591.44470  483.66461    0.01480
  427.50000 -999.25000   68.39156   66.53957    9.15220    0.20670   66.79560   83.79770   96.00740  170.73720  165.01390  175.03970   97.45170  223.93840  212.02229  273.95099   95.50250  114.96680  187.33839  178.50630  180.12820  223.58681  198.76080  505.14481    0.02540
  428.00000 -999.25000   80.62551   78.52292    9.12820    0.20850   71.27960   85.94340   98.69780  179.47211  172.97350  181.42950   86.05430  188.67661  178.87511  239.12430   91.09160  106.86510  191.66360  182.88870  186.37849  529.53571  472.86401  533.22339    0.02460
  428.50000 -999.25000   79.44748   76.93394    9.12820    0.22680   72.29870   85.56050   99.00220  184.17610  176.15810  184.02580   85.47790  183.93860  166.25929  217.24750   85.06480  101.64050  188.65300  179.32310  180.32220  857.78247  800.99847 1115.34277    0.02020
  429.00000 -999.25000   84.51680   82.11035    9.17610    0.22760   72.76450   84.23730   98.15630  185.37880  178.32809  185.17480   86.25830  182.72830  155.31490  196.75290   82.61240  100.01660  184.29330  176.98820  175.72031  582.44843  519.65100 1084.72937    0.02130
  429.50000 -999.25000   76.42342   74.21217    9.18810    0.23450   71.33820   83.61640   97.52790  186.62640  180.93420  185.89560   78.82400  161.75751  135.90700  167.70860   80.09170   96.21110  178.44710  173.96500  167.98180  420.27710  374.40771  464.35019    0.03030
  430.00000   12.00000   80.82359   78.45283    9.20000    0.23020   68.48500   83.65250   97.75800  188.69321  184.00040  186.56059   80.00280  173.21700  141.29210  175.55690   82.64390   99.24250  189.39861  190.29610  173.28200  284.18039  252.81660  629.70508    0.03810
  430.50000 -999.25000   77.87341   75.19168    9.31970    0.24140   64.61220   83.83920   98.50530  191.19569  185.99780  187.04900   86.28830  190.25290  150.54739  187.49120   84.76200  103.26120  193.39059  193.55740  174.42461   72.43090  101.69740  797.00598    0.03600
  431.00000 -999.25000   66.61797   64.26703    9.34360    0.24480   63.59290   84.34570   99.28170  193.27251  186.39380  187.01350   86.95410  186.54570  148.66580  185.88831   85.86100  103.70160  199.91229  198.80360  174.47110  171.71170  191.02271 3439.83252    0.02690
  431.50000 -999.25000   71.29636   68.71180    9.31970    0.24730   64.99040   84.29460   99.50040  192.74319  184.29280  185.44000   85.36460  195.24730  158.19940  198.99530   85.30270  100.77130  195.88361  196.56059  171.80290 1082.73535  996.09039  448.79971    0.02200
  432.00000   18.00000   86.36835   83.59098    9.29580    0.23840   68.25170   83.62010   98.54620  187.64909  178.54190  181.45270   86.40830  184.31779  154.11180  194.84030   86.09140  103.71540  199.84731  189.72459  165.73061  179.34010  159.31320  402.75659    0.01740
  432.50000 -999.25000   75.08718   72.88468    9.24790    0.23610   70.49380   81.53090   95.87980  177.61031  167.93179  173.30580   89.17960  196.86400  172.03931  218.95779   87.83760  106.65300  199.90810  179.92270  173.00780  320.58600  285.37360  396.47250    0.02170
  433.00000 -999.25000   76.79965   74.68934    9.18810    0.23690   70.31880   77.36950   91.52760  164.17110  154.04480  161.73380   90.86610  181.13600  158.88969  196.26151   83.84640  102.85640  176.95680  165.18440  155.77480  615.80621  575.79962 2076.28174    0.02380
  433.50000 -999.25000   75.65283   73.67966    9.15220    0.24920   72.56110   72.67860   85.91040  149.31129  139.68420  148.31760   75.30740  152.29700  123.20670  146.90050   74.22320   90.53260  151.85381  141.00240  137.45081 1163.86047 1054.48120 2669.35547    0.01220
  434.00000   17.00000   90.11752   87.93585    9.12820    0.26350   65.51480   68.62990   80.72200  135.40829  129.70461  137.74110   62.42720  114.78100  100.39560  115.91150   63.37480   78.36960  127.58930  120.38090  118.34970  167.37950  154.82899  328.70010   -0.00050
  434.50000 -999.25000   76.56407   74.74112    9.06840    0.27280   68.57180   65.51270   76.51200  124.34970  120.29390  128.17720   52.33390   94.73420   82.98470   93.89970   58.97090   73.08140  116.74300  111.95600  110.85510  144.24390  128.04710  326.84460   -0.01110
  435.00000 -999.25000   77.23843   75.47207    9.05640    0.26720   67.14530   63.16830   72.80990  115.14760  112.95010  119.17640   62.73010  113.19400   95.95270  109.94530   62.32970   74.19020  117.28170  113.71260  112.97850   71.36380   99.42210  391.89481   -0.00160
  435.50000 -999.25000   84.35101   82.34872    9.08040    0.23550   74.80280   61.15970   69.79800  107.05490  105.95390  110.49580   69.34070  123.05390  117.04010  135.32069   67.52330   78.39230  117.81720  114.56920  114.58410  378.81570  370.76190 2852.42676    0.00950
  436.00000   18.00000   77.68860   75.80782    9.10430    0.23270   72.61930   58.34380   65.54330   97.55410   97.48950  101.29790   76.06940  119.45440  116.70740  133.71410   67.70250   73.15730  104.72480  104.13410  103.84280 1912.22705 1728.59521  466.74060    0.01960
  436.50000 -999.25000   68.75716   66.99607    9.12820    0.24560   74.04600   54.29510   61.23260   88.55860   89.08700   92.01550   57.00520   91.54110   92.26640  104.06050   56.39060   62.29050   90.15870   90.41940   90.99520  127.15890  112.82660  241.60260    0.02330
