~Version ---------------------------------------------------
VERS.   2.0 : CWLS log ASCII Standard -VERSION 2.0
WRAP.    NO : One line per depth step
DLM . SPACE : Column Data Section Delimiter
~Well ------------------------------------------------------
STRT.ft              16.5 : START DEPTH
STOP.ft            1462.0 : STOP DEPTH
STEP.ft               0.5 : STEP
NULL.             -999.25 : NULL VALUE
COMP.                     : COMPANY
WELL.           Umiat #18 : WELL
FLD .       Linc_Umiat_18 : FIELD
LOC .                     : LOCATION
PROV.                     : PROVINCE
CNTY.                     : COUNTY
STAT.                     : STATE
CTRY.                     : COUNTRY
SRVC. TERRASCIENCES, Inc. : SERVICE COMPANY
DATE.                     : DATE
UWI .           Umiat #18 : UNIQUE WELL ID
API .           Umiat #18 : API NUMBER
~Curve Information -----------------------------------------
TDEP     .ft     : Measured Depth
ECGR_EDTC.gAPI   : Environmentally Corrected Gamma Ray
GDEV_EDTC.deg    : EDTC Hole Deviation from Gravity
GR_EDTC  .gAPI   : Gamma Ray
HV       .V      : Head Voltage
RAZ_EDTC .       : EDTC Raw Z-Axis Acceleration Data
CDF      .lbf    : Calibrated Downhole Force
DF       .lbf    : Uncalibrated Downhole Force
HDAR     .in     : Hole Diameter from Area
DCAL     .in     : Differential Caliper
AZIM     .deg    : Measured Azimuth
GHD      .in     : Borehole Diameter
BHRM     .ohm.m  : Borehole Mud Resistivity
ED       .ft     : East Departure
DLS      .       : Dog Leg Severity
FCD      .in     : Future Casing Diameter
TENS     .lbf    : Cable Tension
ICV      .cuft   : Integrated Cement Volume
ND       .ft     : North Departure
FF       .       : Formation Factor
TVDSS    .ft     : Sub-sea TVD: True Vertical Depth measured from Mean Sea Leve
TDSP     .ft     : Total Displacement (of survey measure point from vertical)
INCL     .deg    : Hole inclination
X        .ft     : Depth Index
BHPR     .psi    : Borehole Pressure
~Params ----------------------------------------------------
PROD   .            TerraStation II : 
PROG   .                         [] : 
RUN    .                         [] : 
DESCENT.                         [] : 
VERSION.                            : 
LINEAGE. Python-converted from DLIS : 
ORFILE .          DynamicImage.dlis : 
~Other -----------------------------------------------------
~ASCII -----------------------------------------------------
# ...
 1350.50000   69.80082    3.49586   68.87418  258.22369    9.82654 1834.80676 1834.80676    8.65497    0.15497    0.00000    8.65497  687.32428    0.00000    0.00000    9.62500 2251.69995    0.06186    0.00000    0.00250  778.48212    0.00000    0.00000 1350.48206  701.58478
 1351.00000   66.68719    3.64175   65.73737  258.41388   10.05013 1919.90308 1919.90308    8.67775    0.17775    0.00000    8.67775  687.41962    0.00000    0.00000    9.62500 2321.39990    0.06186    0.00000    0.00250  778.98749    0.00000    0.00000 1350.98755  701.84448
 1351.50000   64.81561    3.54608   63.95560  259.26422    9.93231 1882.38940 1882.38940    8.65481    0.15481    0.00000    8.65481  687.51501    0.00000    0.00000    9.62500 2298.15015    0.06186    0.00000    0.00250  779.49292    0.00000    0.00000 1351.49292  702.10425
 1352.00000   66.02446    3.43216   65.11858  259.25751    9.89894 1875.60034 1875.60034    8.66544    0.16544    0.00000    8.66544  687.61041    0.00000    0.00000    9.62500 2277.90015    0.06186    0.00000    0.00250  779.99585    0.00000    0.00000 1351.99585  702.36401
 1352.50000   66.84320    3.74831   65.92369  258.75769    9.95178 1894.89587 1894.89587    8.66628    0.16628    0.00000    8.66628  687.70581    0.00000    0.00000    9.62500 2305.40015    0.06186    0.00000    0.00250  780.49127    0.00000    0.00000 1352.49121  702.62378
 1353.00000   68.34737    3.51847   67.24771  259.26422    9.97172 1886.72327 1886.72327    8.72136    0.22136    0.00000    8.72136  687.80127    0.00000    0.00000    9.62500 2285.14307    0.06186    0.00000    0.00250  780.99567    0.00000    0.00000 1352.99561  702.88348
 1353.50000   70.69824    3.41736   68.62259  259.12997    9.95988 1888.56836 1888.56836    9.04095    0.54095    0.00000    9.04095  687.89673    0.00000    0.00000    9.62500 2308.00024    0.06186    0.00000    0.00250  781.50415    0.00000    0.00000 1353.50415  703.14325
 1354.00000   70.10062    3.76296   68.83828  258.63766    9.89739 1882.16943 1882.16943    8.76689    0.26689    0.00000    8.76689  687.99225    0.00000    0.00000    9.62500 2311.00000    0.06186    0.00000    0.00250  782.00165    0.00000    0.00000 1354.00171  703.40302
 1354.50000   67.97666    3.57440   66.55878  259.35150    9.96672 1892.66431 1892.66431    8.83497    0.33497    0.00000    8.83497  688.08777    0.00000    0.00000    9.62500 2305.15015    0.06186    0.00000    0.00250  782.49585    0.00000    0.00000 1354.49585  703.66272
 1355.00000   69.51576    3.54426   68.12699  258.92859   10.00804 1903.49243 1903.49243    8.81389    0.31389    0.00000    8.81389  688.18335    0.00000    0.00000    9.62500 2333.71436    0.06186    0.00000    0.00250  783.00317    0.00000    0.00000 1355.00317  703.92249
 1355.50000   73.06264    3.62493   71.12639  258.59293    9.83162 1866.15503 1866.15503    8.97119    0.47119    0.00000    8.97119  688.27899    0.00000    0.00000    9.62500 2279.65015    0.06186    0.00000    0.00250  783.50415    0.00000    0.00000 1355.50415  704.18225
 1356.00000   81.78500    3.55011   79.95670  258.59293    9.97909 1902.56836 1902.56836    8.87090    0.37090    0.00000    8.87090  688.37457    0.00000    0.00000    9.62500 2300.25000    0.06186    0.00000    0.00250  784.00208    0.00000    0.00000 1356.00208  704.44202
 1356.50000   83.79575    3.57396   82.64248  258.95096    9.99898 1885.82605 1885.82605    8.66644    0.16644    0.00000    8.66644  688.47028    0.00000    0.00000    9.62500 2301.00000    0.06186    0.00000    0.00250  784.49628    0.00000    0.00000 1356.49622  704.70178
 1357.00000   90.51009    3.64685   86.82384  258.45865    9.91912 1880.73730 1880.73730    9.32367    0.82367    0.00000    9.32367  688.56586    0.00000    0.00000    9.62500 2319.30005    0.06186    0.00000    0.00250  784.99585    0.00000    0.00000 1356.99585  704.96155
 1357.50000   88.99140    3.56266   87.08668  259.21948    9.90751 1879.59644 1879.59644    8.84804    0.34804    0.00000    8.84804  688.66156    0.00000    0.00000    9.62500 2286.40015    0.06186    0.00000    0.00250  785.48962    0.00000    0.00000 1357.48962  705.22131
 1358.00000   93.38059    3.58627   91.96875  258.92859    9.97643 1902.15125 1902.15125    8.69842    0.19842    0.00000    8.69842  688.75726    0.00000    0.00000    9.62500 2334.38086    0.06186    0.00000    0.00250  785.99847    0.00000    0.00000 1357.99841  705.48108
 1358.50000   93.09776    3.59902   92.27066  258.17670    9.93842 1888.02502 1888.02502    8.55230    0.05230    0.00000    8.55230  688.85303    0.00000    0.00000    9.62500 2311.25000    0.06186    0.00000    0.00250  786.50415    0.00000    0.00000 1358.50415  705.74072
 1359.00000   94.02419    3.63836   89.74422  258.27963    9.95787 1915.90808 1915.90808    9.44546    0.94546    0.00000    9.44546  688.94879    0.00000    0.00000    9.62500 2371.00000    0.06186    0.00000    0.00250  787.00421    0.00000    0.00000 1359.00415  706.00049
 1359.50000   94.07030    3.52775   85.67596  258.23486    9.94712 1917.55005 1917.55005   10.63610    2.13610    0.00000   10.63610  689.04462    0.00000    0.00000    9.62500 2334.00000    0.06186    0.00000    0.00250  787.50336    0.00000    0.00000 1359.50330  706.26025
 1360.00000   91.29550    3.52315   86.11007  257.87683    9.91262 1885.36902 1885.36902    9.73847    1.23847    0.00000    9.73847  689.14044    0.00000    0.00000    9.62500 2307.20020    0.00599    0.00000    0.00250  787.99585    0.00000    0.00000 1359.99585  706.52002
 1360.50000   91.62507    3.62477   90.23977  258.68243    9.98787 1897.20203 1897.20203    8.69842    0.19842    0.00000    8.69842  689.23633    0.00000    0.00000    9.62500 2317.00000    0.00000    0.00000    0.00250  788.49249    0.00000    0.00000 1360.49255  706.77972
 1361.00000   91.15083    3.71483   89.85384  258.50342    9.92657 1875.61816 1875.61816    8.67742    0.17742    0.00000    8.67742  689.33215    0.00000    0.00000    9.62500 2308.50000    0.00000    0.00000    0.00250  788.98956    0.00000    0.00000 1360.98962  707.03949
 1361.50000   91.28532    3.46131   88.78241  258.10062    9.95239 1905.73401 1905.73401    8.99352    0.49352    0.00000    8.99352  689.42810    0.00000    0.00000    9.62500 2326.80957    0.00000    0.00000    0.00250  789.49963    0.00000    0.00000 1361.49963  707.29926
 1362.00000   94.10932    3.58610   91.92368  259.17471    9.95713 1904.58289 1904.58289    8.89185    0.39185    0.00000    8.89185  689.52405    0.00000    0.00000    9.62500 2315.05005    0.00000    0.00000    0.00250  790.00586    0.00000    0.00000 1362.00586  707.55902
 1362.50000   98.31805    3.63949   97.01351  258.54816    9.93589 1905.29382 1905.29382    8.65481    0.15481    0.00000    8.65481  689.62000    0.00000    0.00000    9.62500 2326.19995    0.00000    0.00000    0.00250  790.49792    0.00000    0.00000 1362.49792  707.81873
 1363.00000   99.82400    3.53391   98.65379  258.23486    9.92523 1902.97461 1902.97461    8.61854    0.11854    0.00000    8.61854  689.71594    0.00000    0.00000    9.62500 2306.69995    0.00000    0.00000    0.00250  790.99084    0.00000    0.00000 1362.99084  708.07849
 1363.50000   98.12389    3.62607   96.54581  258.72717    9.95887 1889.56726 1889.56726    8.72120    0.22120    0.00000    8.72120  689.81201    0.00000    0.00000    9.62500 2301.10010    0.00000    0.00000    0.00250  791.49579    0.00000    0.00000 1363.49585  708.33826
 1364.00000   96.14462    3.70385   94.49712  258.36465    9.97478 1906.75989 1906.75989    8.74617    0.24617    0.00000    8.74617  689.90802    0.00000    0.00000    9.62500 2336.00000    0.00000    0.00000    0.00250  791.99585    0.00000    0.00000 1363.99585  708.59802
 1364.50000   97.96244    3.61075   96.57666  257.69781    9.86689 1856.16711 1856.16711    8.67546    0.17546    0.00000    8.67546  690.00415    0.00000    0.00000    9.62500 2282.19995    0.00000    0.00000    0.00250  792.49915    0.00000    0.00000 1364.49915  708.85773
