~Version ---------------------------------------------------
VERS.   2.0 : CWLS log ASCII Standard -VERSION 2.0
WRAP.    NO : One line per depth step
DLM . SPACE : Column Data Section Delimiter
~Well ------------------------------------------------------
STRT.ft              16.5 : START DEPTH
STOP.ft            1462.0 : STOP DEPTH
STEP.ft               0.5 : STEP
NULL.             -999.25 : NULL VALUE
COMP.                     : COMPANY
WELL.           Umiat #18 : WELL
FLD .       Linc_Umiat_18 : FIELD
LOC .                     : LOCATION
PROV.                     : PROVINCE
CNTY.                     : COUNTY
STAT.                     : STATE
CTRY.                     : COUNTRY
SRVC. TERRASCIENCES, Inc. : SERVICE COMPANY
DATE.                     : DATE
UWI .           Umiat #18 : UNIQUE WELL ID
API .           Umiat #18 : API NUMBER
~Curve Information -----------------------------------------
TDEP     .ft     : Measured Depth
QUAF2    .       : 
EHGR_EDTC.gAPI   : High Resolution Corrected Gamma Ray
HGR_EDTC .gAPI   : High Resolution Gamma Ray
HCAL     .in     : HRCC Caliper Calibrated
NPHI     .%/100  : Thermal Neutron Porosity (original Ratio Method) in Selected
GR       .gAPI   : Gamma Ray
AF10     .ohm.m  : Array Induction Four Foot Resistivity A10
AF20     .ohm.m  : Array Induction Four Foot Resistivity A20
AF30     .ohm.m  : Array Induction Four Foot Resistivity A30
AF60     .ohm.m  : Array Induction Four Foot Resistivity A60
AF90     .ohm.m  : Array Induction Four Foot Resistivity A90
AO10     .ohm.m  : Array Induction One Foot Resistivity A10
AO30     .ohm.m  : Array Induction One Foot Resistivity A30
AO60     .ohm.m  : Array Induction One Foot Resistivity A60
AO90     .ohm.m  : Array Induction One Foot Resistivity A90
AT10     .ohm.m  : Array Induction Two Foot Resistivity A10
AT20     .ohm.m  : Array Induction Two Foot Resistivity A20
AT30     .ohm.m  : Array Induction Two Foot Resistivity A30
AT60     .ohm.m  : Array Induction Two Foot Resistivity A60
AT90     .ohm.m  : Array Induction Two Foot Resistivity A90
HMIN     .ohm.m  : HIP Micro Inverse Resistivity
HMNO     .ohm.m  : HIP Micro Normal Resistivity
RXOZ     .ohm.m  : Invaded Formation Resistivity filtered at 18 inches
DPHZ     .%/100  : Standard Resolution Density Porosity
~Params ----------------------------------------------------
PROD   .            TerraStation II : 
PROG   .                         [] : 
RUN    .                         [] : 
DESCENT.                         [] : 
VERSION.                            : 
LINEAGE. Python-converted from DLIS : 
ORFILE .          DynamicImage.dlis : 
~Other -----------------------------------------------------
~ASCII -----------------------------------------------------
# ...
  147.00000 -999.25000   76.72630   71.85375   10.09750    0.27910   57.07030   29.92480   36.85770   59.10110   84.70510   88.62380   27.40970   53.18210   69.05680   76.71680   28.83960   35.33570   57.72830   76.71660   90.86590  834.77283  762.91058 1421.03003    0.16320
  147.50000 -999.25000  101.43708   94.04275   10.15730    0.35680   80.51010   25.22090   30.30730   44.49680   63.30040   67.32410   18.44280   29.94090   45.29390   50.98350   22.00410   25.62500   36.51430   53.84360   65.06690 1371.69360 1252.78882 3374.92944    0.15510
  148.00000   14.00000  114.36739  107.34051   10.18120    0.43170   96.20480   22.22790   26.21750   36.52640   49.97160   54.61600   19.19690   30.30280   41.33070   45.18540   19.02210   22.02140   30.39690   40.75010   51.90540   89.62570   85.43950  256.01190    0.12860
  148.50000 -999.25000  107.72224  100.61617   10.08550    0.48290  101.53330   20.72780   24.25850   32.54810   42.85210   47.73320   19.50460   29.71270   35.92460   38.71960   19.62590   22.11450   29.55420   38.28320   49.73090  108.08560   96.33290  256.65259    0.11750
  149.00000 -999.25000  118.67616  110.55591   10.19320    0.46740  109.27850   20.19990   23.65890   30.82430   39.23540   44.35590   19.78360   29.74000   36.79430   39.75830   19.78170   23.16390   30.11740   37.71060   50.16330  904.38940  838.34161  263.65970    0.10500
  149.50000 -999.25000  101.71838   97.12867   10.22910    0.45950  113.15100   20.31980   23.83160   30.33230   37.46300   42.54620   18.64020   28.25340   35.09080   37.72680   19.99460   23.40250   29.80880   37.21720   49.12990  158.42329  155.73470  580.21539    0.09430
  150.00000   12.00000  131.24910  123.96371    9.96580    0.44950  105.23080   20.72230   24.39310   30.45410   36.53260   41.29700   17.11560   24.83270   29.26240   31.33450   20.12470   23.39830   28.50890   33.91170   44.19970  676.73798  629.35498  486.29800    0.06710
  150.50000 -999.25000  100.75027   94.98320   10.08550    0.45730   96.05840   21.19080   24.94160   30.64200   35.83380   40.23930   22.71810   32.07040   35.41300   37.82170   21.85490   26.10780   31.50300   35.88570   46.15570  391.74371  369.54819 1475.68127    0.04170
  151.00000 -999.25000  116.33542  108.18610   10.03760    0.45010   92.18550   21.49060   25.17470   30.48650   34.82510   38.89980   29.89590   39.18940   42.46100   44.90300   24.02600   29.93130   35.88590   40.40360   48.02720  635.21851  588.28162 1714.49500    0.06360
  151.50000 -999.25000  119.14588  111.28509   10.82740    0.43520   98.24220   21.50770   24.98670   29.96970   33.80820   37.22340   23.89710   32.94990   33.08340   34.94190   22.87160   27.64590   32.17630   35.70940   40.75520 1159.64563 1065.38977 3900.32910    0.08070
  152.00000 -999.25000  141.33070  132.29495   10.08550    0.45410  102.72670   21.49930   24.94210   29.59680   32.87790   35.83570   16.87350   23.80830   23.43750   24.49430   20.20470   23.29480   26.58770   29.46520   31.61720   73.38180  104.27060  757.91492    0.11480
  152.50000 -999.25000  125.68243  119.13187    9.94190    0.48470  106.80300   21.51940   24.62330   29.18980   32.05160   34.48190   18.80530   22.35120   21.49810   22.54590   19.46110   22.46520   25.46160   28.04050   28.73360  250.08299  233.02811  756.23749    0.10370
  153.00000 -999.25000  113.74034  107.32693   10.01370    0.46760  107.73500   22.06000   24.79390   29.40870   32.05360   34.15810   23.31040   28.59010   27.49770   28.92460   21.53900   24.38130   28.14800   30.51070   30.48950  106.41490  106.14880  213.94659    0.10650
  153.50000 -999.25000  121.50205  115.64777    9.75050    0.44110  110.79200   22.82680   25.39910   30.24590   32.80290   34.60540   22.96440   29.09410   28.83620   30.43420   23.00330   25.92180   30.24290   32.78350   31.99290  103.46020   95.33610  276.08401    0.09890
  154.00000   17.00000  117.23684  112.05118    9.70260    0.39750  110.73420   23.55960   26.10960   31.24240   33.55890   34.75530   25.98170   33.36900   33.36460   35.42310   25.38670   28.27060   33.16320   35.82450   33.72600  699.64941  648.01172  219.48241    0.09760
  154.50000 -999.25000  118.40281  114.05827    9.58290    0.44120  107.56020   23.93640   26.36640   31.73170   34.19870   35.28930   28.94530   38.91570   40.50890   43.10050   26.87480   29.87190   35.67510   38.28960   36.00760  230.80141  212.80440  372.96411    0.10920
  155.00000 -999.25000  107.50032  103.75690    9.51110    0.48250  103.07610   23.62190   25.90470   31.27700   34.03260   35.09360   24.47670   33.39880   36.33740   38.73000   24.80650   27.38640   32.91480   35.81110   34.10500   92.56830  108.35880  374.87250    0.11210
  155.50000 -999.25000  114.20067  109.04314    9.60690    0.47760  101.44560   22.80110   24.91620   30.08670   32.98330   34.31830   21.92730   29.18490   33.37030   35.45370   22.68910   24.72960   30.00720   33.09330   32.14700   70.18760   95.61420  196.73309    0.11460
  156.00000    9.00000  112.34602  107.52036   10.10940    0.42690  105.72580   21.88450   24.05620   28.99810   32.14310   33.44130   22.50590   28.71900   32.24650   34.13560   21.41990   23.56220   28.43340   31.85600   31.42480   66.33570   68.86300  252.75681    0.11240
  156.50000 -999.25000  115.11952  110.37975    9.77440    0.39460  103.68780   21.03260   23.27290   27.98240   31.25070   32.75120   19.35290   25.53270   29.00870   30.58880   20.29460   22.52730   26.86030   30.72570   30.70050  304.59299  305.47601   94.97670    0.13570
  157.00000 -999.25000  103.06805   98.55484    9.70260    0.44260  101.09650   20.63960   22.90060   27.52510   30.84070   32.46110   19.61730   25.61790   28.43910   29.93750   19.71530   21.87180   26.05370   29.19120   29.81990   58.83080   53.22380  146.60660    0.15820
  157.50000 -999.25000  106.43951  100.93839    9.88210    0.47260  102.72660   20.67870   23.14940   27.86250   31.14860   32.86280   19.14130   26.14070   29.22700   30.74410   19.57360   22.12100   26.43890   29.43770   30.47530  531.61688  507.20929   92.40210    0.16980
  158.00000   16.00000  115.23861  109.73193    9.84620    0.51730  106.19190   21.19970   24.03950   29.02720   32.51060   34.10970   18.85800   25.52800   28.39070   29.87440   19.99300   22.49530   26.74710   30.06780   31.21900   79.23000   70.18380  185.70090    0.16340
  158.50000 -999.25000   94.36351   88.48870   10.51630    0.49740  108.55000   22.06490   25.24910   30.63090   34.28230   36.06810   19.84890   28.38250   31.44530   33.19890   21.43080   24.59830   29.58310   32.93320   34.90710   93.02090   85.21870  185.97839    0.16130
  159.00000 -999.25000  109.48268  103.12463    9.84620    0.48430  105.69700   23.02730   26.59130   32.53480   36.53770   38.23320   27.25470   36.82140   41.17210   43.74260   24.47340   28.89900   35.54580   38.65820   41.92740  637.87482  605.18512 4165.69775    0.14090
  159.50000 -999.25000  103.94740   97.17497    9.89400    0.40650  105.49280   23.55300   27.44030   33.73520   38.14770   39.66330   29.46570   48.61630   55.56690   58.71260   27.26820   32.95450   40.62730   45.09440   48.15530 1479.16577 1349.08936  246.99159    0.12180
  160.00000   11.00000  112.55051  110.30593    9.43930    0.35860  101.76590   23.37840   27.26560   33.55270   38.01490   39.50720   25.13360   37.50820   43.10350   46.18720   25.58300   30.34100   36.83100   41.43630   43.89330   99.82110   88.49850  233.40849    0.09760
  160.50000 -999.25000  118.95331  116.58161    9.08040    0.35320   97.28150   22.65860   26.30270   32.33910   36.69040   37.93780   23.71230   34.63640   40.36870   42.87150   22.63580   26.44680   32.20110   36.69290   38.50480  111.21400   98.63190   89.87410    0.09910
  161.00000 -999.25000  129.37003  126.53569    9.11630    0.38660   98.09670   21.97870   25.61690   31.49190   35.97830   36.99890   19.79850   27.27540   34.05680   35.95700   20.35550   23.46790   28.49270   32.83660   34.04950   49.32840   43.63200   90.94930    0.10330
