~Version ---------------------------------------------------
VERS.   2.0 : CWLS log ASCII Standard -VERSION 2.0
WRAP.    NO : One line per depth step
DLM . SPACE : Column Data Section Delimiter
~Well ------------------------------------------------------
STRT.ft              16.5 : START DEPTH
STOP.ft            1462.0 : STOP DEPTH
STEP.ft               0.5 : STEP
NULL.             -999.25 : NULL VALUE
COMP.                     : COMPANY
WELL.           Umiat #18 : WELL
FLD .       Linc_Umiat_18 : FIELD
LOC .                     : LOCATION
PROV.                     : PROVINCE
CNTY.                     : COUNTY
STAT.                     : STATE
CTRY.                     : COUNTRY
SRVC. TERRASCIENCES, Inc. : SERVICE COMPANY
DATE.                     : DATE
UWI .           Umiat #18 : UNIQUE WELL ID
API .           Umiat #18 : API NUMBER
~Curve Information -----------------------------------------
TDEP     .ft     : Measured Depth
ECGR_EDTC.gAPI   : Environmentally Corrected Gamma Ray
GDEV_EDTC.deg    : EDTC Hole Deviation from Gravity
GR_EDTC  .gAPI   : Gamma Ray
HV       .V      : Head Voltage
RAZ_EDTC .       : EDTC Raw Z-Axis Acceleration Data
CDF      .lbf    : Calibrated Downhole Force
DF       .lbf    : Uncalibrated Downhole Force
HDAR     .in     : Hole Diameter from Area
DCAL     .in     : Differential Caliper
AZIM     .deg    : Measured Azimuth
GHD      .in     : Borehole Diameter
BHRM     .ohm.m  : Borehole Mud Resistivity
ED       .ft     : East Departure
DLS      .       : Dog Leg Severity
FCD      .in     : Future Casing Diameter
TENS     .lbf    : Cable Tension
ICV      .cuft   : Integrated Cement Volume
ND       .ft     : North Departure
FF       .       : Formation Factor
TVDSS    .ft     : Sub-sea TVD: True Vertical Depth measured from Mean Sea Leve
TDSP     .ft     : Total Displacement (of survey measure point from vertical)
INCL     .deg    : Hole inclination
X        .ft     : Depth Index
BHPR     .psi    : Borehole Pressure
~Params ----------------------------------------------------
PROD   .            TerraStation II : 
PROG   .                         [] : 
RUN    .                         [] : 
DESCENT.                         [] : 
VERSION.                            : 
LINEAGE. Python-converted from DLIS : 
ORFILE .          DynamicImage.dlis : 
~Other -----------------------------------------------------
~ASCII -----------------------------------------------------
# ...
 1162.00000   76.02341    2.85876   74.90159  259.75653   10.01304 1926.13293 1926.13293    8.68985    0.18985    0.00000    8.68985  653.16833    0.00000    0.00000    9.62500 2223.70020    0.06186    0.00000    0.00250  589.99878    0.00000    0.00000 1161.99878  603.65894
 1162.50000   80.33621    2.88941   79.19604  260.33835    9.88596 1898.49438 1898.49438    8.67656    0.17656    0.00000    8.67656  653.25458    0.00000    0.00000    9.62500 2214.31592    0.06186    0.00000    0.00250  590.49347    0.00000    0.00000 1162.49341  603.91870
 1163.00000   81.78737    2.78052   80.58050  259.98032    9.95538 1948.56335 1948.56335    8.68985    0.18985    0.00000    8.68985  653.34064    0.00000    0.00000    9.62500 2244.19995    0.06186    0.00000    0.00250  590.98291    0.00000    0.00000 1162.98291  604.17859
 1163.50000   82.31891    2.89313   81.18337  260.15933    9.98006 1965.71179 1965.71179    8.66718    0.16718    0.00000    8.66718  653.42676    0.00000    0.00000    9.62500 2253.60010    0.06186    0.00000    0.00250  591.48755    0.00000    0.00000 1163.48755  604.43823
 1164.00000   82.16183    2.98596   80.95586  259.96240    9.93639 1919.94897 1919.94897    8.68801    0.18801    0.00000    8.68801  653.51294    0.00000    0.00000    9.62500 2217.44995    0.06186    0.00000    0.00250  591.98749    0.00000    0.00000 1163.98755  604.69800
 1164.50000   89.88166    2.80470   88.38242  260.24884    9.94373 1923.66138 1923.66138    8.73536    0.23536    0.00000    8.73536  653.59918    0.00000    0.00000    9.62500 2218.15015    0.06186    0.00000    0.00250  592.48749    0.00000    0.00000 1164.48755  604.95776
 1165.00000   84.26266    2.74238   83.06676  259.93555    9.96887 1942.14734 1942.14734    8.67656    0.17656    0.00000    8.67656  653.68530    0.00000    0.00000    9.62500 2226.05005    0.06186    0.00000    0.00250  592.98956    0.00000    0.00000 1164.98962  605.21753
 1165.50000   80.04762    2.81689   78.90488  259.35150    9.94858 1917.67358 1917.67358    8.67852    0.17852    0.00000    8.67852  653.77155    0.00000    0.00000    9.62500 2203.69995    0.06186    0.00000    0.00250  593.49585    0.00000    0.00000 1165.49585  605.47723
 1166.00000   76.63470    2.83821   75.42972  259.57751    9.92927 1921.68066 1921.68066    8.71271    0.21271    0.00000    8.71271  653.85785    0.00000    0.00000    9.62500 2221.00000    0.06186    0.00000    0.00250  593.99500    0.00000    0.00000 1165.99500  605.73700
 1166.50000   82.33390    2.82438   81.16502  259.98032    9.97341 1938.20300 1938.20300    8.67666    0.17666    0.00000    8.67666  653.94421    0.00000    0.00000    9.62500 2220.75000    0.06186    0.00000    0.00250  594.49792    0.00000    0.00000 1166.49792  605.99677
 1167.00000   83.01567    2.91370   81.75014  259.66702    9.93293 1913.36865 1913.36865    8.70138    0.20138    0.00000    8.70138  654.03046    0.00000    0.00000    9.62500 2212.69995    0.06186    0.00000    0.00250  594.99585    0.00000    0.00000 1166.99585  606.25647
 1167.50000   77.34881    2.84957   76.10181  259.30450    9.93773 1913.58533 1913.58533    8.72213    0.22213    0.00000    8.72213  654.11682    0.00000    0.00000    9.62500 2204.55005    0.06186    0.00000    0.00250  595.49915    0.00000    0.00000 1167.49915  606.51624
 1168.00000   74.98735    2.86492   73.73622  259.48801   10.00716 1927.55493 1927.55493    8.73547    0.23547    0.00000    8.73547  654.20319    0.00000    0.00000    9.62500 2232.42114    0.06186    0.00000    0.00250  595.99561    0.00000    0.00000 1167.99561  606.77600
 1168.50000   75.33022    2.85087   74.03712  259.58646    9.90173 1877.09338 1877.09338    8.74689    0.24689    0.00000    8.74689  654.28961    0.00000    0.00000    9.62500 2177.30005    0.06186    0.00000    0.00250  596.49170    0.00000    0.00000 1168.49170  607.03577
 1169.00000   81.48393    2.73967   79.96820  259.58646    9.95200 1918.02905 1918.02905    8.78104    0.28104    0.00000    8.78104  654.37598    0.00000    0.00000    9.62500 2218.44995    0.06186    0.00000    0.00250  596.99792    0.00000    0.00000 1168.99792  607.29547
 1169.50000   88.91969    2.85369   87.61417  258.45865    9.96341 1934.05554 1934.05554    8.68810    0.18810    0.00000    8.68810  654.46234    0.00000    0.00000    9.62500 2228.75000    0.06186    0.00000    0.00250  597.50421    0.00000    0.00000 1169.50415  607.55524
 1170.00000   90.87281    2.89645   89.48751  258.63766    9.98465 1941.26697 1941.26697    8.70138    0.20138    0.00000    8.70138  654.54883    0.00000    0.00000    9.62500 2246.94995    0.06186    0.00000    0.00250  598.00415    0.00000    0.00000 1170.00415  607.81500
 1170.50000   93.67988    2.83759   92.11652  259.25751    9.90660 1917.47827 1917.47827    8.73556    0.23556    0.00000    8.73556  654.63538    0.00000    0.00000    9.62500 2219.94751    0.06186    0.00000    0.00250  598.49384    0.00000    0.00000 1170.49390  608.07477
 1171.00000   93.20448    2.84035   91.92621  259.80130    9.97271 1943.94177 1943.94177    8.66531    0.16531    0.00000    8.66531  654.72180    0.00000    0.00000    9.62500 2229.04761    0.06186    0.00000    0.00250  598.99725    0.00000    0.00000 1170.99719  608.33447
 1171.50000   98.08621    2.83794   96.63804  259.71179    9.99219 1923.57666 1923.57666    8.69004    0.19004    0.00000    8.69004  654.80829    0.00000    0.00000    9.62500 2214.69995    0.06186    0.00000    0.00250  599.50958    0.00000    0.00000 1171.50964  608.59424
 1172.00000   98.64647    2.89273   97.14229  259.48801    9.95858 1930.80518 1930.80518    8.70147    0.20147    0.00000    8.70147  654.89490    0.00000    0.00000    9.62500 2242.94727    0.06186    0.00000    0.00250  599.99829    0.00000    0.00000 1171.99829  608.85400
 1172.50000   96.27134    2.84000   94.94263  259.80130    9.91905 1941.62256 1941.62256    8.66735    0.16735    0.00000    8.66735  654.98151    0.00000    0.00000    9.62500 2250.10010    0.06186    0.00000    0.00250  600.48749    0.00000    0.00000 1172.48755  609.11377
 1173.00000   97.31096    2.86157   95.88225  260.10339    9.93158 1921.29980 1921.29980    8.68810    0.18810    0.00000    8.68810  655.06799    0.00000    0.00000    9.62500 2206.30005    0.06186    0.00000    0.00250  600.98755    0.00000    0.00000 1172.98755  609.37354
 1173.50000   97.66414    2.86492   96.12811  259.66702   10.01134 1951.86438 1951.86438    8.71281    0.21281    0.00000    8.71281  655.15460    0.00000    0.00000    9.62500 2268.80005    0.06186    0.00000    0.00250  601.49048    0.00000    0.00000 1173.49036  609.63330
 1174.00000   95.94313    2.82265   94.62697  259.30899    9.91253 1919.85229 1919.85229    8.66539    0.16539    0.00000    8.66539  655.24121    0.00000    0.00000    9.62500 2219.59985    0.06186    0.00000    0.00250  601.98792    0.00000    0.00000 1173.98792  609.89301
 1174.50000   94.02834    2.92817   92.63945  258.95096    9.92052 1895.56006 1895.56006    8.69020    0.19020    0.00000    8.69020  655.32794    0.00000    0.00000    9.62500 2180.65015    0.06186    0.00000    0.00250  602.48834    0.00000    0.00000 1174.48828  610.15277
 1175.00000   94.60531    2.75981   93.16243  259.68045   10.02221 1946.38025 1946.38025    8.70155    0.20155    0.00000    8.70155  655.41455    0.00000    0.00000    9.62500 2256.15015    0.06186    0.00000    0.00250  602.99548    0.00000    0.00000 1174.99536  610.41248
 1175.50000   94.64290    2.84902   93.29861  259.39850    9.91978 1927.84277 1927.84277    8.67683    0.17683    0.00000    8.67683  655.50128    0.00000    0.00000    9.62500 2228.00000    0.06186    0.00000    0.00250  603.49585    0.00000    0.00000 1175.49585  610.67224
 1176.00000   98.92638    2.90731   97.46544  259.35373    9.93740 1927.53796 1927.53796    8.69013    0.19013    0.00000    8.69013  655.58801    0.00000    0.00000    9.62500 2216.25000    0.06186    0.00000    0.00250  603.99707    0.00000    0.00000 1175.99707  610.93201
