~Version ---------------------------------------------------
VERS.   2.0 : CWLS log ASCII Standard -VERSION 2.0
WRAP.    NO : One line per depth step
DLM . SPACE : Column Data Section Delimiter
~Well ------------------------------------------------------
STRT.ft              16.5 : START DEPTH
STOP.ft            1462.0 : STOP DEPTH
STEP.ft               0.5 : STEP
NULL.             -999.25 : NULL VALUE
COMP.                     : COMPANY
WELL.           Umiat #18 : WELL
FLD .       Linc_Umiat_18 : FIELD
LOC .                     : LOCATION
PROV.                     : PROVINCE
CNTY.                     : COUNTY
STAT.                     : STATE
CTRY.                     : COUNTRY
SRVC. TERRASCIENCES, Inc. : SERVICE COMPANY
DATE.                     : DATE
UWI .           Umiat #18 : UNIQUE WELL ID
API .           Umiat #18 : API NUMBER
~Curve Information -----------------------------------------
TDEP     .ft    : Measured Depth
DCSI6    .      : Data Copy Status Indicator for Waveform Array 6
DTCO3    .us/F  : Compressional Slowness from Measurement 3
DTCO     .us/F  : Delta-T Compressional
DTSH3    .us/F  : Shear Slowness from Measurement 3
DTSH5    .us/F  : Shear Slowness from Measurement 5
DTSH6    .us/F  : Shear Slowness from Measurement 6
DTSM     .us/F  : Delta-T Shear
DTSTE    .us/F  : The elastic Stoneley slowness
DTST     .us/F  : Delta-T Stoneley - Monopole Stoneley
DWF1     .      : Display Waveform Array 1 Monopole Upper Middle Frequency
DWF1_MONO.      : Display Waveform 1 Monopole Component
DWF2     .      : Display Waveform Array 2 Monopole Lower Middle Frequency
DWF2_MONO.      : Display Waveform 2 Monopole Component
DWF3     .      : Display Waveform Array 3 Monopole Far Middle Frequency
DWF3_MONO.      : Display Waveform 3 Monopole Component
DWF4_MONO.      : Display Waveform 4 Monopole Component
DWF5_DIIN.      : Display Waveform 5 Dipole Inline Component
DWF6_DIIN.      : Display Waveform 6 Dipole Inline Component
ITT      .s     : Integrated Transit Time
LQC_WF1  .      : Log Quality Control for Waveform Array Measurement 1
LQC_WF2  .      : Log Quality Control for Waveform Array Measurement 2
LQC_WF3  .      : Log Quality Control for Waveform Array Measurement 3
LQC_WF4  .      : Log Quality Control for Waveform Array Measurement 4
LQC_WF5  .      : Log Quality Control for Waveform Array Measurement 5
~Params ----------------------------------------------------
PROD   .            TerraStation II : 
PROG   .                         [] : 
RUN    .                         [] : 
DESCENT.                         [] : 
VERSION.                            : 
LINEAGE. Python-converted from DLIS : 
ORFILE .          DynamicImage.dlis : 
~Other -----------------------------------------------------
~ASCII -----------------------------------------------------
# ...
  118.00000    0.00000   98.82217   98.82217 -999.25000 -999.25000  291.92499 -999.25000 -999.25000  287.59964  -35.00000  -19.00000   21.00000   24.00000  -90.00000  -90.00000   -5.00000  -11.00000   -5.00000    0.21846    0.00000    0.00000    0.00000    0.00000    0.00000
  118.50000    0.00000   99.66245   99.66245 -999.25000 -999.25000  276.78223 -999.25000 -999.25000  277.92657  -70.00000  -83.00000    4.00000    0.00000   14.00000   -4.00000  -11.00000   11.00000   -8.00000    0.21841    0.00000    0.00000    0.00000    0.00000    0.00000
  119.00000    0.00000  100.27466  100.27466 -999.25000 -999.25000  261.64941 -999.25000 -999.25000  276.75760  116.00000  126.00000   96.00000   83.00000  -47.00000  -55.00000  -77.00000   -8.00000   -5.00000    0.21836    0.00000    0.00000    0.00000    0.00000    0.00000
  119.50000    0.00000   94.70866   94.70866 -999.25000 -999.25000  252.54932 -999.25000 -999.25000  270.76260   -5.00000    3.00000  -17.00000   -5.00000   61.00000   57.00000  -14.00000   -2.00000    5.00000    0.21831    0.00000    0.00000    0.00000    0.00000    0.00000
  120.00000    0.00000   91.82629   91.82629 -999.25000 -999.25000  236.37784 -999.25000 -999.25000  269.23532  -84.00000  -31.00000   -1.00000   40.00000   90.00000   99.00000   20.00000   -8.00000    5.00000    0.21826    0.00000    0.00000    0.00000    0.00000    0.00000
  120.50000    0.00000   91.43697   91.43697 -999.25000 -999.25000  208.55969 -999.25000 -999.25000  260.11792   17.00000   20.00000  -27.00000   40.00000   71.00000   86.00000   -5.00000   17.00000   -5.00000    0.21822    0.00000    0.00000    0.00000    0.00000    0.00000
  121.00000    0.00000   92.39055   92.39055 -999.25000 -999.25000  194.48016 -999.25000 -999.25000  263.42331   -9.00000    5.00000   42.00000    6.00000  -57.00000  -45.00000  -89.00000   -8.00000   -2.00000    0.21817    0.00000    0.00000    0.00000    0.00000    0.00000
  121.50000    0.00000   92.07967   92.07967 -999.25000 -999.25000  224.21846 -999.25000 -999.25000  268.94952   39.00000  -20.00000    6.00000   -6.00000  117.00000  116.00000  -59.00000  -11.00000    8.00000    0.21812    0.00000    0.00000    0.00000    0.00000    0.00000
  122.00000    0.00000   91.38318   91.38318 -999.25000 -999.25000  217.63503 -999.25000 -999.25000  262.55878   38.00000   16.00000   76.00000   81.00000  250.00000  235.00000 -125.00000   26.00000   -5.00000    0.21808    0.00000    0.00000    0.00000    0.00000    0.00000
  122.50000    0.00000   90.03068   90.03068 -999.25000 -999.25000  181.54123 -999.25000 -999.25000  262.82208  -37.00000   -7.00000  -56.00000  -77.00000  -68.00000  -72.00000   47.00000  -11.00000    5.00000    0.21803    0.00000    0.00000    0.00000    0.00000    0.00000
  123.00000    0.00000   88.25361   88.25361 -999.25000 -999.25000  191.65956 -999.25000 -999.25000  264.92065  254.00000  308.00000   -9.00000  -26.00000  -63.00000  -75.00000   44.00000    5.00000  -11.00000    0.21799    0.00000    0.00000    0.00000    0.00000    0.00000
  123.50000    0.00000   89.00148   89.00148 -999.25000 -999.25000  201.77792 -999.25000 -999.25000  266.12195  -77.00000  -91.00000   15.00000   13.00000   99.00000    9.00000  -86.00000    0.00000   23.00000    0.21794    0.00000    0.00000    0.00000    0.00000    0.00000
  124.00000    0.00000   80.95709   80.95709 -999.25000  206.14014  211.89627  206.14014  266.93494  265.70142  -29.00000  -36.00000   98.00000  104.00000   29.00000   56.00000  -20.00000  -26.00000   11.00000    0.21790    0.00000    0.00000    0.00000    0.00000    0.00000
  124.50000    0.00000   78.95746   78.95746 -999.25000  199.75789  222.01462  199.75789  264.26532  265.42175  147.00000   70.00000  -35.00000  -35.00000   -5.00000  -11.00000    8.00000   -2.00000  -11.00000    0.21786    0.00000    0.00000    0.00000    0.00000    0.00000
  125.00000    0.00000   79.34780   79.34780 -999.25000  176.55969  207.61382  176.55969  251.23557  263.31836 -125.00000 -144.00000   49.00000   39.00000  -16.00000  -23.00000   89.00000   14.00000   11.00000    0.21782    0.00000    0.00000    0.00000    0.00000    0.00000
  125.50000    0.00000   77.58471   77.58471 -999.25000  176.81538  181.63023  176.81538  249.96834  262.19891  113.00000  129.00000 -395.00000 -355.00000   27.00000   28.00000  110.00000  -17.00000    2.00000    0.21778    0.00000    0.00000    0.00000    0.00000    0.00000
  126.00000    0.00000   78.88194   78.88194 -999.25000  170.40771  166.44733  170.40771  246.32396  257.44043  -48.00000  -22.00000 -184.00000 -165.00000   46.00000   34.00000   41.00000   -8.00000    5.00000    0.21774    0.00000    0.00000    0.00000    0.00000    0.00000
  126.50000    0.00000   79.09497   79.09497 -999.25000  169.55359  164.67201  169.55359  245.84937  256.93304   81.00000   85.00000 -242.00000 -273.00000    9.00000   14.00000 -107.00000  -20.00000    0.00000    0.21770    0.00000    0.00000    0.00000    0.00000    0.00000
  127.00000    0.00000   85.62517   85.62517 -999.25000  157.19077  158.25575  157.19077  240.27249  254.11537   38.00000   50.00000  -90.00000  -71.00000  -26.00000  -12.00000   62.00000  -29.00000    2.00000    0.21766    0.00000    0.00000    0.00000    0.00000    0.00000
  127.50000    0.00000   84.53947   84.53947 -999.25000  149.41138  152.39084  149.41138  236.69746  255.79549   30.00000   92.00000 -266.00000 -246.00000   33.00000   11.00000  -68.00000   11.00000   17.00000    0.21762    0.00000    0.00000    0.00000    0.00000    0.00000
  128.00000    0.00000   83.45376   83.45376 -999.25000  154.35153  148.77814  154.35153  238.44351  257.14975  -18.00000   22.00000  -17.00000   16.00000   -7.00000    3.00000  -77.00000  -11.00000  -17.00000    0.21758    0.00000    0.00000    0.00000    0.00000    0.00000
  128.50000    0.00000   84.97470   84.97470 -999.25000  150.43994  147.42894  150.43994  236.84827  255.84665   30.00000   83.00000   18.00000    3.00000  -83.00000  -57.00000   35.00000   -2.00000   -2.00000    0.21753    0.00000    0.00000    0.00000    0.00000    0.00000
  129.00000    0.00000   88.16148   88.16148 -999.25000  154.61252  145.81282  154.61252  238.89584  255.08542   -4.00000   13.00000   48.00000   40.00000   55.00000   60.00000    5.00000    5.00000   -5.00000    0.21749    0.00000    0.00000    0.00000    0.00000    0.00000
  129.50000    0.00000   88.97764   88.97764 -999.25000  158.38936  148.72853  158.38936  240.75421  257.05573  -61.00000    1.00000 -137.00000  -77.00000   54.00000   49.00000  -41.00000    5.00000   23.00000    0.21745    0.00000    0.00000    0.00000    0.00000    0.00000
  130.00000    0.00000   89.38726   89.38726 -999.25000  160.98262  157.00648  160.98262  242.16017  257.54572   84.00000   77.00000  -41.00000  -33.00000  -24.00000   -8.00000  -89.00000   -8.00000    8.00000    0.21740    0.00000    0.00000    0.00000    0.00000    0.00000
  130.50000    0.00000   90.10685   90.10685 -999.25000  162.90776  161.09740  162.90776  243.27435  256.05984  -51.00000  -32.00000   20.00000   23.00000   17.00000   40.00000    0.00000   -5.00000   -8.00000    0.21736    0.00000    0.00000    0.00000    0.00000    0.00000
  131.00000    0.00000   90.08509   90.08509 -999.25000  158.93079  165.18835  158.93079  241.90417  254.81308   69.00000   58.00000   23.00000   -9.00000  -52.00000   -5.00000   38.00000   -5.00000    5.00000    0.21731    0.00000    0.00000    0.00000    0.00000    0.00000
  131.50000    0.00000   89.59057   89.59057 -999.25000  182.51161  169.27931  182.51161  252.73019  255.16446   28.00000  -14.00000   62.00000   55.00000   51.00000   38.00000   29.00000  -14.00000   20.00000    0.21727    0.00000    0.00000    0.00000    0.00000    0.00000
  132.00000    0.00000   87.93108   87.93108 -999.25000  179.87103  169.40761  179.87103  251.36510  254.74118    5.00000    8.00000   57.00000   47.00000   10.00000   21.00000  -32.00000   -8.00000  -20.00000    0.21722    0.00000    0.00000    0.00000    0.00000    0.00000
