~Version ---------------------------------------------------
VERS.   2.0 : CWLS log ASCII Standard -VERSION 2.0
WRAP.    NO : One line per depth step
DLM . SPACE : Column Data Section Delimiter
~Well ------------------------------------------------------
STRT.ft              16.5 : START DEPTH
STOP.ft            1462.0 : STOP DEPTH
STEP.ft               0.5 : STEP
NULL.             -999.25 : NULL VALUE
COMP.                     : COMPANY
WELL.           Umiat #18 : WELL
FLD .       Linc_Umiat_18 : FIELD
LOC .                     : LOCATION
PROV.                     : PROVINCE
CNTY.                     : COUNTY
STAT.                     : STATE
CTRY.                     : COUNTRY
SRVC. TERRASCIENCES, Inc. : SERVICE COMPANY
DATE.                     : DATE
UWI .           Umiat #18 : UNIQUE WELL ID
API .           Umiat #18 : API NUMBER
~Curve Information -----------------------------------------
TDEP     .ft    : Measured Depth
DCSI6    .      : Data Copy Status Indicator for Waveform Array 6
DTCO3    .us/F  : Compressional Slowness from Measurement 3
DTCO     .us/F  : Delta-T Compressional
DTSH3    .us/F  : Shear Slowness from Measurement 3
DTSH5    .us/F  : Shear Slowness from Measurement 5
DTSH6    .us/F  : Shear Slowness from Measurement 6
DTSM     .us/F  : Delta-T Shear
DTSTE    .us/F  : The elastic Stoneley slowness
DTST     .us/F  : Delta-T Stoneley - Monopole Stoneley
DWF1     .      : Display Waveform Array 1 Monopole Upper Middle Frequency
DWF1_MONO.      : Display Waveform 1 Monopole Component
DWF2     .      : Display Waveform Array 2 Monopole Lower Middle Frequency
DWF2_MONO.      : Display Waveform 2 Monopole Component
DWF3     .      : Display Waveform Array 3 Monopole Far Middle Frequency
DWF3_MONO.      : Display Waveform 3 Monopole Component
DWF4_MONO.      : Display Waveform 4 Monopole Component
DWF5_DIIN.      : Display Waveform 5 Dipole Inline Component
DWF6_DIIN.      : Display Waveform 6 Dipole Inline Component
ITT      .s     : Integrated Transit Time
LQC_WF1  .      : Log Quality Control for Waveform Array Measurement 1
LQC_WF2  .      : Log Quality Control for Waveform Array Measurement 2
LQC_WF3  .      : Log Quality Control for Waveform Array Measurement 3
LQC_WF4  .      : Log Quality Control for Waveform Array Measurement 4
LQC_WF5  .      : Log Quality Control for Waveform Array Measurement 5
~Params ----------------------------------------------------
PROD   .            TerraStation II : 
PROG   .                         [] : 
RUN    .                         [] : 
DESCENT.                         [] : 
VERSION.                            : 
LINEAGE. Python-converted from DLIS : 
ORFILE .          DynamicImage.dlis : 
~Other -----------------------------------------------------
~ASCII -----------------------------------------------------
# ...
  495.00000    0.00000   91.88704   91.88704 -999.25000 -999.25000  178.86983 -999.25000 -999.25000  246.53448  -58.00000  -55.00000   35.00000   46.00000   15.00000   24.00000   11.00000   17.00000  -11.00000    0.18477    0.00000    0.00000    0.00000    0.00000    0.00000
  495.50000    0.00000   92.11900   92.11900 -999.25000  184.61494  178.84717  184.61494  256.02136  246.53374 -143.00000 -116.00000   91.00000  101.00000  131.00000  114.00000  301.00000   14.00000    5.00000    0.18473    0.00000    0.00000    0.00000    0.00000    0.00000
  496.00000    0.00000   92.59753   92.59753 -999.25000  197.42789  179.85104  197.42789  262.97379  246.62825  -31.00000   -8.00000  175.00000  151.00000   19.00000   36.00000   83.00000   -2.00000   -2.00000    0.18468    0.00000    0.00000    0.00000    0.00000    0.00000
  496.50000    0.00000   92.66559   92.66559 -999.25000  181.17519  178.42488  181.17519  253.88708  246.95880   35.00000   48.00000   58.00000   55.00000  178.00000  183.00000  -59.00000   11.00000    8.00000    0.18464    0.00000    0.00000    0.00000    0.00000    0.00000
  497.00000    0.00000   92.06272   92.06272 -999.25000  177.25351  176.50835  177.25351  251.84354  246.85034  257.00000  255.00000   44.00000   68.00000  -29.00000  -32.00000  168.00000   38.00000   11.00000    0.18459    0.00000    0.00000    0.00000    0.00000    0.00000
  497.50000    0.00000   91.73452   91.73452 -999.25000  175.07008  180.62776  175.07008  251.03024  246.85074  132.00000  146.00000   63.00000   78.00000   56.00000   49.00000 -108.00000   23.00000    5.00000    0.18454    0.00000    0.00000    0.00000    0.00000    0.00000
  498.00000    0.00000   91.40018   91.40018 -999.25000  174.11586  180.09969  174.11586  250.40126  246.73906  158.00000  164.00000   47.00000   79.00000  -61.00000  -63.00000   47.00000   -8.00000    2.00000    0.18450    0.00000    0.00000    0.00000    0.00000    0.00000
  498.50000    0.00000   90.63113   90.63113 -999.25000  175.51025  171.01741  175.51025  250.58118  246.60570  195.00000  199.00000   43.00000   39.00000   -7.00000    2.00000  156.00000   -8.00000   -5.00000    0.18445    0.00000    0.00000    0.00000    0.00000    0.00000
  499.00000    0.00000   90.24268   90.24268 -999.25000  177.23813  169.75298  177.23813  251.92433  247.18350   60.00000   65.00000  146.00000  154.00000   28.00000   40.00000   59.00000   11.00000    2.00000    0.18441    0.00000    0.00000    0.00000    0.00000    0.00000
  499.50000    0.00000   88.42911   88.42911 -999.25000  170.53577  169.31316  170.53577  248.92873  247.16675    5.00000    5.00000   57.00000   59.00000  -23.00000  -10.00000  -71.00000    2.00000    8.00000    0.18436    0.00000    0.00000    0.00000    0.00000    0.00000
  500.00000    0.00000   86.69876   86.69876 -999.25000  165.79337  167.40904  165.79337  246.50421  246.88028  257.00000  267.00000    7.00000   21.00000  -91.00000  -80.00000   23.00000   -5.00000    0.00000    0.18432    0.00000    0.00000    0.00000    0.00000    0.00000
  500.50000    0.00000   87.63692   87.63692 -999.25000  162.03954  166.74338  162.03954  244.47589  246.24797  140.00000  162.00000  145.00000  143.00000 -115.00000 -114.00000  -11.00000   -5.00000    8.00000    0.18427    0.00000    0.00000    0.00000    0.00000    0.00000
  501.00000    0.00000   84.76624   84.76624 -999.25000  158.99728  160.38972  158.99728  242.68742  244.92297   68.00000   76.00000   79.00000   70.00000   76.00000   84.00000   71.00000   -2.00000   -2.00000    0.18423    0.00000    0.00000    0.00000    0.00000    0.00000
  501.50000    0.00000   84.70888   84.70888 -999.25000  157.78973  159.71295  157.78973  242.15950  244.55142   68.00000   72.00000  124.00000  121.00000  166.00000  161.00000  -47.00000    0.00000   -5.00000    0.18419    0.00000    0.00000    0.00000    0.00000    0.00000
  502.00000    0.00000   84.57262   84.57262 -999.25000  157.80336  159.80455  157.80336  242.15143  244.22310  177.00000  190.00000  -68.00000  -44.00000    1.00000  -24.00000   59.00000   41.00000  -20.00000    0.18414    0.00000    0.00000    0.00000    0.00000    0.00000
  502.50000    0.00000   84.85994   84.85994 -999.25000  159.23427  160.63301  159.23427  242.81604  244.07440  -87.00000  -68.00000  -25.00000  -11.00000 -110.00000  -94.00000  -47.00000   -2.00000    2.00000    0.18410    0.00000    0.00000    0.00000    0.00000    0.00000
  503.00000    0.00000   85.91174   85.91174 -999.25000  167.27013  163.85547  167.27013  246.37149  244.33423  178.00000  180.00000   -2.00000   13.00000  -14.00000   -5.00000   23.00000    2.00000   17.00000    0.18406    0.00000    0.00000    0.00000    0.00000    0.00000
  503.50000    0.00000   87.04847   87.04847 -999.25000  169.88332  166.62013  169.88332  247.81769  244.82201 -159.00000 -154.00000  555.00000  556.00000  132.00000  124.00000   95.00000  -11.00000   -5.00000    0.18402    0.00000    0.00000    0.00000    0.00000    0.00000
  504.00000    0.00000   87.50517   87.50517 -999.25000  173.80006  170.95906  173.80006  249.64430  245.19585  187.00000  189.00000  -91.00000  -69.00000   -4.00000   46.00000  205.00000  -17.00000    8.00000    0.18397    0.00000    0.00000    0.00000    0.00000    0.00000
  504.50000    0.00000   91.77470   91.77470 -999.25000  179.88960  179.95758  179.88960  253.23767  245.51416 -124.00000 -111.00000 -114.00000 -114.00000  -55.00000  -39.00000   95.00000    5.00000    5.00000    0.18393    0.00000    0.00000    0.00000    0.00000    0.00000
  505.00000    0.00000   92.24811   92.24811 -999.25000  182.21965  179.61516  182.21965  254.20039  246.14194   31.00000   60.00000  186.00000  183.00000  -20.00000  -20.00000  265.00000    0.00000   -5.00000    0.18388    0.00000    0.00000    0.00000    0.00000    0.00000
  505.50000    0.00000   93.00931   93.00931 -999.25000  190.19360  189.83287  190.19360  258.97226  246.70984  -37.00000  -21.00000 -135.00000 -123.00000   93.00000   97.00000   35.00000   -8.00000   -5.00000    0.18384    0.00000    0.00000    0.00000    0.00000    0.00000
  506.00000    0.00000   93.07352   93.07352 -999.25000  191.33133  193.06824  191.33133  259.86060  247.66171   59.00000   42.00000   -5.00000   -2.00000  288.00000  293.00000  -11.00000   -5.00000    0.00000    0.18379    0.00000    0.00000    0.00000    0.00000    0.00000
  506.50000    0.00000   93.82820   93.82820 -999.25000  192.87782  192.49965  192.87782  260.55927  248.10052   18.00000   12.00000   81.00000   86.00000   33.00000   33.00000  -59.00000    5.00000  -14.00000    0.18374    0.00000    0.00000    0.00000    0.00000    0.00000
  507.00000    0.00000   94.35219   94.35219 -999.25000  195.92497  195.17882  195.92497  262.37173  248.60054   73.00000   91.00000  144.00000  148.00000 -116.00000 -106.00000  -83.00000    8.00000   -2.00000    0.18370    0.00000    0.00000    0.00000    0.00000    0.00000
  507.50000    0.00000   94.97150   94.97150 -999.25000  196.63602  193.87109  196.63602  262.59991  248.65234   67.00000   63.00000  203.00000  196.00000   54.00000   43.00000  -71.00000    2.00000   -2.00000    0.18365    0.00000    0.00000    0.00000    0.00000    0.00000
  508.00000    0.00000   94.45355   94.45355 -999.25000  195.73497  191.77896  195.73497  261.93982  248.77133  -39.00000  -29.00000 -137.00000 -149.00000  103.00000  101.00000  -71.00000  -20.00000   -2.00000    0.18360    0.00000    0.00000    0.00000    0.00000    0.00000
  508.50000    0.00000   93.88477   93.88477 -999.25000  184.01282  184.03714  184.01282  255.27223  248.01491  -71.00000  -65.00000  -87.00000  -87.00000  -50.00000  -43.00000 -289.00000   -2.00000   11.00000    0.18356    0.00000    0.00000    0.00000    0.00000    0.00000
  509.00000    0.00000   93.09980   93.09980 -999.25000  174.90446  176.26152  174.90446  250.32083  247.17747 -129.00000 -105.00000 -119.00000  -78.00000  -73.00000  -67.00000   83.00000    0.00000  -11.00000    0.18351    0.00000    0.00000    0.00000    0.00000    0.00000
