~Version ---------------------------------------------------
VERS.   2.0 : CWLS log ASCII Standard -VERSION 2.0
WRAP.    NO : One line per depth step
DLM . SPACE : Column Data Section Delimiter
~Well ------------------------------------------------------
STRT.ft              16.5 : START DEPTH
STOP.ft            1462.0 : STOP DEPTH
STEP.ft               0.5 : STEP
NULL.             -999.25 : NULL VALUE
COMP.                     : COMPANY
WELL.           Umiat #18 : WELL
FLD .       Linc_Umiat_18 : FIELD
LOC .                     : LOCATION
PROV.                     : PROVINCE
CNTY.                     : COUNTY
STAT.                     : STATE
CTRY.                     : COUNTRY
SRVC. TERRASCIENCES, Inc. : SERVICE COMPANY
DATE.                     : DATE
UWI .           Umiat #18 : UNIQUE WELL ID
API .           Umiat #18 : API NUMBER
~Curve Information -----------------------------------------
TDEP     .ft     : Measured Depth
ECGR_EDTC.gAPI   : Environmentally Corrected Gamma Ray
GDEV_EDTC.deg    : EDTC Hole Deviation from Gravity
GR_EDTC  .gAPI   : Gamma Ray
HV       .V      : Head Voltage
RAZ_EDTC .       : EDTC Raw Z-Axis Acceleration Data
CDF      .lbf    : Calibrated Downhole Force
DF       .lbf    : Uncalibrated Downhole Force
HDAR     .in     : Hole Diameter from Area
DCAL     .in     : Differential Caliper
AZIM     .deg    : Measured Azimuth
GHD      .in     : Borehole Diameter
BHRM     .ohm.m  : Borehole Mud Resistivity
ED       .ft     : East Departure
DLS      .       : Dog Leg Severity
FCD      .in     : Future Casing Diameter
TENS     .lbf    : Cable Tension
ICV      .cuft   : Integrated Cement Volume
ND       .ft     : North Departure
FF       .       : Formation Factor
TVDSS    .ft     : Sub-sea TVD: True Vertical Depth measured from Mean Sea Leve
TDSP     .ft     : Total Displacement (of survey measure point from vertical)
INCL     .deg    : Hole inclination
X        .ft     : Depth Index
BHPR     .psi    : Borehole Pressure
~Params ----------------------------------------------------
PROD   .            TerraStation II : 
PROG   .                         [] : 
RUN    .                         [] : 
DESCENT.                         [] : 
VERSION.                            : 
LINEAGE. Python-converted from DLIS : 
ORFILE .          DynamicImage.dlis : 
~Other -----------------------------------------------------
~ASCII -----------------------------------------------------
# ...
  596.50000  116.53198    0.92936  114.03983  258.22369    9.94155 1821.90210 1821.90210    8.84762    0.34762    0.00000    8.84762  568.42621    0.00000    0.00000    9.62500 1928.68420    0.06186    0.00000    0.00250   24.50089    0.00000    0.00000  596.50085  309.88174
  597.00000  103.37917    1.00483  101.26662  258.40918    9.97101 1834.17419 1834.17419    8.82482    0.32482    0.00000    8.82482  568.49139    0.00000    0.00000    9.62500 1932.27783    0.06186    0.00000    0.00250   24.99677    0.00000    0.00000  596.99677  310.14151
  597.50000   96.16794    1.03249   94.29450  258.41165    9.97282 1835.30432 1835.30432    8.80201    0.30201    0.00000    8.80201  568.55658    0.00000    0.00000    9.62500 1914.52637    0.06186    0.00000    0.00250   25.48993    0.00000    0.00000  597.48993  310.40128
  598.00000   86.48650    0.92366   84.79502  258.60706    9.95536 1817.09155 1817.09155    8.80384    0.30384    0.00000    8.80384  568.62189    0.00000    0.00000    9.62500 1908.15784    0.06186    0.00000    0.00250   25.99870    0.00000    0.00000  597.99866  310.66101
  598.50000   81.62765    1.11118   80.10871  258.41165    9.96642 1845.24060 1845.24060    8.78119    0.28119    0.00000    8.78119  568.68713    0.00000    0.00000    9.62500 1953.89465    0.06186    0.00000    0.00250   26.50264    0.00000    0.00000  598.50262  310.92075
  599.00000   79.20683    1.18548   77.69508  257.96399    9.98235 1864.63501 1864.63501    8.79259    0.29259    0.00000    8.79259  568.75238    0.00000    0.00000    9.62500 1949.73682    0.06186    0.00000    0.00250   27.00835    0.00000    0.00000  599.00836  311.18051
  599.50000   76.86311    1.18018   75.35961  258.83459    9.97333 1854.71460 1854.71460    8.80392    0.30392    0.00000    8.80392  568.81763    0.00000    0.00000    9.62500 1957.16663    0.06186    0.00000    0.00250   27.50001    0.00000    0.00000  599.50000  311.44025
  600.00000   84.09459    1.22333   82.48979  259.10172    9.95685 1851.33167 1851.33167    8.79252    0.29252    0.00000    8.79252  568.88300    0.00000    0.00000    9.62500 1971.84204    0.06186    0.00000    0.00250   27.99343    0.00000    0.00000  599.99341  311.70001
  600.50000   86.25747    1.23115   84.65238  259.21054    9.96441 1849.38196 1849.38196    8.78119    0.28119    0.00000    8.78119  568.94830    0.00000    0.00000    9.62500 1936.05261    0.06186    0.00000    0.00250   28.49738    0.00000    0.00000  600.49738  311.95975
  601.00000   88.61855    1.19534   86.92742  259.20062    9.96103 1856.96362 1856.96362    8.79252    0.29252    0.00000    8.79252  569.01367    0.00000    0.00000    9.62500 1952.89490    0.06186    0.00000    0.00250   29.00264    0.00000    0.00000  601.00262  312.21951
  601.50000   85.77858    0.79006   84.06004  259.39850    9.94196 1832.88696 1832.88696    8.81524    0.31524    0.00000    8.81524  569.07898    0.00000    0.00000    9.62500 1934.88892    0.06186    0.00000    0.00250   29.49307    0.00000    0.00000  601.49304  312.47925
  602.00000   85.59193    0.95981   83.35903  259.30450    9.96716 1856.40332 1856.40332    8.96114    0.46114    0.00000    8.96114  569.14435    0.00000    0.00000    9.62500 1958.52625    0.06186    0.00000    0.00250   29.98774    0.00000    0.00000  601.98773  312.73901
  602.50000   90.78999    1.11663   89.02103  259.59637    9.94883 1853.35254 1853.35254    8.80209    0.30209    0.00000    8.80209  569.20972    0.00000    0.00000    9.62500 1942.15784    0.06186    0.00000    0.00250   30.49080    0.00000    0.00000  602.49078  312.99872
  603.00000   92.59166    0.95879   90.78760  259.89316    9.99927 1884.05652 1884.05652    8.80209    0.30209    0.00000    8.80209  569.27515    0.00000    0.00000    9.62500 1976.26318    0.06186    0.00000    0.00250   31.00089    0.00000    0.00000  603.00085  313.25848
  603.50000   95.55873    0.75899   93.83353  259.58646    9.98206 1863.70898 1863.70898    8.76799    0.26799    0.00000    8.76799  569.34045    0.00000    0.00000    9.62500 1953.89465    0.06186    0.00000    0.00250   31.50440    0.00000    0.00000  603.50439  313.51825
  604.00000   92.46754    1.01143   90.79814  259.74475    9.95678 1866.22534 1866.22534    8.76799    0.26799    0.00000    8.76799  569.40594    0.00000    0.00000    9.62500 1979.94458    0.06186    0.00000    0.00250   31.99677    0.00000    0.00000  603.99677  313.77802
  604.50000   91.23835    1.19025   89.59115  260.00940    9.96928 1881.64380 1881.64380    8.76799    0.26799    0.00000    8.76799  569.47137    0.00000    0.00000    9.62500 1992.26318    0.06186    0.00000    0.00250   32.49080    0.00000    0.00000  604.49078  314.03775
  605.00000   93.67236    1.27595   91.92929  259.69528    9.93384 1857.67468 1857.67468    8.78119    0.28119    0.00000    8.78119  569.53687    0.00000    0.00000    9.62500 1959.68420    0.06186    0.00000    0.00250   32.99826    0.00000    0.00000  604.99823  314.29749
  605.50000   94.61800    0.86434   92.85734  259.49249    9.96039 1889.23376 1889.23376    8.78119    0.28119    0.00000    8.78119  569.60236    0.00000    0.00000    9.62500 2007.44446    0.06186    0.00000    0.00250   33.49214    0.00000    0.00000  605.49213  314.55725
  606.00000   97.70761    0.73542   95.98251  259.25751    9.95737 1872.50745 1872.50745    8.75852    0.25852    0.00000    8.75852  569.66779    0.00000    0.00000    9.62500 1962.65015    0.06186    0.00000    0.00250   33.99501    0.00000    0.00000  605.99500  314.81699
  606.50000   96.20545    0.85318   94.50687  259.44797    9.94845 1850.48975 1850.48975    8.75852    0.25852    0.00000    8.75852  569.73328    0.00000    0.00000    9.62500 1951.49988    0.06186    0.00000    0.00250   34.50140    0.00000    0.00000  606.50140  315.07675
  607.00000   93.83044    0.97197   91.86131  259.64581    9.97802 1875.63672 1875.63672    8.83803    0.33803    0.00000    8.83803  569.79883    0.00000    0.00000    9.62500 1980.89478    0.06186    0.00000    0.00250   34.99826    0.00000    0.00000  606.99823  315.33649
  607.50000   90.86123    1.45522   89.17047  259.49744    9.98946 1863.81165 1863.81165    8.78119    0.28119    0.00000    8.78119  569.86432    0.00000    0.00000    9.62500 1962.88904    0.06186    0.00000    0.00250   35.50001    0.00000    0.00000  607.50000  315.59625
  608.00000   89.51345    1.34319   87.93327  259.39850    9.93849 1836.60193 1836.60193    8.75846    0.25846    0.00000    8.75846  569.92987    0.00000    0.00000    9.62500 1961.94739    0.06186    0.00000    0.00250   36.00221    0.00000    0.00000  608.00220  315.85602
  608.50000   89.74822    1.19058   88.12792  258.75543    9.96880 1861.28589 1861.28589    8.76799    0.26799    0.00000    8.76799  569.99542    0.00000    0.00000    9.62500 1961.89465    0.06186    0.00000    0.00250   36.50571    0.00000    0.00000  608.50568  316.11578
  609.00000   91.56439    1.08354   89.95499  258.88159    9.94395 1846.18262 1846.18262    8.75665    0.25665    0.00000    8.75665  570.06104    0.00000    0.00000    9.62500 1938.33350    0.06186    0.00000    0.00250   36.99770    0.00000    0.00000  608.99768  316.37549
  609.50000   93.29287    1.01201   91.65309  258.85437    9.98286 1874.06506 1874.06506    8.75665    0.25665    0.00000    8.75665  570.12659    0.00000    0.00000    9.62500 1962.26331    0.06186    0.00000    0.00250   37.49255    0.00000    0.00000  609.49255  316.63525
  610.00000   95.03046    1.05481   93.35262  258.97556    9.97805 1857.20337 1857.20337    8.75852    0.25852    0.00000    8.75852  570.19220    0.00000    0.00000    9.62500 1944.31592    0.06186    0.00000    0.00250   37.99738    0.00000    0.00000  609.99738  316.89499
  610.50000   90.35835    0.88382   88.80637  258.95331    9.95953 1833.89355 1833.89355    8.74712    0.24712    0.00000    8.74712  570.25781    0.00000    0.00000    9.62500 1955.84216    0.06186    0.00000    0.00250   38.50308    0.00000    0.00000  610.50305  317.15475
