~Version ---------------------------------------------------
VERS.   2.0 : CWLS log ASCII Standard -VERSION 2.0
WRAP.    NO : One line per depth step
DLM . SPACE : Column Data Section Delimiter
~Well ------------------------------------------------------
STRT.ft              16.5 : START DEPTH
STOP.ft            1462.0 : STOP DEPTH
STEP.ft               0.5 : STEP
NULL.             -999.25 : NULL VALUE
COMP.                     : COMPANY
WELL.           Umiat #18 : WELL
FLD .       Linc_Umiat_18 : FIELD
LOC .                     : LOCATION
PROV.                     : PROVINCE
CNTY.                     : COUNTY
STAT.                     : STATE
CTRY.                     : COUNTRY
SRVC. TERRASCIENCES, Inc. : SERVICE COMPANY
DATE.                     : DATE
UWI .           Umiat #18 : UNIQUE WELL ID
API .           Umiat #18 : API NUMBER
~Curve Information -----------------------------------------
TDEP     .ft    : Measured Depth
DCSI6    .      : Data Copy Status Indicator for Waveform Array 6
DTCO3    .us/F  : Compressional Slowness from Measurement 3
DTCO     .us/F  : Delta-T Compressional
DTSH3    .us/F  : Shear Slowness from Measurement 3
DTSH5    .us/F  : Shear Slowness from Measurement 5
DTSH6    .us/F  : Shear Slowness from Measurement 6
DTSM     .us/F  : Delta-T Shear
DTSTE    .us/F  : The elastic Stoneley slowness
DTST     .us/F  : Delta-T Stoneley - Monopole Stoneley
DWF1     .      : Display Waveform Array 1 Monopole Upper Middle Frequency
DWF1_MONO.      : Display Waveform 1 Monopole Component
DWF2     .      : Display Waveform Array 2 Monopole Lower Middle Frequency
DWF2_MONO.      : Display Waveform 2 Monopole Component
DWF3     .      : Display Waveform Array 3 Monopole Far Middle Frequency
DWF3_MONO.      : Display Waveform 3 Monopole Component
DWF4_MONO.      : Display Waveform 4 Monopole Component
DWF5_DIIN.      : Display Waveform 5 Dipole Inline Component
DWF6_DIIN.      : Display Waveform 6 Dipole Inline Component
ITT      .s     : Integrated Transit Time
LQC_WF1  .      : Log Quality Control for Waveform Array Measurement 1
LQC_WF2  .      : Log Quality Control for Waveform Array Measurement 2
LQC_WF3  .      : Log Quality Control for Waveform Array Measurement 3
LQC_WF4  .      : Log Quality Control for Waveform Array Measurement 4
LQC_WF5  .      : Log Quality Control for Waveform Array Measurement 5
~Params ----------------------------------------------------
PROD   .            TerraStation II : 
PROG   .                         [] : 
RUN    .                         [] : 
DESCENT.                         [] : 
VERSION.                            : 
LINEAGE. Python-converted from DLIS : 
ORFILE .          DynamicImage.dlis : 
~Other -----------------------------------------------------
~ASCII -----------------------------------------------------
# ...
  205.00000    0.00000   98.20193   98.20193 -999.25000  227.92885  238.63837  227.92885  284.23801  263.36423   38.00000   30.00000  223.00000  234.00000    5.00000   13.00000   59.00000  -11.00000    2.00000    0.21014    0.00000    0.00000    0.00000    0.00000    0.00000
  205.50000    0.00000   97.57573   97.57573 -999.25000  226.19344  234.70016  226.19344  282.42795  261.98846  148.00000  143.00000  133.00000  147.00000  -50.00000  -41.00000   23.00000    8.00000  -11.00000    0.21009    0.00000    0.00000    0.00000    0.00000    0.00000
  206.00000    0.00000   95.70858   95.70858 -999.25000  231.44470  232.41853  231.44470  286.41025  260.45651  219.00000  217.00000   71.00000   62.00000   45.00000   52.00000   20.00000   -5.00000    2.00000    0.21004    0.00000    0.00000    0.00000    0.00000    0.00000
  206.50000    0.00000   94.36546   94.36546 -999.25000  224.90295  223.56093  224.90295  281.48758  259.10745  134.00000  140.00000   26.00000   25.00000  -78.00000  -58.00000  107.00000  -29.00000   -5.00000    0.20999    0.00000    0.00000    0.00000    0.00000    0.00000
  207.00000    0.00000   90.62392   90.62392 -999.25000  214.41248  220.34395  214.41248  274.25510  256.05011   25.00000   32.00000  -54.00000  -53.00000   -6.00000   -1.00000  -53.00000   17.00000   -2.00000    0.20995    0.00000    0.00000    0.00000    0.00000    0.00000
  207.50000    0.00000   90.06059   90.06059 -999.25000  206.45988  208.35162  206.45988  268.44504  255.12439  -66.00000  -55.00000  -23.00000  -30.00000    1.00000    4.00000   32.00000  -29.00000    2.00000    0.20990    0.00000    0.00000    0.00000    0.00000    0.00000
  208.00000    0.00000   88.67324   88.67324 -999.25000  202.33714  210.52795  202.33714  266.26309  254.46271   39.00000   47.00000  -25.00000   15.00000   15.00000   31.00000   29.00000    2.00000   56.00000    0.20986    0.00000    0.00000    0.00000    0.00000    0.00000
  208.50000    0.00000   88.59010   88.59010 -999.25000  207.25323  215.69670  207.25323  269.22101  255.16272   43.00000   53.00000   71.00000   77.00000  -65.00000  -59.00000    5.00000   -2.00000    0.00000    0.20981    0.00000    0.00000    0.00000    0.00000    0.00000
  209.00000    0.00000   89.72964   89.72964 -999.25000  203.29320  220.86542  203.29320  267.17923  256.02731   29.00000   41.00000   21.00000   32.00000  291.00000  295.00000   62.00000  -20.00000   -8.00000    0.20977    0.00000    0.00000    0.00000    0.00000    0.00000
  209.50000    0.00000   90.80627   90.80627 -999.25000  199.98103  221.47670  199.98103  265.32132  256.85709  -27.00000  -14.00000  -47.00000  -53.00000  -82.00000  -65.00000  -38.00000  -14.00000    2.00000    0.20972    0.00000    0.00000    0.00000    0.00000    0.00000
  210.00000    0.00000   93.40631   93.40631 -999.25000  220.54747  206.34253  220.54747  276.89050  259.31726   33.00000   41.00000   -1.00000   -3.00000  -83.00000  -94.00000   65.00000    8.00000   -2.00000    0.20968    0.00000    0.00000    0.00000    0.00000    0.00000
  210.50000    0.00000   94.41579   94.41579 -999.25000  227.68700  209.99492  227.68700  281.69681  260.72845   65.00000   44.00000   20.00000   34.00000   21.00000   27.00000  -29.00000    0.00000   -2.00000    0.20963    0.00000    0.00000    0.00000    0.00000    0.00000
  211.00000    0.00000   97.72093   97.72093 -999.25000  230.89459  253.69563  230.89459  286.90454  264.88382   76.00000   75.00000  104.00000   95.00000  144.00000  143.00000  113.00000   -2.00000   -2.00000    0.20958    0.00000    0.00000    0.00000    0.00000    0.00000
  211.50000    0.00000  100.12526  100.12526 -999.25000  243.86189  256.78448  243.86189  296.31583  267.06552  107.00000   85.00000   -1.00000   12.00000  -31.00000  -38.00000  -56.00000   -5.00000    0.00000    0.20953    0.00000    0.00000    0.00000    0.00000    0.00000
  212.00000    0.00000  102.82516  102.82516 -999.25000  253.00725  249.43784  253.00725  302.62735  269.28433  -58.00000  -43.00000    5.00000   17.00000  -55.00000  -59.00000   53.00000  -17.00000    0.00000    0.20948    0.00000    0.00000    0.00000    0.00000    0.00000
  212.50000    0.00000  103.54864  103.54864 -999.25000  258.40466  262.14319  258.40466  307.77771  270.25879   53.00000   46.00000  127.00000  132.00000  103.00000  101.00000   32.00000   -2.00000   -8.00000    0.20943    0.00000    0.00000    0.00000    0.00000    0.00000
  213.00000    0.00000  104.31297  104.31297 -999.25000  259.63406  265.40564  259.63406  309.08087  270.36139   59.00000   67.00000  -69.00000  -67.00000   47.00000   39.00000  -56.00000  -20.00000    0.00000    0.20938    0.00000    0.00000    0.00000    0.00000    0.00000
  213.50000    0.00000  103.58406  103.58406 -999.25000  258.22299  266.56357  258.22299  308.23120  269.65930   67.00000   70.00000   48.00000   33.00000 -117.00000  -94.00000   20.00000   -5.00000    8.00000    0.20933    0.00000    0.00000    0.00000    0.00000    0.00000
  214.00000    0.00000  103.94653  103.94653 -999.25000  249.74663  265.81955  249.74663  301.53613  267.09927  -14.00000   -8.00000  -96.00000  -86.00000   61.00000   10.00000   20.00000  -11.00000  -20.00000    0.20928    0.00000    0.00000    0.00000    0.00000    0.00000
  214.50000    0.00000  101.67275  101.67275 -999.25000  244.39729  263.92688  244.39729  297.54575  266.44690    3.00000  -24.00000   89.00000   99.00000 -164.00000 -147.00000   59.00000    8.00000    5.00000    0.20923    0.00000    0.00000    0.00000    0.00000    0.00000
  215.00000    0.00000  100.79556  100.79556 -999.25000  233.48369  259.09464  233.48369  289.40536  265.51105  109.00000  111.00000   50.00000   24.00000  -19.00000  -32.00000   26.00000    0.00000    5.00000    0.20917    0.00000    0.00000    0.00000    0.00000    0.00000
  215.50000    0.00000   98.39317   98.39317 -999.25000  233.30110  252.98877  233.30110  288.72961  262.43860 -125.00000 -145.00000  165.00000  157.00000   52.00000   39.00000   29.00000  -17.00000   -8.00000    0.20912    0.00000    0.00000    0.00000    0.00000    0.00000
  216.00000    0.00000   97.58455   97.58455 -999.25000  227.71031  253.55746  227.71031  284.96753  261.38828  -36.00000  -37.00000  -71.00000  -73.00000   76.00000   70.00000    8.00000   -2.00000    0.00000    0.20908    0.00000    0.00000    0.00000    0.00000    0.00000
  216.50000    0.00000   96.70648   96.70648 -999.25000  222.11951  263.37454  222.11951  281.55240  259.65454   49.00000   39.00000   43.00000   46.00000   69.00000   70.00000   65.00000   -8.00000   -5.00000    0.20903    0.00000    0.00000    0.00000    0.00000    0.00000
  217.00000    0.00000   96.27778   96.27778 -999.25000  215.27698  253.57507  215.27698  277.22729  258.14435 -147.00000 -123.00000    3.00000   -2.00000  -42.00000   -9.00000   14.00000    0.00000   11.00000    0.20898    0.00000    0.00000    0.00000    0.00000    0.00000
  217.50000    0.00000   96.15652   96.15652 -999.25000  216.07291  248.53932  216.07291  276.76105  259.09329  -63.00000  -55.00000   59.00000   66.00000   19.00000   18.00000  -17.00000  -20.00000   -8.00000    0.20893    0.00000    0.00000    0.00000    0.00000    0.00000
  218.00000    0.00000   96.18554   96.18554 -999.25000  215.63156  245.64438  215.63156  276.47070  259.30728  101.00000  103.00000 -121.00000 -108.00000  -41.00000  -37.00000 -143.00000    8.00000    2.00000    0.20888    0.00000    0.00000    0.00000    0.00000    0.00000
  218.50000    0.00000   97.29137   97.29137 -999.25000  224.09793  244.00410  224.09793  281.96448  259.28110   57.00000   46.00000   43.00000   42.00000   44.00000   45.00000   -2.00000    5.00000   29.00000    0.20883    0.00000    0.00000    0.00000    0.00000    0.00000
  219.00000    0.00000  102.41305  102.41305 -999.25000  211.68771  245.34895  211.68771  274.31812  260.03925   30.00000   35.00000   13.00000   21.00000   -2.00000   -2.00000   74.00000  -11.00000   11.00000    0.20879    0.00000    0.00000    0.00000    0.00000    0.00000
