~Version ---------------------------------------------------
VERS.   2.0 : CWLS log ASCII Standard -VERSION 2.0
WRAP.    NO : One line per depth step
DLM . SPACE : Column Data Section Delimiter
~Well ------------------------------------------------------
STRT.ft              16.5 : START DEPTH
STOP.ft            1462.0 : STOP DEPTH
STEP.ft               0.5 : STEP
NULL.             -999.25 : NULL VALUE
COMP.                     : COMPANY
WELL.           Umiat #18 : WELL
FLD .       Linc_Umiat_18 : FIELD
LOC .                     : LOCATION
PROV.                     : PROVINCE
CNTY.                     : COUNTY
STAT.                     : STATE
CTRY.                     : COUNTRY
SRVC. TERRASCIENCES, Inc. : SERVICE COMPANY
DATE.                     : DATE
UWI .           Umiat #18 : UNIQUE WELL ID
API .           Umiat #18 : API NUMBER
~Curve Information -----------------------------------------
TDEP     .ft     : Measured Depth
ECGR_EDTC.gAPI   : Environmentally Corrected Gamma Ray
GDEV_EDTC.deg    : EDTC Hole Deviation from Gravity
GR_EDTC  .gAPI   : Gamma Ray
HV       .V      : Head Voltage
RAZ_EDTC .       : EDTC Raw Z-Axis Acceleration Data
CDF      .lbf    : Calibrated Downhole Force
DF       .lbf    : Uncalibrated Downhole Force
HDAR     .in     : Hole Diameter from Area
DCAL     .in     : Differential Caliper
AZIM     .deg    : Measured Azimuth
GHD      .in     : Borehole Diameter
BHRM     .ohm.m  : Borehole Mud Resistivity
ED       .ft     : East Departure
DLS      .       : Dog Leg Severity
FCD      .in     : Future Casing Diameter
TENS     .lbf    : Cable Tension
ICV      .cuft   : Integrated Cement Volume
ND       .ft     : North Departure
FF       .       : Formation Factor
TVDSS    .ft     : Sub-sea TVD: True Vertical Depth measured from Mean Sea Leve
TDSP     .ft     : Total Displacement (of survey measure point from vertical)
INCL     .deg    : Hole inclination
X        .ft     : Depth Index
BHPR     .psi    : Borehole Pressure
~Params ----------------------------------------------------
PROD   .            TerraStation II : 
PROG   .                         [] : 
RUN    .                         [] : 
DESCENT.                         [] : 
VERSION.                            : 
LINEAGE. Python-converted from DLIS : 
ORFILE .          DynamicImage.dlis : 
~Other -----------------------------------------------------
~ASCII -----------------------------------------------------
# ...
  118.00000   91.93022 -999.25000   87.61654  255.21773    9.96833 1565.95374 1565.95374    9.48142    0.98142    0.00000    9.48142  512.19714    0.00000    0.00000    9.62500 1387.91479    0.85756    0.00000    0.00250 -451.54947    0.00000    0.00000  120.45051   61.30100
  118.50000   97.32484 -999.25000   93.23460  255.21773    9.96833 1565.95374 1565.95374    9.35653    0.85653    0.00000    9.35653  512.25012    0.00000    0.00000    9.62500 1387.91479    0.85756    0.00000    0.00250 -451.54947    0.00000    0.00000  120.45051   61.56075
  119.00000   96.08203 -999.25000   91.15662  255.21773    9.96833 1565.95374 1565.95374    9.59350    1.09350    0.00000    9.59350  512.30310    0.00000    0.00000    9.62500 1387.91479    0.85756    0.00000    0.00250 -451.54947    0.00000    0.00000  120.45051   61.82050
  119.50000   87.00922 -999.25000   81.92102  255.21773    9.96833 1565.95374 1565.95374    9.78292    1.28292    0.00000    9.78292  512.35608    0.00000    0.00000    9.62500 1387.91479    0.85756    0.00000    0.00250 -451.54947    0.00000    0.00000  120.45051   62.08025
  120.00000   72.01087 -999.25000   68.69857  255.21773    9.96833 1565.95374 1565.95374    9.45767    0.95767    0.00000    9.45767  512.40900    0.00000    0.00000    9.62500 1387.91479    0.84920    0.00000    0.00250 -451.54947    0.00000    0.00000  120.45051   62.34000
  120.50000   67.77679 -999.25000   64.80817  255.21773    9.96833 1565.95374 1565.95374    9.40156    0.90156    0.00000    9.40156  512.46198    0.00000    0.00000    9.62500 1387.91479    0.84920    0.00000    0.00250 -451.54947    0.00000    0.00000  120.45050   62.59975
  121.00000   67.48619    1.55972   65.10065  247.56335    9.96142 1770.74561 1770.74561    9.18883    0.68883    0.00000    9.18883  512.51495    0.00000    0.00000    9.62500 1695.15381    0.84920    0.00000    0.00250 -451.00705    0.00000    0.00000  120.99295   62.85950
  121.50000   72.20718 -999.25000   69.82359  247.18045    9.97604 1780.87744 1780.87744    9.13082    0.63082    0.00000    9.13082  512.56799    0.00000    0.00000    9.62500 1713.36011    0.84920    0.00000    0.00250 -450.51135    0.00000    0.00000  121.48867   63.11925
  122.00000   78.31765 -999.25000   75.65612  247.14285    9.96930 1763.53601 1763.53601    9.15493    0.65493    0.00000    9.15493  512.62103    0.00000    0.00000    9.62500 1688.04175    0.84920    0.00000    0.00250 -450.01697    0.00000    0.00000  121.98299   63.37900
  122.50000   85.61285 -999.25000   82.74257  247.59398    9.96374 1740.49963 1740.49963    9.14359    0.64359    0.00000    9.14359  512.67413    0.00000    0.00000    9.62500 1671.25000    0.84920    0.00000    0.00250 -449.50555    0.00000    0.00000  122.49445   63.63875
  123.00000   91.82650 -999.25000   87.80482  247.06297    9.96867 1753.93335 1753.93335    9.40147    0.90148    0.00000    9.40147  512.72717    0.00000    0.00000    9.62500 1691.39136    0.84920    0.00000    0.00250 -449.00363    0.00000    0.00000  122.99638   63.89850
  123.50000   94.93042 -999.25000   89.98196  246.79596    9.96647 1744.47083 1744.47083    9.61600    1.11600    0.00000    9.61600  512.78027    0.00000    0.00000    9.62500 1678.09094    0.84920    0.00000    0.00250 -448.50684    0.00000    0.00000  123.49318   64.15825
  124.00000   87.11519 -999.25000   81.36624  247.67081    9.96653 1751.39404 1751.39404    9.98430    1.48430    0.00000    9.98430  512.83319    0.00000    0.00000    9.62500 1670.22729    0.84920    0.00000    0.00250 -448.00720    0.00000    0.00000  123.99281   64.41800
  124.50000   72.22871 -999.25000   68.74480  247.22131    9.97689 1756.40198 1756.40198    9.51514    1.01514    0.00000    9.51514  512.88629    0.00000    0.00000    9.62500 1682.36365    0.82999    0.00000    0.00250 -447.50415    0.00000    0.00000  124.49583   64.67775
  125.00000   59.72766 -999.25000   57.16168  247.09872    9.95946 1772.50769 1772.50769    9.38024    0.88024    0.00000    9.38024  512.93939    0.00000    0.00000    9.62500 1688.81824    0.82999    0.00000    0.00250 -447.00793    0.00000    0.00000  124.99204   64.93750
  125.50000   54.71172 -999.25000   52.28860  247.09872    9.99048 1758.17932 1758.17932    9.41402    0.91402    0.00000    9.41402  512.99249    0.00000    0.00000    9.62500 1669.77271    0.82999    0.00000    0.00250 -446.50830    0.00000    0.00000  125.49167   65.19725
  126.00000   51.91843 -999.25000   49.73380  246.82242    9.94300 1762.51831 1762.51831    9.35783    0.85783    0.00000    9.35783  513.04565    0.00000    0.00000    9.62500 1700.84998    0.82999    0.00000    0.00250 -446.00125    0.00000    0.00000  125.99875   65.45700
  126.50000   45.97115 -999.25000   43.97574  247.26996    9.95851 1789.80713 1789.80713    9.39153    0.89153    0.00000    9.39153  513.09882    0.00000    0.00000    9.62500 1724.00012    0.82999    0.00000    0.00250 -445.50198    0.00000    0.00000  126.49802   65.71675
  127.00000   40.94498 -999.25000   39.11545  248.12030    9.98964 1755.89526 1755.89526    9.42407    0.92407    0.00000    9.42407  513.15198    0.00000    0.00000    9.62500 1670.70007    0.82999    0.00000    0.00250 -445.00330    0.00000    0.00000  126.99667   65.97650
  127.50000   40.14884 -999.25000   38.10783  248.07555    9.96674 1766.42883 1766.42883    9.58243    1.08243    0.00000    9.58243  513.20508    0.00000    0.00000    9.62500 1694.14282    0.82999    0.00000    0.00250 -444.50674    0.00000    0.00000  127.49326   66.23625
  128.00000   42.65205 -999.25000   40.48557  248.38882    9.96859 1778.70203 1778.70203    9.58135    1.08135    0.00000    9.58135  513.25818    0.00000    0.00000    9.62500 1711.25012    0.82999    0.00000    0.00250 -444.00833    0.00000    0.00000  127.99167   66.49600
  128.50000   48.57320 -999.25000   46.02026  248.70212    9.95612 1798.99939 1798.99939    9.62724    1.12724    0.00000    9.62724  513.31134    0.00000    0.00000    9.62500 1735.38098    0.82999    0.00000    0.00250 -443.50751    0.00000    0.00000  128.49246   66.75575
  129.00000   47.89386 -999.25000   45.96644  247.82126    9.97971 1789.63562 1789.63562    9.31146    0.81146    0.00000    9.31146  513.36450    0.00000    0.00000    9.62500 1726.60010    0.82987    0.00000    0.00250 -443.00415    0.00000    0.00000  128.99583   67.01550
  129.50000   48.55289 -999.25000   46.62059  247.67276    9.97104 1806.66809 1806.66809    9.30023    0.80023    0.00000    9.30023  513.41772    0.00000    0.00000    9.62500 1746.14282    0.82987    0.00000    0.00250 -442.50635    0.00000    0.00000  129.49365   67.27525
  130.00000   52.20414 -999.25000   49.91502  248.67566    9.97426 1836.09290 1836.09290    9.40282    0.90282    0.00000    9.40282  513.47095    0.00000    0.00000    9.62500 1778.80957    0.82987    0.00000    0.00250 -441.99997    0.00000    0.00000  130.00000   67.53500
  130.50000   58.75631 -999.25000   56.52343  247.94128    9.96407 1790.43347 1790.43347    9.25511    0.75511    0.00000    9.25511  513.52423    0.00000    0.00000    9.62500 1715.65015    0.82987    0.00000    0.00250 -441.50000    0.00000    0.00000  130.50000   67.79475
  131.00000   61.88345 -999.25000   59.84065  247.62799    9.96789 1778.65125 1778.65125    9.13082    0.63082    0.00000    9.13082  513.57745    0.00000    0.00000    9.62500 1701.90002    0.82987    0.00000    0.00250 -441.00412    0.00000    0.00000  130.99583   68.05450
  131.50000   63.14978 -999.25000   60.74643  248.02632    9.94905 1777.73120 1777.73120    9.25651    0.75651    0.00000    9.25651  513.63068    0.00000    0.00000    9.62500 1710.09998    0.82987    0.00000    0.00250 -440.50418    0.00000    0.00000  131.49583   68.31425
  132.00000   69.10613 -999.25000   66.47994  248.29118    9.97840 1795.01648 1795.01648    9.25511    0.75511    0.00000    9.25511  513.68384    0.00000    0.00000    9.62500 1731.00000    0.82987    0.00000    0.00250 -440.00119    0.00000    0.00000  131.99881   68.57400
