~Version ---------------------------------------------------
VERS.   2.0 : CWLS log ASCII Standard -VERSION 2.0
WRAP.    NO : One line per depth step
DLM . SPACE : Column Data Section Delimiter
~Well ------------------------------------------------------
STRT.ft              16.5 : START DEPTH
STOP.ft            1462.0 : STOP DEPTH
STEP.ft               0.5 : STEP
NULL.             -999.25 : NULL VALUE
COMP.                     : COMPANY
WELL.           Umiat #18 : WELL
FLD .       Linc_Umiat_18 : FIELD
LOC .                     : LOCATION
PROV.                     : PROVINCE
CNTY.                     : COUNTY
STAT.                     : STATE
CTRY.                     : COUNTRY
SRVC. TERRASCIENCES, Inc. : SERVICE COMPANY
DATE.                     : DATE
UWI .           Umiat #18 : UNIQUE WELL ID
API .           Umiat #18 : API NUMBER
~Curve Information -----------------------------------------
TDEP     .ft    : Measured Depth
DCSI6    .      : Data Copy Status Indicator for Waveform Array 6
DTCO3    .us/F  : Compressional Slowness from Measurement 3
DTCO     .us/F  : Delta-T Compressional
DTSH3    .us/F  : Shear Slowness from Measurement 3
DTSH5    .us/F  : Shear Slowness from Measurement 5
DTSH6    .us/F  : Shear Slowness from Measurement 6
DTSM     .us/F  : Delta-T Shear
DTSTE    .us/F  : The elastic Stoneley slowness
DTST     .us/F  : Delta-T Stoneley - Monopole Stoneley
DWF1     .      : Display Waveform Array 1 Monopole Upper Middle Frequency
DWF1_MONO.      : Display Waveform 1 Monopole Component
DWF2     .      : Display Waveform Array 2 Monopole Lower Middle Frequency
DWF2_MONO.      : Display Waveform 2 Monopole Component
DWF3     .      : Display Waveform Array 3 Monopole Far Middle Frequency
DWF3_MONO.      : Display Waveform 3 Monopole Component
DWF4_MONO.      : Display Waveform 4 Monopole Component
DWF5_DIIN.      : Display Waveform 5 Dipole Inline Component
DWF6_DIIN.      : Display Waveform 6 Dipole Inline Component
ITT      .s     : Integrated Transit Time
LQC_WF1  .      : Log Quality Control for Waveform Array Measurement 1
LQC_WF2  .      : Log Quality Control for Waveform Array Measurement 2
LQC_WF3  .      : Log Quality Control for Waveform Array Measurement 3
LQC_WF4  .      : Log Quality Control for Waveform Array Measurement 4
LQC_WF5  .      : Log Quality Control for Waveform Array Measurement 5
~Params ----------------------------------------------------
PROD   .            TerraStation II : 
PROG   .                         [] : 
RUN    .                         [] : 
DESCENT.                         [] : 
VERSION.                            : 
LINEAGE. Python-converted from DLIS : 
ORFILE .          DynamicImage.dlis : 
~Other -----------------------------------------------------
~ASCII -----------------------------------------------------
# ...
  683.50000    0.00000   85.36467   85.36467  165.14052  159.65027  160.21666  159.65027  242.61584  245.73068  -38.00000  -38.00000  -33.00000  -28.00000 -149.00000 -139.00000  168.00000  -11.00000    5.00000    0.16939    0.00000    0.00000    0.00000    0.00000    0.00000
  684.00000    0.00000   85.59348   85.59348  165.93344  161.56743  162.28719  161.56743  243.55530  245.84460   23.00000   33.00000  146.00000  149.00000  -56.00000  -81.00000 -144.00000   -2.00000    2.00000    0.16935    0.00000    0.00000    0.00000    0.00000    0.00000
  684.50000    0.00000   86.32031   86.32031  166.84988  162.79932  163.36292  162.79932  244.15918  246.01099  -19.00000  -10.00000  221.00000  218.00000 -108.00000 -112.00000  192.00000  -11.00000  -11.00000    0.16931    0.00000    0.00000    0.00000    0.00000    0.00000
  685.00000    0.00000   86.74924   86.74924  168.20200  163.03510  164.68187  163.03510  244.36862  246.13110  155.00000  164.00000   77.00000   80.00000  194.00000  164.00000   35.00000  -14.00000    0.00000    0.16927    0.00000    0.00000    0.00000    0.00000    0.00000
  685.50000    0.00000   87.62062   87.62062  168.48761  164.65257  164.89864  164.65257  245.11606  246.34605   85.00000   96.00000   51.00000   79.00000  154.00000  156.00000   71.00000    8.00000   -2.00000    0.16922    0.00000    0.00000    0.00000    0.00000    0.00000
  686.00000    0.00000   87.93649   87.93649  171.75426  168.25706  168.71935  168.25706  246.90953  246.60283    9.00000   21.00000  -50.00000  -45.00000   49.00000   47.00000   71.00000   -5.00000   -8.00000    0.16918    0.00000    0.00000    0.00000    0.00000    0.00000
  686.50000    0.00000   88.79992   88.79992  172.65331  169.65428  170.38187  169.65428  247.60747  247.21518   91.00000   95.00000   11.00000   22.00000   97.00000  114.00000  -59.00000   -2.00000    8.00000    0.16913    0.00000    0.00000    0.00000    0.00000    0.00000
  687.00000    0.00000   89.44523   89.44523  173.55237  171.27271  172.19984  171.27271  248.45311  247.36172  -77.00000  -63.00000   45.00000   59.00000   25.00000   25.00000  -47.00000  -14.00000   11.00000    0.16909    0.00000    0.00000    0.00000    0.00000    0.00000
  687.50000    0.00000   89.87717   89.87717  175.21802  172.71652  171.99323  172.71652  249.17458  247.65791   11.00000   30.00000   35.00000   50.00000   39.00000   42.00000    0.00000   -5.00000   -2.00000    0.16904    0.00000    0.00000    0.00000    0.00000    0.00000
  688.00000    0.00000   90.78995   90.78995  176.18126  174.34496  175.35909  174.34496  250.10452  247.78310    1.00000   15.00000   35.00000   46.00000 -166.00000 -148.00000  192.00000   -2.00000   -2.00000    0.16900    0.00000    0.00000    0.00000    0.00000    0.00000
  688.50000    0.00000   91.70902   91.70902  177.30197  175.57237  175.69295  175.57237  250.75696  248.27303   -7.00000    3.00000   -5.00000   -3.00000  -41.00000  -43.00000 -144.00000    0.00000   -2.00000    0.16895    0.00000    0.00000    0.00000    0.00000    0.00000
  689.00000    0.00000   91.57693   91.57693  178.42271  178.64612  175.27959  178.64612  252.47800  248.36311  185.00000  174.00000   70.00000   88.00000   56.00000   56.00000   95.00000    0.00000    5.00000    0.16891    0.00000    0.00000    0.00000    0.00000    0.00000
  689.50000    0.00000   91.53955   91.53955  179.54344  178.85371  176.36928  178.85371  252.63084  248.52602   27.00000   25.00000  -31.00000  -31.00000 -106.00000 -107.00000   35.00000    2.00000    2.00000    0.16886    0.00000    0.00000    0.00000    0.00000    0.00000
  690.00000    0.00000   91.81525   91.81525  180.66417  180.08549  178.38605  180.08549  253.38474  248.57751   81.00000   92.00000   19.00000   20.00000   52.00000   55.00000  277.00000  -32.00000    0.00000    0.16882    0.00000    0.00000    0.00000    0.00000    0.00000
  690.50000    0.00000   92.38033   92.38033  181.78490  180.18950  178.87877  180.18950  253.51335  248.74159  -59.00000  -51.00000   85.00000   82.00000   -3.00000   -4.00000  180.00000   -8.00000  -14.00000    0.16877    0.00000    0.00000    0.00000    0.00000    0.00000
  691.00000    0.00000   92.16132   92.16132  180.41483  177.56642  178.63860  177.56642  252.26245  248.77219   30.00000   35.00000   17.00000   36.00000  -22.00000  -14.00000   95.00000   -2.00000   -8.00000    0.16872    0.00000    0.00000    0.00000    0.00000    0.00000
  691.50000    0.00000   91.81138   91.81138 -999.25000  177.05594  178.58725  177.05594  251.97067  248.70845  131.00000  114.00000    0.00000   19.00000  126.00000  129.00000   47.00000    2.00000   -2.00000    0.16868    0.00000    0.00000    0.00000    0.00000    0.00000
  692.00000    0.00000   91.48717   91.48717 -999.25000  174.94380  175.80147  174.94380  250.72755  248.48122  -33.00000  -14.00000  -42.00000  -43.00000   30.00000   19.00000   95.00000   -2.00000    0.00000    0.16863    0.00000    0.00000    0.00000    0.00000    0.00000
  692.50000    0.00000   90.23926   90.23926 -999.25000  173.40186  174.87404  173.40186  249.93788  248.11963   42.00000   61.00000   66.00000   69.00000   49.00000   38.00000  -59.00000   -2.00000   -8.00000    0.16859    0.00000    0.00000    0.00000    0.00000    0.00000
  693.00000    0.00000   89.42216   89.42216 -999.25000  172.21355  172.75919  172.21355  249.46205  248.24139   53.00000   58.00000  221.00000  228.00000   45.00000   44.00000   11.00000    2.00000    0.00000    0.16854    0.00000    0.00000    0.00000    0.00000    0.00000
  693.50000    0.00000   88.77087   88.77087 -999.25000  170.91414  171.11424  170.91414  248.70294  247.96532  -47.00000  -39.00000   15.00000   19.00000   27.00000   20.00000   59.00000    8.00000    5.00000    0.16850    0.00000    0.00000    0.00000    0.00000    0.00000
  694.00000    0.00000   88.03197   88.03197 -999.25000  165.70892  167.02167  165.70892  246.03159  247.49411   67.00000   76.00000   86.00000   88.00000 -195.00000 -185.00000   23.00000  -11.00000   11.00000    0.16845    0.00000    0.00000    0.00000    0.00000    0.00000
  694.50000    0.00000   86.44517   86.44517 -999.25000  163.75874  165.03571  163.75874  244.50877  246.26971  -78.00000  -61.00000  107.00000  112.00000 -114.00000  -96.00000  108.00000   -5.00000   11.00000    0.16841    0.00000    0.00000    0.00000    0.00000    0.00000
  695.00000    0.00000   85.66776   85.66776 -999.25000  163.57004  163.71001  163.57004  244.32262  246.02855 -107.00000 -100.00000   63.00000   78.00000   29.00000   24.00000   47.00000  -11.00000    0.00000    0.16837    0.00000    0.00000    0.00000    0.00000    0.00000
  695.50000    0.00000   85.40875   85.40875 -999.25000  163.15094  162.39418  163.15094  244.11388  245.83067   41.00000   48.00000   -7.00000   22.00000   13.00000   -2.00000   71.00000    5.00000   -2.00000    0.16832    0.00000    0.00000    0.00000    0.00000    0.00000
  696.00000    0.00000   84.71159   84.71159 -999.25000  160.19971  161.64410  160.19971  242.80971  245.52678  181.00000  188.00000  -51.00000  -26.00000   56.00000   61.00000  -35.00000    8.00000   -2.00000    0.16828    0.00000    0.00000    0.00000    0.00000    0.00000
  696.50000    0.00000   84.66638   84.66638 -999.25000  159.84094  160.74158  159.84094  242.61241  245.07883   17.00000   21.00000  150.00000  163.00000  -61.00000  -72.00000  -23.00000   -5.00000    0.00000    0.16824    0.00000    0.00000    0.00000    0.00000    0.00000
  697.00000    0.00000   84.68082   84.68082 -999.25000  160.10637  160.81998  160.10637  242.67961  244.98442  -70.00000  -57.00000    5.00000   11.00000  114.00000  101.00000  132.00000   -2.00000   -2.00000    0.16820    0.00000    0.00000    0.00000    0.00000    0.00000
  697.50000    0.00000   85.84412   85.84412 -999.25000  163.08533  162.00468  163.08533  244.02963  244.94080   79.00000   81.00000  158.00000  160.00000 -190.00000 -185.00000   47.00000   -5.00000   -2.00000    0.16815    0.00000    0.00000    0.00000    0.00000    0.00000
