~Version ---------------------------------------------------
VERS.   2.0 : CWLS log ASCII Standard -VERSION 2.0
WRAP.    NO : One line per depth step
DLM . SPACE : Column Data Section Delimiter
~Well ------------------------------------------------------
STRT.ft              16.5 : START DEPTH
STOP.ft            1462.0 : STOP DEPTH
STEP.ft               0.5 : STEP
NULL.             -999.25 : NULL VALUE
COMP.                     : COMPANY
WELL.           Umiat #18 : WELL
FLD .       Linc_Umiat_18 : FIELD
LOC .                     : LOCATION
PROV.                     : PROVINCE
CNTY.                     : COUNTY
STAT.                     : STATE
CTRY.                     : COUNTRY
SRVC. TERRASCIENCES, Inc. : SERVICE COMPANY
DATE.                     : DATE
UWI .           Umiat #18 : UNIQUE WELL ID
API .           Umiat #18 : API NUMBER
~Curve Information -----------------------------------------
TDEP     .ft     : Measured Depth
QUAF2    .       : 
EHGR_EDTC.gAPI   : High Resolution Corrected Gamma Ray
HGR_EDTC .gAPI   : High Resolution Gamma Ray
HCAL     .in     : HRCC Caliper Calibrated
NPHI     .%/100  : Thermal Neutron Porosity (original Ratio Method) in Selected
GR       .gAPI   : Gamma Ray
AF10     .ohm.m  : Array Induction Four Foot Resistivity A10
AF20     .ohm.m  : Array Induction Four Foot Resistivity A20
AF30     .ohm.m  : Array Induction Four Foot Resistivity A30
AF60     .ohm.m  : Array Induction Four Foot Resistivity A60
AF90     .ohm.m  : Array Induction Four Foot Resistivity A90
AO10     .ohm.m  : Array Induction One Foot Resistivity A10
AO30     .ohm.m  : Array Induction One Foot Resistivity A30
AO60     .ohm.m  : Array Induction One Foot Resistivity A60
AO90     .ohm.m  : Array Induction One Foot Resistivity A90
AT10     .ohm.m  : Array Induction Two Foot Resistivity A10
AT20     .ohm.m  : Array Induction Two Foot Resistivity A20
AT30     .ohm.m  : Array Induction Two Foot Resistivity A30
AT60     .ohm.m  : Array Induction Two Foot Resistivity A60
AT90     .ohm.m  : Array Induction Two Foot Resistivity A90
HMIN     .ohm.m  : HIP Micro Inverse Resistivity
HMNO     .ohm.m  : HIP Micro Normal Resistivity
RXOZ     .ohm.m  : Invaded Formation Resistivity filtered at 18 inches
DPHZ     .%/100  : Standard Resolution Density Porosity
~Params ----------------------------------------------------
PROD   .            TerraStation II : 
PROG   .                         [] : 
RUN    .                         [] : 
DESCENT.                         [] : 
VERSION.                            : 
LINEAGE. Python-converted from DLIS : 
ORFILE .          DynamicImage.dlis : 
~Other -----------------------------------------------------
~ASCII -----------------------------------------------------
# ...
  524.00000 -999.25000   81.71024   80.19855    8.93680    0.24220   81.17990   53.23450   66.24250   90.98380   89.06760   84.26300   60.30810   94.40590   91.00010   97.72200   52.75830   70.45290   93.24420   91.32540   84.21650  313.57211  315.79819  716.24310    0.02800
  524.50000 -999.25000   79.82819   78.38343    8.93680    0.26430   84.23730   52.27190   64.69670   89.02730   87.70970   84.81670   35.63180   68.65300   70.90550   74.74600   47.79710   65.21300   89.80810   89.41290   81.44920   75.80490  108.16270 2314.60889    0.01010
  525.00000 -999.25000   90.69028   89.05608    8.96070    0.24420   79.95650   50.74930   63.00770   86.42840   85.21290   82.57680   52.06850   59.88160   59.33590   63.26960   52.46100   61.90940   84.56230   86.14920   78.47340  704.13538  635.15601 1088.30164   -0.00310
  525.50000 -999.25000   75.68595   74.31615    8.98460    0.22420   75.61820   49.22150   61.04630   83.07430   81.71760   79.87090   63.19450   84.79320   82.23900   86.82480   53.33100   67.33730   86.66250   85.61480   78.56070  405.61020  361.27271  507.76480   -0.01010
  526.00000 -999.25000   78.62405   77.24512    9.00860    0.23300   76.40440   47.38910   58.50440   79.03590   77.65210   76.62780   47.83810   82.77770   73.27970   77.11760   51.25690   64.91170   83.53730   80.96110   74.62350  325.59769  289.79230  559.85931    0.00450
  526.50000 -999.25000   92.83408   91.15392    9.00860    0.29010   81.90790   45.45050   56.09910   75.30220   73.39280   72.96690   34.95980   60.45790   55.15840   57.43060   43.93600   53.41800   69.75120   67.19510   63.97180  409.06940  389.01450  754.48743    0.01780
  527.00000 -999.25000   93.46410   91.73496    8.96070    0.31040   86.79940   43.65200   53.80470   71.56560   69.06950   69.37420   32.09860   47.25850   43.96180   45.83730   38.62500   47.95100   62.35660   61.29510   58.04380  434.76230  421.35300 2555.93115    0.02230
  527.50000 -999.25000   91.94513   90.28107    8.96070    0.28880   86.01320   42.11790   51.65990   68.24080   65.74380   66.84450   42.16640   67.99270   60.04020   63.08740   42.61460   53.78140   67.67730   64.30310   62.62370  423.83850  391.74811  226.45081    0.01340
  528.00000   18.00000   79.58418   78.15010    8.98460    0.24270   82.95560   40.19350   49.22580   64.38180   62.75630   64.30110   58.46190   84.00340   80.45020   84.45870   45.19250   59.03150   77.46710   75.98630   72.32850   64.01990   56.67170  125.98180    0.01410
  528.50000 -999.25000   81.57632   80.02259    8.98460    0.23260   86.82860   37.78420   45.77360   58.71330   58.12790   58.73630   51.44180   76.42880   79.34650   83.24350   43.48820   56.14250   69.79970   67.59720   66.86580   64.68480   57.26230  109.89670    0.01970
  529.00000 -999.25000   93.56732   91.92632    9.00860    0.25700   91.72050   34.78180   41.75690   53.46250   53.36330   54.02580   35.88120   52.53570   56.30150   58.83020   34.95650   43.12780   52.71000   52.08100   51.73090  185.05341  170.49800  281.62839    0.03160
  529.50000 -999.25000  109.72159  107.68375    8.98460    0.29010  105.43530   32.50490   38.64360   48.38860   48.77150   49.00880   24.28310   36.02810   38.13300   39.51330   29.69260   35.24710   42.94020   42.45740   43.54260  204.03461  219.82851 1009.68750    0.03480
  530.00000   18.00000  118.82964  116.46168    8.98460    0.34000  107.26950   30.75550   36.24610   45.06810   45.90610   46.50470   24.05100   32.86250   34.15360   35.30260   27.05430   31.75100   38.07730   38.00180   39.26540  456.79211  443.36151 3419.35229    0.03900
  530.50000 -999.25000  112.72823  110.42008    9.00860    0.34500  108.28830   29.92270   35.53930   44.05910   45.21460   45.70930   28.27780   39.29670   39.59540   40.96340   28.31300   34.52370   41.97140   42.89700   43.24190 1043.85974  947.34338  611.18127    0.03880
  531.00000 -999.25000  108.64348  106.32413    9.00860    0.35250   96.00080   30.00700   35.54960   43.51180   45.11150   45.71980   34.34860   48.81880   48.27120   50.07910   30.16320   36.36880   44.45830   47.10980   46.12020  114.40010  101.46580  183.78110    0.03530
  531.50000 -999.25000   96.74571   94.67316    9.08040    0.31530   91.51660   29.77990   35.29850   43.26420   44.97140   45.38840   35.25690   53.53820   55.91160   58.01420   32.03290   39.46490   48.30360   50.13370   50.53210   98.68510   87.48810  181.49690    0.02980
  532.00000   18.00000  108.22676  106.17316    9.08040    0.32430   91.74950   29.42180   34.58630   42.02020   43.60270   44.20610   30.94690   44.55670   47.65110   49.61020   31.34030   36.58760   43.51310   45.37780   45.84650   71.90410   99.55970  264.63040    0.02790
  532.50000 -999.25000  112.10738  109.91779    9.00860    0.32810   96.23350   28.23060   33.04560   39.94940   41.51400   42.09880   27.85190   39.91120   43.73930   45.43820   27.56700   32.67730   41.16750   42.69230   42.93600   73.64290  103.26800 2717.66235    0.02360
  533.00000 -999.25000  113.85593  111.58708    9.00860    0.34520   99.90200   27.14640   31.66220   38.11870   39.59330   39.95270   26.14410   36.69760   38.00730   39.34090   26.72460   31.61370   37.38780   38.80600   39.58520   72.00500  102.32220  165.89140    0.03110
  533.50000 -999.25000  110.30708  107.99654    9.03250    0.37150  104.35710   26.06820   30.31260   36.43280   37.74930   38.22760   25.66800   36.06040   34.17960   35.26840   25.25140   30.58920   35.50530   36.80110   36.99050   45.97780   40.65930   88.87610    0.03490
  534.00000   18.00000  126.96835  123.95941    9.08040    0.36680  109.86060   25.55430   29.62540   35.47000   36.65120   37.19290   24.28000   32.96630   32.83130   33.86100   24.67280   29.09060   34.22870   35.34790   35.50240   48.85070   43.20820   46.44360    0.03860
  534.50000 -999.25000  126.54532  123.90416    9.08040    0.36570  110.26850   25.47560   29.48400   35.08010   36.18530   36.49560   24.73370   31.94410   33.27760   34.32320   24.97730   28.93570   33.55590   34.59610   34.74340   31.42960   27.76880   54.72060    0.02810
  535.00000 -999.25000  119.99049  117.53364    9.05640    0.34740   99.87360   25.75730   29.86850   35.41640   36.44440   36.65840   26.27590   33.80010   34.40750   35.52760   26.52910   30.53670   35.10170   36.19690   35.84040   44.67220   41.12440   74.52290    0.02550
  535.50000 -999.25000  100.23194   98.23458    9.03250    0.34340   97.51500   26.13810   30.30880   35.96930   36.97520   37.39550   28.09220   35.73320   35.33990   36.49530   26.79340   31.61940   35.98680   37.04500   36.74920   70.57890   99.21490 1601.49255    0.02740
  536.00000   18.00000  114.45376  112.17299    9.00860    0.35790   96.08800   26.62500   31.02190   37.03660   38.11500   38.58380   24.83240   33.20630   32.75800   33.77870   25.31500   30.53590   35.82260   36.77110   36.84020 1022.00458  940.99768 3071.84546    0.03840
  536.50000 -999.25000  102.11916   99.84254    9.05640    0.33340  100.16460   27.58300   32.29360   38.71150   39.76950   40.77690   21.75590   34.19550   33.51240   34.59190   25.45720   31.50800   37.48220   38.54750   38.46390 1841.12378 1659.20679 3805.63062    0.03210
  537.00000 -999.25000  105.94950  103.53006    9.08040    0.31860   97.13630   28.82040   33.71640   40.54210   41.70170   42.49060   31.67970   40.37570   40.05050   41.54440   28.69480   34.13560   40.60280   41.57940   41.29960  464.77341  422.52039  722.52869    0.02530
  537.50000 -999.25000   94.94953   93.14844    9.09230    0.28710   98.56300   30.23540   35.39470   42.72940   43.70510   44.67910   39.79930   45.43980   45.50290   47.39750   34.09510   38.11810   43.89240   44.55830   44.63360  241.23230  224.54970  728.64673    0.02420
  538.00000   18.00000  114.27320  111.87959    9.08040    0.30960  100.80510   31.40350   36.84210   44.77340   45.74000   46.35690   29.97990   42.93180   42.86110   44.69760   31.97120   37.40610   45.48090   46.14270   46.20390  261.56351  269.22739  744.47992    0.03320
