~Version ---------------------------------------------------
VERS.   2.0 : CWLS log ASCII Standard -VERSION 2.0
WRAP.    NO : One line per depth step
DLM . SPACE : Column Data Section Delimiter
~Well ------------------------------------------------------
STRT.ft              16.5 : START DEPTH
STOP.ft            1462.0 : STOP DEPTH
STEP.ft               0.5 : STEP
NULL.             -999.25 : NULL VALUE
COMP.                     : COMPANY
WELL.           Umiat #18 : WELL
FLD .       Linc_Umiat_18 : FIELD
LOC .                     : LOCATION
PROV.                     : PROVINCE
CNTY.                     : COUNTY
STAT.                     : STATE
CTRY.                     : COUNTRY
SRVC. TERRASCIENCES, Inc. : SERVICE COMPANY
DATE.                     : DATE
UWI .           Umiat #18 : UNIQUE WELL ID
API .           Umiat #18 : API NUMBER
~Curve Information -----------------------------------------
TDEP     .ft     : Measured Depth
QUAF2    .       : 
EHGR_EDTC.gAPI   : High Resolution Corrected Gamma Ray
HGR_EDTC .gAPI   : High Resolution Gamma Ray
HCAL     .in     : HRCC Caliper Calibrated
NPHI     .%/100  : Thermal Neutron Porosity (original Ratio Method) in Selected
GR       .gAPI   : Gamma Ray
AF10     .ohm.m  : Array Induction Four Foot Resistivity A10
AF20     .ohm.m  : Array Induction Four Foot Resistivity A20
AF30     .ohm.m  : Array Induction Four Foot Resistivity A30
AF60     .ohm.m  : Array Induction Four Foot Resistivity A60
AF90     .ohm.m  : Array Induction Four Foot Resistivity A90
AO10     .ohm.m  : Array Induction One Foot Resistivity A10
AO30     .ohm.m  : Array Induction One Foot Resistivity A30
AO60     .ohm.m  : Array Induction One Foot Resistivity A60
AO90     .ohm.m  : Array Induction One Foot Resistivity A90
AT10     .ohm.m  : Array Induction Two Foot Resistivity A10
AT20     .ohm.m  : Array Induction Two Foot Resistivity A20
AT30     .ohm.m  : Array Induction Two Foot Resistivity A30
AT60     .ohm.m  : Array Induction Two Foot Resistivity A60
AT90     .ohm.m  : Array Induction Two Foot Resistivity A90
HMIN     .ohm.m  : HIP Micro Inverse Resistivity
HMNO     .ohm.m  : HIP Micro Normal Resistivity
RXOZ     .ohm.m  : Invaded Formation Resistivity filtered at 18 inches
DPHZ     .%/100  : Standard Resolution Density Porosity
~Params ----------------------------------------------------
PROD   .            TerraStation II : 
PROG   .                         [] : 
RUN    .                         [] : 
DESCENT.                         [] : 
VERSION.                            : 
LINEAGE. Python-converted from DLIS : 
ORFILE .          DynamicImage.dlis : 
~Other -----------------------------------------------------
~ASCII -----------------------------------------------------
# ...
  973.50000 -999.25000   65.33234   64.34201    9.00860    0.27650   52.99400   76.78710   86.67290  130.81750  117.76710  115.31260   76.46200  126.96400  107.21770  117.86240   76.90560   90.19040  129.83031  117.39420  111.37710   65.96720   91.74800 2599.46729    0.10170
  974.00000   16.00000   53.46765   52.68309    9.00860    0.27560   53.80920   76.71840   86.51630  130.71210  117.08940  115.81710   77.07110  126.83010  105.87080  116.23000   75.88700   88.55280  128.51160  116.07760  112.31490  823.64960  758.50952 2347.18213    0.09920
  974.50000 -999.25000   59.18021   58.27854    8.98460    0.25900   52.17870   76.71080   86.57280  131.00529  116.90310  116.04730   74.76320  117.83340   99.23430  108.80280   76.03310   88.18730  128.81709  115.63850  111.24740 1487.13782 1344.41248 3098.42627    0.10360
  975.00000 -999.25000   57.12524   56.28229    9.00860    0.25730   50.54810   76.81670   86.66030  131.10510  116.33490  116.37210   75.39620  123.53830  103.77260  113.86040   76.72390   89.72950  132.05569  117.42800  112.91030 2056.64868 1853.19446 3117.41187    0.11510
  975.50000 -999.25000   56.18880   55.35967    9.00860    0.25890   48.50980   77.11210   87.04140  131.91620  116.42420  116.43110   82.08690  141.28220  115.07940  126.62040   78.48910   92.50100  136.12331  118.72840  115.29250  855.93701  786.46588 2426.22949    0.12570
  976.00000   17.00000   47.86270   47.15643    9.00860    0.25240   44.84090   76.81630   86.55780  130.64670  115.76450  115.33530   77.11360  130.38429  105.08780  115.95170   78.00020   92.05310  134.99699  118.50720  113.71530  116.36550  138.14700 2135.31738    0.13400
  976.50000 -999.25000   46.03112   45.31127    8.98460    0.23250   45.24860   75.64320   84.98010  127.70440  113.00460  112.63640   79.12180  135.35291  111.57350  123.00450   77.60140   91.43800  132.69270  117.14420  111.02210 1018.27399  928.04199 2375.61060    0.13090
  977.00000 -999.25000   50.44921   49.66027    9.00860    0.22420   47.69460   73.94180   82.92450  124.02250  109.96990  109.56590   78.88950  132.17720  110.09800  120.94750   75.61700   88.01240  126.52220  110.89050  105.09920 1814.60791 1635.36731 3160.22461    0.12300
  977.50000 -999.25000   56.12510   55.26997    9.00860    0.21940   50.34420   72.04000   81.02840  120.13410  106.94840  106.61220   70.90050  109.79160   97.44850  106.43600   71.30530   80.52400  115.49770  104.72820   96.74880  806.58228  751.88849 3115.72998    0.10820
  978.00000   15.00000   47.62807   46.92526    8.98460    0.22730   52.58610   70.33130   79.44290  116.85310  104.64680  104.31150   65.32710   98.74090   84.94240   92.09500   68.39460   77.75140  111.28610   99.80690   94.76290  123.13170  145.68010 2745.85474    0.09740
  978.50000 -999.25000   53.82807   53.01236    9.00860    0.22680   52.79000   69.14740   78.23950  113.99360  102.72140  102.50630   69.13860  108.11520   92.21080  100.93560   68.93040   80.83490  113.18510  101.81860   97.10630  835.17517  768.75000 2632.05273    0.09400
  979.00000 -999.25000   59.45275   58.55180    9.00860    0.22530   55.64360   68.15480   76.98880  111.33350  101.14630  101.08860   70.44800  115.26440   96.46780  105.39140   69.08300   85.62180  116.25680  104.51890   99.55570 1328.06555 1205.60535 3194.76562    0.09320
  979.50000 -999.25000   49.43136   48.68227    9.00860    0.22290   56.45910   67.20830   75.54650  109.35220   99.95840  100.05830   67.06570  107.10580   85.14760   92.60970   68.15070   81.24670  111.80550  101.75090   97.38560 1859.08875 1681.22571 3447.62085    0.09460
  980.00000   18.00000   60.13811   59.19765    9.00860    0.21480   57.88590   66.57590   74.17800  107.46360   99.18980   99.47150   63.46970   95.41030   85.44380   92.87610   64.59470   72.76790  101.88230   94.08390   91.08340  193.03160  207.91690 3024.80347    0.08850
  980.50000 -999.25000   59.16210   58.29398    9.00860    0.21970   60.53530   66.73230   73.64400  106.79510   99.43880   99.78200   59.62110   90.35640   80.13700   87.37990   64.41880   69.68580   98.50230   91.98560   89.66540  416.05231  402.45059 2901.33789    0.08370
  981.00000 -999.25000   77.48209   76.33875    9.00860    0.22170   60.53530   67.26330   74.49980  108.29480  100.63620  101.23430   67.72910  103.71940   92.66110  101.88310   66.89890   74.52920  105.00170  100.34620   96.58570 1489.75085 1351.03662 3115.64722    0.07210
  981.50000 -999.25000   70.30937   69.23814    8.98460    0.24130   62.13690   67.90730   75.13140  109.79190  101.67180  103.12960   68.06550  110.88810  100.80930  111.47830   68.32780   77.92040  110.27280  101.96910  101.64390 1728.22607 1562.54993 3850.48169    0.06880
  982.00000   18.00000   66.14419   65.14184    9.00860    0.24680   58.17400   68.39170   76.46260  111.13200  103.24660  105.03980   69.22210  120.01360  107.70480  119.67210   69.56940   82.23700  117.51550  105.97340  109.30250 1152.62195 1058.24805 3355.44604    0.07260
  982.50000 -999.25000   55.93368   55.08606    9.00860    0.23870   58.37770   68.34560   77.13300  111.50570  103.86040  105.92270   71.96190  121.26070  103.44120  114.82090   70.45350   82.93930  118.86350  104.45100  109.58520   66.43280   92.97460 3006.21460    0.09290
  983.00000 -999.25000   49.46730   48.71768    9.00860    0.22710   52.90350   67.45600   76.53310  109.89390  102.36600  104.94140   70.17960  112.18390  100.50620  111.16130   69.89870   82.83000  115.43340  106.42590  108.85040   73.27740  102.97870 2817.85864    0.10240
  983.50000 -999.25000   46.05444   45.35653    8.98460    0.21800   52.38260   65.66010   74.18500  105.45420   99.19140  101.74150   69.24940  107.49110   93.58790  102.92600   67.52480   79.24340  108.64700  101.91400  102.72450 1147.61230 1048.06506 3177.90625    0.10430
  984.00000   16.00000   52.65455   51.85231    9.00860    0.21540   50.34440   63.52880   71.68950  100.34230   94.99230   97.23590   64.39240   95.63580   83.54330   91.26600   63.74820   74.07570  100.99720   95.28910   95.59550 1715.41968 1550.16711 3486.13965    0.09510
  984.50000 -999.25000   56.06226   55.20810    9.00860    0.20010   55.84760   61.60690   69.57660   96.47060   90.80600   92.94200   60.73340   89.77620   77.59090   84.33450   60.65340   71.05840   94.99220   90.13320   90.10310 1291.74805 1176.04102 3217.63501    0.09100
  985.00000 -999.25000   55.30235   54.46430    9.00860    0.20890   58.08930   60.22180   67.26240   92.43160   87.10660   89.32510   58.67440   85.26080   74.90340   81.14520   59.19330   68.19500   90.09680   86.12220   85.79950   71.83250  100.33100 2850.40747    0.08200
  985.50000 -999.25000   58.25038   57.36288    9.00860    0.21900   57.88560   59.41140   65.84620   89.86510   84.65350   86.49360   57.36260   82.91120   71.95330   77.80410   58.39500   66.44090   87.57740   83.12090   83.10830  693.54437  647.77972 2968.58350    0.07430
  986.00000   17.00000   52.73663   51.93314    9.00860    0.23490   55.03200   59.13830   65.32930   88.85170   83.33540   84.68710   57.04710   80.85270   73.23500   79.19610   58.05230   65.74280   86.37880   81.54370   81.11910 1852.71118 1673.80286 3557.78149    0.06890
  986.50000 -999.25000   52.57529   51.77857    9.00860    0.21780   55.23590   59.62020   65.35830   88.86650   82.95580   84.60160   57.06800   80.17230   75.32430   81.53220   58.55360   65.65440   86.25890   80.87070   79.89130 1768.17908 1603.20898 4030.53125    0.07140
  987.00000 -999.25000   65.36703   64.40816    9.00860    0.21400   55.03200   59.83830   65.76720   89.46390   83.20070   84.84670   60.71480   87.19050   78.07140   84.81840   60.17220   67.56930   89.76670   83.41640   82.75150   74.83160  105.71500 3426.52441    0.07260
  987.50000 -999.25000   50.11173   49.32423    9.00860    0.19730   53.40140   60.12380   66.24970   90.10840   83.52670   85.30540   67.71230   96.71050   86.94030   94.76380   61.45550   69.30590   92.81160   85.57120   83.76350   71.92220  101.04000 3138.28467    0.08240
