~Version ---------------------------------------------------
VERS.   2.0 : CWLS log ASCII Standard -VERSION 2.0
WRAP.    NO : One line per depth step
DLM . SPACE : Column Data Section Delimiter
~Well ------------------------------------------------------
STRT.ft              16.5 : START DEPTH
STOP.ft            1462.0 : STOP DEPTH
STEP.ft               0.5 : STEP
NULL.             -999.25 : NULL VALUE
COMP.                     : COMPANY
WELL.           Umiat #18 : WELL
FLD .       Linc_Umiat_18 : FIELD
LOC .                     : LOCATION
PROV.                     : PROVINCE
CNTY.                     : COUNTY
STAT.                     : STATE
CTRY.                     : COUNTRY
SRVC. TERRASCIENCES, Inc. : SERVICE COMPANY
DATE.                     : DATE
UWI .           Umiat #18 : UNIQUE WELL ID
API .           Umiat #18 : API NUMBER
~Curve Information -----------------------------------------
TDEP     .ft     : Measured Depth
ECGR_EDTC.gAPI   : Environmentally Corrected Gamma Ray
GDEV_EDTC.deg    : EDTC Hole Deviation from Gravity
GR_EDTC  .gAPI   : Gamma Ray
HV       .V      : Head Voltage
RAZ_EDTC .       : EDTC Raw Z-Axis Acceleration Data
CDF      .lbf    : Calibrated Downhole Force
DF       .lbf    : Uncalibrated Downhole Force
HDAR     .in     : Hole Diameter from Area
DCAL     .in     : Differential Caliper
AZIM     .deg    : Measured Azimuth
GHD      .in     : Borehole Diameter
BHRM     .ohm.m  : Borehole Mud Resistivity
ED       .ft     : East Departure
DLS      .       : Dog Leg Severity
FCD      .in     : Future Casing Diameter
TENS     .lbf    : Cable Tension
ICV      .cuft   : Integrated Cement Volume
ND       .ft     : North Departure
FF       .       : Formation Factor
TVDSS    .ft     : Sub-sea TVD: True Vertical Depth measured from Mean Sea Leve
TDSP     .ft     : Total Displacement (of survey measure point from vertical)
INCL     .deg    : Hole inclination
X        .ft     : Depth Index
BHPR     .psi    : Borehole Pressure
~Params ----------------------------------------------------
PROD   .            TerraStation II : 
PROG   .                         [] : 
RUN    .                         [] : 
DESCENT.                         [] : 
VERSION.                            : 
LINEAGE. Python-converted from DLIS : 
ORFILE .          DynamicImage.dlis : 
~Other -----------------------------------------------------
~ASCII -----------------------------------------------------
# ...
 1452.00000  101.17092    3.85305   99.98492  247.80075    9.94986 1798.85144 1798.85144    8.50000    0.00000    0.00000    8.50000  707.23840    0.00000    0.00000    9.62500 2254.85107    0.00000    0.00000    0.00250  879.99768    0.00000    0.00000 1451.99768  754.31403
 1452.50000  101.17092    3.87990   99.98492  247.62160    9.94429 1795.19519 1795.19519    8.50000    0.00000    0.00000    8.50000  707.33929    0.00000    0.00000    9.62500 2239.08350    0.00000    0.00000    0.00250  880.49744    0.00000    0.00000 1452.49744  754.57373
 1453.00000  101.17092    3.90575   99.98492  247.40602    9.93074 1781.56702 1781.56702    8.50000    0.00000    0.00000    8.50000  707.44031    0.00000    0.00000    9.62500 2239.02100    0.00000    0.00000    0.00250  881.00226    0.00000    0.00000 1453.00220  754.83350
 1453.50000  101.17092    3.88499   99.98492  247.42979    9.94309 1783.80469 1783.80469    8.50000    0.00000    0.00000    8.50000  707.54132    0.00000    0.00000    9.62500 2245.42554    0.00000    0.00000    0.00250  881.49707    0.00000    0.00000 1453.49695  755.09326
 1454.00000  101.17092    3.91562   99.98492  248.40225    9.94353 1776.24878 1776.24878    8.50000    0.00000    0.00000    8.50000  707.64240    0.00000    0.00000    9.62500 2235.58325    0.00000    0.00000    0.00250  881.99756    0.00000    0.00000 1453.99756  755.35303
 1454.50000  101.17092    3.88675   99.98492  248.69572    9.93676 1776.36096 1776.36096    8.50000    0.00000    0.00000    8.50000  707.74347    0.00000    0.00000    9.62500 2233.44678    0.00000    0.00000    0.00250  882.49805    0.00000    0.00000 1454.49805  755.61273
 1455.00000  101.17092    3.87747   99.98492  248.12030    9.93820 1781.18835 1781.18835    8.50000    0.00000    0.00000    8.50000  707.84460    0.00000    0.00000    9.62500 2229.78735    0.00000    0.00000    0.00250  882.99878    0.00000    0.00000 1454.99878  755.87250
 1455.50000  101.17092    3.91312   99.98492  252.53760    9.94622 1780.00269 1780.00269    8.50000    0.00000    0.00000    8.50000  707.94568    0.00000    0.00000    9.62500 2227.31909    0.00000    0.00000    0.00250  883.49811    0.00000    0.00000 1455.49805  756.13226
 1456.00000  101.17092    3.93791   99.98492  255.13002    9.93109 1771.27881 1771.27881    8.50000    0.00000    0.00000    8.50000  708.04688    0.00000    0.00000    9.62500 2214.68091    0.00000    0.00000    0.00250  883.99329    0.00000    0.00000 1455.99329  756.39203
 1456.50000  101.17092    3.96763   99.98492  255.46288    9.94970 1770.44202 1770.44202    8.50000    0.00000    0.00000    8.50000  708.14801    0.00000    0.00000    9.62500 2228.58691    0.00000    0.00000    0.00250  884.49084    0.00000    0.00000 1456.49072  756.65173
 1457.00000  101.17092    3.92421   99.98492  255.34540    9.93043 1762.45801 1762.45801    8.50000    0.00000    0.00000    8.50000  708.24921    0.00000    0.00000    9.62500 2215.82617    0.00000    0.00000    0.00250  884.99628    0.00000    0.00000 1456.99622  756.91150
 1457.50000  101.17092    3.94273   99.98492  254.62253    9.95436 1789.23157 1789.23157    8.50000    0.00000    0.00000    8.50000  708.35046    0.00000    0.00000    9.62500 2243.76611    0.00000    0.00000    0.00250  885.49524    0.00000    0.00000 1457.49524  757.17126
 1458.00000  101.17092    3.87773   99.98492  246.80843    9.92531 1783.85461 1783.85461    8.50000    0.00000    0.00000    8.50000  708.45178    0.00000    0.00000    9.62500 2253.48950    0.00000    0.00000    0.00250  885.99329    0.00000    0.00000 1457.99329  757.43103
 1458.50000  101.17092    3.80493   99.98492  246.37766    9.94011 1779.64783 1779.64783    8.50000    0.00000    0.00000    8.50000  708.55310    0.00000    0.00000    9.62500 2254.34790    0.00000    0.00000    0.00250  886.49481    0.00000    0.00000 1458.49475  757.69073
 1459.00000  101.17092    3.72378   99.98492  246.47556    9.96268 1711.39185 1711.39185    8.50000    0.00000    0.00000    8.50000  708.65442    0.00000    0.00000    9.62500 2118.43481    0.00000    0.00000    0.00250  886.99261    0.00000    0.00000 1458.99255  757.95050
 1459.50000  101.17092    3.56442   99.98492  247.10046    9.94545 1407.30359 1407.30359    8.50000    0.00000    0.00000    8.50000  708.75580    0.00000    0.00000    9.62500 1736.06665    0.00000    0.00000    0.00250  887.49335    0.00000    0.00000 1459.49329  758.21027
 1460.00000  101.17092    3.89043   99.98492  247.26399    9.94061 1079.29016 1079.29016    8.50000    0.00000    0.00000    8.50000  708.85718    0.00000    0.00000    9.62500 1336.93018    0.00000    0.00000    0.00250  887.99554    0.00000    0.00000 1459.99548  758.46997
 1460.50000  101.17092    4.01571   99.98492  247.64116    9.94080  762.44995  762.44995    8.50000    0.00000    0.00000    8.50000  708.95856    0.00000    0.00000    9.62500  878.20001    0.00000    0.00000    0.00250  888.50195    0.00000    0.00000 1460.50195  758.72974
 1461.00000 -999.25000 -999.25000 -999.25000 -999.25000 -999.25000 -999.25000 -999.25000 -999.25000 -999.25000 -999.25000 -999.25000 -999.25000 -999.25000 -999.25000 -999.25000 -999.25000 -999.25000 -999.25000 -999.25000 -999.25000 -999.25000 -999.25000 -999.25000 -999.25000
 1461.50000 -999.25000 -999.25000 -999.25000 -999.25000 -999.25000 -999.25000 -999.25000 -999.25000 -999.25000 -999.25000 -999.25000 -999.25000 -999.25000 -999.25000 -999.25000 -999.25000 -999.25000 -999.25000 -999.25000 -999.25000 -999.25000 -999.25000 -999.25000 -999.25000
 1462.00000 -999.25000 -999.25000 -999.25000 -999.25000 -999.25000 -999.25000 -999.25000 -999.25000 -999.25000 -999.25000 -999.25000 -999.25000 -999.25000 -999.25000 -999.25000 -999.25000 -999.25000 -999.25000 -999.25000 -999.25000 -999.25000 -999.25000 -999.25000 -999.25000
