~Version ---------------------------------------------------
VERS.   2.0 : CWLS log ASCII Standard -VERSION 2.0
WRAP.    NO : One line per depth step
DLM . SPACE : Column Data Section Delimiter
~Well ------------------------------------------------------
STRT.ft              16.5 : START DEPTH
STOP.ft            1462.0 : STOP DEPTH
STEP.ft               0.5 : STEP
NULL.             -999.25 : NULL VALUE
COMP.                     : COMPANY
WELL.           Umiat #18 : WELL
FLD .       Linc_Umiat_18 : FIELD
LOC .                     : LOCATION
PROV.                     : PROVINCE
CNTY.                     : COUNTY
STAT.                     : STATE
CTRY.                     : COUNTRY
SRVC. TERRASCIENCES, Inc. : SERVICE COMPANY
DATE.                     : DATE
UWI .           Umiat #18 : UNIQUE WELL ID
API .           Umiat #18 : API NUMBER
~Curve Information -----------------------------------------
TDEP     .ft     : Measured Depth
ECGR_EDTC.gAPI   : Environmentally Corrected Gamma Ray
GDEV_EDTC.deg    : EDTC Hole Deviation from Gravity
GR_EDTC  .gAPI   : Gamma Ray
HV       .V      : Head Voltage
RAZ_EDTC .       : EDTC Raw Z-Axis Acceleration Data
CDF      .lbf    : Calibrated Downhole Force
DF       .lbf    : Uncalibrated Downhole Force
HDAR     .in     : Hole Diameter from Area
DCAL     .in     : Differential Caliper
AZIM     .deg    : Measured Azimuth
GHD      .in     : Borehole Diameter
BHRM     .ohm.m  : Borehole Mud Resistivity
ED       .ft     : East Departure
DLS      .       : Dog Leg Severity
FCD      .in     : Future Casing Diameter
TENS     .lbf    : Cable Tension
ICV      .cuft   : Integrated Cement Volume
ND       .ft     : North Departure
FF       .       : Formation Factor
TVDSS    .ft     : Sub-sea TVD: True Vertical Depth measured from Mean Sea Leve
TDSP     .ft     : Total Displacement (of survey measure point from vertical)
INCL     .deg    : Hole inclination
X        .ft     : Depth Index
BHPR     .psi    : Borehole Pressure
~Params ----------------------------------------------------
PROD   .            TerraStation II : 
PROG   .                         [] : 
RUN    .                         [] : 
DESCENT.                         [] : 
VERSION.                            : 
LINEAGE. Python-converted from DLIS : 
ORFILE .          DynamicImage.dlis : 
~Other -----------------------------------------------------
~ASCII -----------------------------------------------------
# ...
  393.50000   65.00099 -999.25000   62.55791  260.80829    9.96817 1841.15076 1841.15076    9.24467    0.74467    0.00000    9.24467  543.13074    0.00000    0.00000    9.62500 1885.38110    0.06186    0.00000    0.00250 -178.49683    0.00000    0.00000  393.50317  204.42325
  394.00000   65.94919 -999.25000   63.95100  261.63623    9.98004 1869.11755 1869.11755    9.06399    0.56399    0.00000    9.06399  543.19025    0.00000    0.00000    9.62500 1892.90002    0.06186    0.00000    0.00250 -178.00249    0.00000    0.00000  393.99750  204.68300
  394.50000   60.67516 -999.25000   58.92462  261.23547    9.94553 1868.36255 1868.36255    9.02850    0.52850    0.00000    9.02850  543.24982    0.00000    0.00000    9.62500 1898.90466    0.06186    0.00000    0.00250 -177.50792    0.00000    0.00000  394.49207  204.94275
  395.00000   58.72723 -999.25000   56.94786  261.09918    9.95714 1850.86853 1850.86853    9.06399    0.56399    0.00000    9.06399  543.30939    0.00000    0.00000    9.62500 1901.71423    0.06186    0.00000    0.00250 -176.99919    0.00000    0.00000  395.00079  205.20250
  395.50000   58.05244 -999.25000   56.24351  261.66269    9.97052 1853.96484 1853.96484    9.08517    0.58517    0.00000    9.08517  543.36896    0.00000    0.00000    9.62500 1890.84998    0.06186    0.00000    0.00250 -176.50749    0.00000    0.00000  395.49249  205.46225
  396.00000   57.03889    0.46604   55.17965  260.96490    9.96517 1865.42712 1865.42712    9.12057    0.62057    0.00000    9.12057  543.42853    0.00000    0.00000    9.62500 1913.09534    0.06186    0.00000    0.00250 -176.00316    0.00000    0.00000  395.99683  205.72202
  396.50000   60.99165 -999.25000   58.89596  260.65164    9.96842 1847.16113 1847.16113    9.16427    0.66427    0.00000    9.16427  543.48816    0.00000    0.00000    9.62500 1871.04993    0.06186    0.00000    0.00250 -175.50458    0.00000    0.00000  396.49542  205.98175
  397.00000   60.45439 -999.25000   58.29462  261.57724    9.97868 1852.44592 1852.44592    9.19822    0.69822    0.00000    9.19822  543.54779    0.00000    0.00000    9.62500 1897.33350    0.06186    0.00000    0.00250 -175.00832    0.00000    0.00000  396.99167  206.24150
  397.50000   62.29043 -999.25000   60.37428  261.59149    9.95470 1874.72083 1874.72083    9.07536    0.57536    0.00000    9.07536  543.60742    0.00000    0.00000    9.62500 1914.00012    0.06186    0.00000    0.00250 -174.50157    0.00000    0.00000  397.49841  206.50125
  398.00000   64.32357 -999.25000   62.52743  261.19275    9.95470 1876.55530 1876.55530    9.00584    0.50584    0.00000    9.00584  543.66705    0.00000    0.00000    9.62500 1916.90479    0.06186    0.00000    0.00250 -174.00078    0.00000    0.00000  397.99921  206.76100
  398.50000   62.93159 -999.25000   61.22854  261.53452    9.97981 1881.79089 1881.79089    8.98483    0.48483    0.00000    8.98483  543.72668    0.00000    0.00000    9.62500 1919.90479    0.06186    0.00000    0.00250 -173.49681    0.00000    0.00000  398.50317  207.02075
  399.00000   63.01541 -999.25000   61.28492  261.23343    9.96811 1867.54321 1867.54321    8.99457    0.49457    0.00000    8.99457  543.78638    0.00000    0.00000    9.62500 1891.35010    0.06186    0.00000    0.00250 -173.00249    0.00000    0.00000  398.99750  207.28050
  399.50000   64.55263 -999.25000   62.74976  260.68011    9.95344 1869.60693 1869.60693    9.00596    0.50596    0.00000    9.00596  543.84607    0.00000    0.00000    9.62500 1913.47620    0.06186    0.00000    0.00250 -172.50871    0.00000    0.00000  399.49127  207.54025
  400.00000   70.07230 -999.25000   68.14328  261.27820    9.98559 1881.82324 1881.82324    8.99621    0.49621    0.00000    8.99621  543.90582    0.00000    0.00000    9.62500 1913.19043    0.06186    0.00000    0.00250 -172.00633    0.00000    0.00000  399.99365  207.80000
  400.50000   71.31190 -999.25000   69.32026  261.00967    9.95581 1846.51782 1846.51782    9.00596    0.50596    0.00000    9.00596  543.96545    0.00000    0.00000    9.62500 1893.95239    0.06186    0.00000    0.00250 -171.50594    0.00000    0.00000  400.49405  208.05975
  401.00000   68.74898 -999.25000   66.72903  260.42380    9.96236 1866.16492 1866.16492    9.04149    0.54149    0.00000    9.04149  544.02521    0.00000    0.00000    9.62500 1905.52380    0.06186    0.00000    0.00250 -170.99800    0.00000    0.00000  401.00198  208.31950
  401.50000   62.55027 -999.25000   60.65850  261.32297    9.95727 1846.70398 1846.70398    9.06265    0.56265    0.00000    9.06265  544.08490    0.00000    0.00000    9.62500 1887.59998    0.06186    0.00000    0.00250 -170.50208    0.00000    0.00000  401.49792  208.57927
  402.00000   63.30341 -999.25000   61.41410  260.89371    9.95228 1883.58459 1883.58459    9.05286    0.55286    0.00000    9.05286  544.14465    0.00000    0.00000    9.62500 1934.95227    0.06186    0.00000    0.00250 -170.00912    0.00000    0.00000  401.99088  208.83900
  402.50000   62.36200 -999.25000   60.47190  260.59467    9.98305 1861.25269 1861.25269    9.06423    0.56423    0.00000    9.06423  544.20441    0.00000    0.00000    9.62500 1897.80945    0.06186    0.00000    0.00250 -169.50792    0.00000    0.00000  402.49207  209.09875
  403.00000   66.27349 -999.25000   64.33031  261.41248    9.97484 1867.96631 1867.96631    9.04000    0.54000    0.00000    9.04000  544.26422    0.00000    0.00000    9.62500 1917.04773    0.06186    0.00000    0.00250 -169.00514    0.00000    0.00000  402.99484  209.35851
  403.50000   64.22012 -999.25000   62.39234  260.89371    9.95825 1887.55957 1887.55957    9.01897    0.51897    0.00000    9.01897  544.32397    0.00000    0.00000    9.62500 1949.00000    0.06186    0.00000    0.00250 -168.49841    0.00000    0.00000  403.50159  209.61826
  404.00000   63.12100 -999.25000   61.32870  260.69638    9.94638 1883.52380 1883.52380    9.01734    0.51734    0.00000    9.01734  544.38385    0.00000    0.00000    9.62500 1926.39990    0.06186    0.00000    0.00250 -168.00458    0.00000    0.00000  403.99542  209.87801
  404.50000   61.76530 -999.25000   60.01150  261.10733    9.96865 1887.15564 1887.15564    9.01734    0.51734    0.00000    9.01734  544.44360    0.00000    0.00000    9.62500 1936.57141    0.06186    0.00000    0.00250 -167.51111    0.00000    0.00000  404.48889  210.13776
  405.00000   61.02356 -999.25000   59.25837  260.93643    9.98065 1910.57019 1910.57019    9.03034    0.53034    0.00000    9.03034  544.50342    0.00000    0.00000    9.62500 1949.33325    0.06186    0.00000    0.00250 -167.01151    0.00000    0.00000  404.98849  210.39751
  405.50000   63.12630 -999.25000   61.33385  260.47263    9.98051 1874.00977 1874.00977    9.01734    0.51734    0.00000    9.01734  544.56329    0.00000    0.00000    9.62500 1901.04761    0.06186    0.00000    0.00250 -166.50754    0.00000    0.00000  405.49246  210.65726
  406.00000   63.06194 -999.25000   61.26712  261.44907    9.98155 1869.26746 1869.26746    9.01897    0.51897    0.00000    9.01897  544.62317    0.00000    0.00000    9.62500 1919.85718    0.06186    0.00000    0.00250 -165.99959    0.00000    0.00000  406.00040  210.91701
  406.50000   65.09586    0.03426   63.24316  260.96490    9.96330 1895.76306 1895.76306    9.01897    0.51897    0.00000    9.01897  544.68298    0.00000    0.00000    9.62500 1941.75012    0.06186    0.00000    0.00250 -165.50540    0.00000    0.00000  406.49460  211.17673
  407.00000   63.98079 -999.25000   62.10455  260.76556    9.92213 1884.24719 1884.24719    9.04011    0.54011    0.00000    9.04011  544.74286    0.00000    0.00000    9.62500 1942.95239    0.06186    0.00000    0.00250 -165.01347    0.00000    0.00000  406.98651  211.43649
  407.50000   65.57509 -999.25000   63.52701  261.19275    9.97336 1899.09729 1899.09729    9.08695    0.58695    0.00000    9.08695  544.80273    0.00000    0.00000    9.62500 1949.80945    0.06186    0.00000    0.00250 -164.51387    0.00000    0.00000  407.48611  211.69624
