~Version ---------------------------------------------------
VERS.   2.0 : CWLS log ASCII Standard -VERSION 2.0
WRAP.    NO : One line per depth step
DLM . SPACE : Column Data Section Delimiter
~Well ------------------------------------------------------
STRT.ft              16.5 : START DEPTH
STOP.ft            1462.0 : STOP DEPTH
STEP.ft               0.5 : STEP
NULL.             -999.25 : NULL VALUE
COMP.                     : COMPANY
WELL.           Umiat #18 : WELL
FLD .       Linc_Umiat_18 : FIELD
LOC .                     : LOCATION
PROV.                     : PROVINCE
CNTY.                     : COUNTY
STAT.                     : STATE
CTRY.                     : COUNTRY
SRVC. TERRASCIENCES, Inc. : SERVICE COMPANY
DATE.                     : DATE
UWI .           Umiat #18 : UNIQUE WELL ID
API .           Umiat #18 : API NUMBER
~Curve Information -----------------------------------------
TDEP     .ft    : Measured Depth
DCSI6    .      : Data Copy Status Indicator for Waveform Array 6
DTCO3    .us/F  : Compressional Slowness from Measurement 3
DTCO     .us/F  : Delta-T Compressional
DTSH3    .us/F  : Shear Slowness from Measurement 3
DTSH5    .us/F  : Shear Slowness from Measurement 5
DTSH6    .us/F  : Shear Slowness from Measurement 6
DTSM     .us/F  : Delta-T Shear
DTSTE    .us/F  : The elastic Stoneley slowness
DTST     .us/F  : Delta-T Stoneley - Monopole Stoneley
DWF1     .      : Display Waveform Array 1 Monopole Upper Middle Frequency
DWF1_MONO.      : Display Waveform 1 Monopole Component
DWF2     .      : Display Waveform Array 2 Monopole Lower Middle Frequency
DWF2_MONO.      : Display Waveform 2 Monopole Component
DWF3     .      : Display Waveform Array 3 Monopole Far Middle Frequency
DWF3_MONO.      : Display Waveform 3 Monopole Component
DWF4_MONO.      : Display Waveform 4 Monopole Component
DWF5_DIIN.      : Display Waveform 5 Dipole Inline Component
DWF6_DIIN.      : Display Waveform 6 Dipole Inline Component
ITT      .s     : Integrated Transit Time
LQC_WF1  .      : Log Quality Control for Waveform Array Measurement 1
LQC_WF2  .      : Log Quality Control for Waveform Array Measurement 2
LQC_WF3  .      : Log Quality Control for Waveform Array Measurement 3
LQC_WF4  .      : Log Quality Control for Waveform Array Measurement 4
LQC_WF5  .      : Log Quality Control for Waveform Array Measurement 5
~Params ----------------------------------------------------
PROD   .            TerraStation II : 
PROG   .                         [] : 
RUN    .                         [] : 
DESCENT.                         [] : 
VERSION.                            : 
LINEAGE. Python-converted from DLIS : 
ORFILE .          DynamicImage.dlis : 
~Other -----------------------------------------------------
~ASCII -----------------------------------------------------
# ...
 1350.50000    0.00000   64.53522   64.53522  112.36552  112.04096  115.29444  112.04096  223.70631  237.55029   58.00000   71.00000   68.00000   76.00000    4.00000    3.00000   83.00000   -2.00000    2.00000    0.11420    0.00000    0.00000    0.00000    0.00000    0.00000
 1351.00000    0.00000   63.91364   63.91364  110.26967  111.82140  114.15492  111.82140  223.56709  237.40924  121.00000  134.00000   95.00000  105.00000   80.00000   83.00000 -156.00000    0.00000   11.00000    0.11417    0.00000    0.00000    0.00000    0.00000    0.00000
 1351.50000    0.00000   63.82203   63.82203  114.32128  111.34577  111.69588  111.34577  223.41928  237.87117   68.00000   76.00000   87.00000  101.00000   77.00000   79.00000   47.00000   -5.00000    5.00000    0.11414    0.00000    0.00000    0.00000    0.00000    0.00000
 1352.00000    0.00000   67.82173   67.82173  112.91956  111.72098  111.72658  111.72098  223.63301  238.24309    2.00000   11.00000  -14.00000   -6.00000  -24.00000  -18.00000  -71.00000   -2.00000    0.00000    0.11411    0.00000    0.00000    0.00000    0.00000    0.00000
 1352.50000    0.00000   64.44157   64.44157  118.80281  112.85768  111.98082  112.85768  225.11974  240.85970   71.00000   76.00000   58.00000   58.00000 -122.00000 -110.00000   59.00000   -2.00000    0.00000    0.11407    0.00000    0.00000    0.00000    0.00000    0.00000
 1353.00000    0.00000   69.04680   69.04680  119.73685  114.35236  113.01684  114.35236  225.23183  241.25385   63.00000   74.00000   26.00000   32.00000  -86.00000  -86.00000   59.00000   -8.00000    0.00000    0.11404    0.00000    0.00000    0.00000    0.00000    0.00000
 1353.50000    0.00000   69.88184   69.88184  126.89587  116.27869  114.82465  116.27869  225.42349  242.15341   63.00000   76.00000   69.00000   81.00000   11.00000   12.00000   35.00000  -14.00000   -2.00000    0.11401    0.00000    0.00000    0.00000    0.00000    0.00000
 1354.00000    0.00000   71.25864   71.25864  122.84917  118.90430  115.84495  118.90430  225.73827  242.36662   69.00000   80.00000   43.00000   52.00000   -3.00000    8.00000    0.00000   -2.00000    0.00000    0.11397    0.00000    0.00000    0.00000    0.00000    0.00000
 1354.50000    0.00000   73.33281   73.33281  126.80156  121.71470  118.90855  121.71470  227.76160  244.73988   46.00000   54.00000   15.00000   18.00000   11.00000    8.00000  120.00000    0.00000    0.00000    0.11394    0.00000    0.00000    0.00000    0.00000    0.00000
 1355.00000    0.00000   75.18852   75.18852  128.81233  124.83683  121.54974  124.83683  227.71135  244.91586   95.00000   98.00000   14.00000   18.00000  -18.00000  -19.00000   47.00000    0.00000    0.00000    0.11390    0.00000    0.00000    0.00000    0.00000    0.00000
 1355.50000    0.00000   76.36819   76.36819  129.98067  127.80740  128.23430  127.80740  229.62544  247.11607   -1.00000    0.00000    2.00000   15.00000   15.00000   15.00000   47.00000    0.00000    0.00000    0.11386    0.00000    0.00000    0.00000    0.00000    0.00000
 1356.00000    0.00000   76.77150   76.77150  132.44160  131.02637  128.08833  131.02637  230.75429  247.36636   26.00000   35.00000   99.00000  105.00000   25.00000   25.00000   35.00000    0.00000   -2.00000    0.11382    0.00000    0.00000    0.00000    0.00000    0.00000
 1356.50000    0.00000   76.68002   76.68002  134.61780  131.58727  128.82349  131.58727  230.33658  246.59978   23.00000   33.00000   41.00000   26.00000  -48.00000  -49.00000   95.00000    0.00000    0.00000    0.11378    0.00000    0.00000    0.00000    0.00000    0.00000
 1357.00000    0.00000   77.91454   77.91454  136.79401  132.95119  132.52025  132.95119  230.14464  247.70905   37.00000   48.00000    1.00000   12.00000  -40.00000  -38.00000  -35.00000   -5.00000    2.00000    0.11375    0.00000    0.00000    0.00000    0.00000    0.00000
 1357.50000    0.00000   78.58702   78.58702  136.22684  132.56035  134.55014  132.56035  230.69568  248.33629  111.00000  118.00000   31.00000   29.00000   18.00000   17.00000  -59.00000    0.00000   -2.00000    0.11371    0.00000    0.00000    0.00000    0.00000    0.00000
 1358.00000    0.00000   79.40321   79.40321  139.95840  134.10527  137.32365  134.10527  231.51492  248.90013   24.00000   29.00000   35.00000   41.00000   45.00000   45.00000   71.00000    2.00000    0.00000    0.11367    0.00000    0.00000    0.00000    0.00000    0.00000
 1358.50000    0.00000   79.03775   79.03775  139.78369  132.88423  136.97585  132.88423  231.36218  248.87753   33.00000   39.00000  -15.00000  -30.00000  -45.00000  -49.00000   11.00000   -5.00000    0.00000    0.11363    0.00000    0.00000    0.00000    0.00000    0.00000
 1359.00000    0.00000   78.51730   78.51730  140.01389  134.22562  136.17027  134.22562  230.53618  249.05112   78.00000   79.00000   13.00000   21.00000  -30.00000  -31.00000  120.00000   -2.00000    0.00000    0.11359    0.00000    0.00000    0.00000    0.00000    0.00000
 1359.50000    0.00000   78.91233   78.91233  139.48839  135.44154  137.37276  135.44154  230.21805  249.06848   -1.00000   11.00000    1.00000    7.00000    4.00000    5.00000   35.00000   -2.00000    0.00000    0.11355    0.00000    0.00000    0.00000    0.00000    0.00000
 1360.00000    0.00000   78.93183   78.93183  140.78935  135.28131  138.38763  135.28131  230.75551  249.04147    7.00000   11.00000  -35.00000  -25.00000  -20.00000  -18.00000   23.00000   -2.00000    0.00000    0.11351    0.00000    0.00000    0.00000    0.00000    0.00000
 1360.50000    0.00000   78.39066   78.39066  142.09032  133.18399  143.33217  133.18399  231.41982  248.56503  -33.00000  -16.00000   59.00000   62.00000   19.00000   23.00000  192.00000    0.00000    0.00000    0.11347    0.00000    0.00000    0.00000    0.00000    0.00000
 1361.00000    0.00000   78.37411   78.37411  139.26445  135.14505  144.21504  135.14505  232.16620  248.47006   10.00000   18.00000  123.00000  113.00000   -2.00000    0.00000   35.00000    5.00000    2.00000    0.11343    0.00000    0.00000    0.00000    0.00000    0.00000
 1361.50000    0.00000   78.56577   78.56577  142.57812  136.06897  145.76976  136.06897  232.10271  248.50534  -18.00000  -12.00000  -11.00000   -3.00000   20.00000   11.00000   11.00000   -2.00000    5.00000    0.11339    0.00000    0.00000    0.00000    0.00000    0.00000
 1362.00000    0.00000   79.27689   79.27689  144.11728  136.82359  148.33087  136.82359  232.64398  248.52945   85.00000   91.00000   19.00000   26.00000   20.00000   17.00000   35.00000    5.00000   -2.00000    0.11335    0.00000    0.00000    0.00000    0.00000    0.00000
 1362.50000    0.00000   80.22915   80.22915  145.65642  139.59718  150.09503  139.59718  234.17865  248.31880   -5.00000    0.00000   43.00000   39.00000    1.00000    4.00000   47.00000   -5.00000   -2.00000    0.11331    0.00000    0.00000    0.00000    0.00000    0.00000
 1363.00000    0.00000   80.26831   80.26831  146.85545  141.27145  150.14497  141.27145  234.78935  247.79436    0.00000   13.00000   45.00000   46.00000   -6.00000   -2.00000  -59.00000    0.00000    5.00000    0.11327    0.00000    0.00000    0.00000    0.00000    0.00000
 1363.50000    0.00000   80.33081   80.33081  144.24545  143.33080  149.93512  143.33080  235.41518  247.64635   57.00000   63.00000   81.00000   79.00000   14.00000   15.00000   71.00000   11.00000    2.00000    0.11323    0.00000    0.00000    0.00000    0.00000    0.00000
 1364.00000    0.00000   80.53933   80.53933 -999.25000  141.71881  150.32259  141.71881  234.78448  247.53098   68.00000   76.00000    3.00000   10.00000  -14.00000  -12.00000   47.00000    0.00000    5.00000    0.11319    0.00000    0.00000    0.00000    0.00000    0.00000
 1364.50000    0.00000   81.05793   81.05793 -999.25000  143.94786  150.75146  143.94786  235.74564  247.26476   79.00000   85.00000   15.00000   24.00000   64.00000   74.00000  -71.00000    0.00000    0.00000    0.11315    0.00000    0.00000    0.00000    0.00000    0.00000
