~Version ---------------------------------------------------
VERS.   2.0 : CWLS log ASCII Standard -VERSION 2.0
WRAP.    NO : One line per depth step
DLM . SPACE : Column Data Section Delimiter
~Well ------------------------------------------------------
STRT.ft              16.5 : START DEPTH
STOP.ft            1462.0 : STOP DEPTH
STEP.ft               0.5 : STEP
NULL.             -999.25 : NULL VALUE
COMP.                     : COMPANY
WELL.           Umiat #18 : WELL
FLD .       Linc_Umiat_18 : FIELD
LOC .                     : LOCATION
PROV.                     : PROVINCE
CNTY.                     : COUNTY
STAT.                     : STATE
CTRY.                     : COUNTRY
SRVC. TERRASCIENCES, Inc. : SERVICE COMPANY
DATE.                     : DATE
UWI .           Umiat #18 : UNIQUE WELL ID
API .           Umiat #18 : API NUMBER
~Curve Information -----------------------------------------
TDEP     .ft     : Measured Depth
QUAF2    .       : 
EHGR_EDTC.gAPI   : High Resolution Corrected Gamma Ray
HGR_EDTC .gAPI   : High Resolution Gamma Ray
HCAL     .in     : HRCC Caliper Calibrated
NPHI     .%/100  : Thermal Neutron Porosity (original Ratio Method) in Selected
GR       .gAPI   : Gamma Ray
AF10     .ohm.m  : Array Induction Four Foot Resistivity A10
AF20     .ohm.m  : Array Induction Four Foot Resistivity A20
AF30     .ohm.m  : Array Induction Four Foot Resistivity A30
AF60     .ohm.m  : Array Induction Four Foot Resistivity A60
AF90     .ohm.m  : Array Induction Four Foot Resistivity A90
AO10     .ohm.m  : Array Induction One Foot Resistivity A10
AO30     .ohm.m  : Array Induction One Foot Resistivity A30
AO60     .ohm.m  : Array Induction One Foot Resistivity A60
AO90     .ohm.m  : Array Induction One Foot Resistivity A90
AT10     .ohm.m  : Array Induction Two Foot Resistivity A10
AT20     .ohm.m  : Array Induction Two Foot Resistivity A20
AT30     .ohm.m  : Array Induction Two Foot Resistivity A30
AT60     .ohm.m  : Array Induction Two Foot Resistivity A60
AT90     .ohm.m  : Array Induction Two Foot Resistivity A90
HMIN     .ohm.m  : HIP Micro Inverse Resistivity
HMNO     .ohm.m  : HIP Micro Normal Resistivity
RXOZ     .ohm.m  : Invaded Formation Resistivity filtered at 18 inches
DPHZ     .%/100  : Standard Resolution Density Porosity
~Params ----------------------------------------------------
PROD   .            TerraStation II : 
PROG   .                         [] : 
RUN    .                         [] : 
DESCENT.                         [] : 
VERSION.                            : 
LINEAGE. Python-converted from DLIS : 
ORFILE .          DynamicImage.dlis : 
~Other -----------------------------------------------------
~ASCII -----------------------------------------------------
# ...
 1350.50000 -999.25000   70.46842   69.53292    8.88890    0.15390   62.16630   72.21290   84.38150  120.64830  108.82380  103.76450   83.68150  158.38580  125.21660  135.14549   81.18430   97.62040  141.73790  125.72230  113.00400 1511.17358 1375.48291 2031.32532   -0.01170
 1351.00000 -999.25000   63.23704   62.33635    8.88890    0.15310   64.61220   73.96560   87.29930  127.66040  114.54140  108.68530   89.59610  179.65640  147.87250  160.08650   86.11660  108.36450  158.02380  139.52870  123.75600  506.60461  451.72461  370.37079   -0.03140
 1351.50000 -999.25000   66.05128   65.17487    8.93680    0.14750   64.81580   71.86820   86.23170  127.05910  113.46290  107.70920   87.70740  170.09970  132.64740  142.85690   79.23560  101.63760  150.13060  126.79560  119.89310  125.80270  111.61850  223.88490   -0.02310
 1352.00000   15.00000   65.28790   64.39213    8.97270    0.16810   64.40810   67.64490   81.84750  119.75650  106.70220  102.53970   65.30460  106.09740   92.81870   99.16070   68.48160   86.25650  126.58710  109.80730  102.40140  164.10500  145.74060  237.71159   -0.00750
 1352.50000 -999.25000   66.76215   65.84375    8.96070    0.18680   66.85410   63.38500   76.09930  109.04930   98.15330   95.88750   59.26620   98.37360   83.17440   88.43000   62.19680   77.61670  107.82760   99.34070   91.97640  809.18671  722.71161  526.30701    0.01150
 1353.00000 -999.25000   68.73231   67.62646    9.24790    0.19960   65.83480   60.11350   71.07430   99.20070   90.06860   89.44980   55.64160   89.98540   77.05070   81.55600   56.60570   72.49320   98.90370   88.58640   84.98720 1332.03247 1218.95752 2701.91504    0.01480
 1353.50000 -999.25000   70.32677   68.26202    9.10430    0.19520   72.15380   57.32980   66.44600   90.81050   82.93280   83.09110   55.01150   81.22490   71.21820   75.03620   55.66190   66.85040   89.85670   81.54580   79.26890 1014.41168  914.20239  158.07930    0.01560
 1354.00000   16.00000   71.45510   70.16837    8.96070    0.18630   72.35740   54.02580   62.06090   82.95770   76.00560   76.07930   58.48520   90.42200   78.37250   82.92310   57.80600   69.24970   90.09940   80.95170   79.47330   52.26540   46.23770  100.44540    0.02630
 1354.50000 -999.25000   69.59795   68.14625    8.98460    0.17320   75.82240   50.21330   57.06610   74.61020   68.57090   68.57130   65.26310  100.04050   93.98060   98.55950   57.77810   67.88650   86.77270   77.81910   75.99010   60.03320   53.13000   81.58460    0.04190
 1355.00000 -999.25000   62.67733   61.42518    8.99660    0.16900   74.46330   45.91870   51.17750   65.74650   61.00630   60.89470   54.48720   72.35220   67.88030   71.32720   50.59700   56.54090   70.26490   65.48160   63.16670  164.03520  145.83690  184.73061    0.05290
 1355.50000 -999.25000   76.71774   74.68462    8.96070    0.20090   77.31700   41.83750   46.22320   58.56000   54.40090   54.09350   41.09140   56.21470   54.50180   56.89940   41.25410   46.11660   57.62280   52.52400   51.03410  238.79610  248.75240  447.65121    0.05370
 1356.00000 -999.25000   79.07462   77.30692    8.96070    0.24340   79.96670   38.40020   42.16720   52.81230   49.50220   49.08050   31.24760   40.23170   37.94640   39.32830   34.27780   38.09030   47.05030   43.90180   42.79840  227.41980  239.64841 3208.34814    0.04840
 1356.50000 -999.25000   89.03757   87.81216    8.98460    0.26240   85.40140   36.48140   39.82330   49.47640   46.79300   46.31120   32.58960   41.27240   38.57350   39.96200   32.37920   36.32320   44.49090   42.30150   40.44960  621.36060  588.51703 2528.08130    0.04740
 1357.00000 -999.25000   86.42967   82.90961    8.98460    0.27730   88.14190   35.80580   39.15310   48.39820   46.34450   45.45570   33.22400   44.08900   40.08380   41.51740   33.72080   37.42510   44.99530   43.11550   41.13110   71.32960   77.20150  194.53780    0.04060
 1357.50000 -999.25000   91.61890   89.65794    8.99660    0.26990   90.18020   36.15620   39.76760   49.06990   47.29880   46.54820   34.19360   43.94260   40.90270   42.45730   35.34280   39.32890   47.57060   47.28110   44.08870   53.52470   47.35500  122.87320    0.04010
 1358.00000 -999.25000   89.96078   88.60064    8.93680    0.28020   85.49260   37.30550   41.16780   50.83470   48.93640   48.39910   37.08800   50.14770   47.59840   49.61380   37.24070   41.90410   50.43120   48.80240   45.79170   97.14140   87.30940  136.10539    0.05300
 1358.50000 -999.25000   98.55795   97.68233    8.96070    0.25290   80.91780   38.36550   42.76970   52.95550   50.55360   50.20190   41.38070   52.95570   51.52280   53.89060   39.31020   44.64350   54.62330   51.08100   48.39390  493.01291  476.31161  777.76929    0.06990
 1359.00000 -999.25000   95.12257   90.79259    8.96070    0.25390   79.49070   39.32320   44.03000   54.71020   51.82720   51.81050   44.01240   58.47040   56.85220   59.60180   42.09060   48.21310   58.26010   54.64960   53.16820  345.37900  333.01379  225.77080    0.07920
 1359.50000 -999.25000   88.95959   81.02130    8.98460    0.25150   86.62480   39.73780   44.58330   55.59980   52.42560   52.50880   39.36430   58.91500   55.41480   58.17660   40.23470   48.11980   58.68490   54.43150   53.90850   63.47150   56.18450   84.05560    0.06470
 1360.00000 -999.25000   90.36286   85.23040    8.98460    0.25080   85.60540   39.54030   44.38480   55.50880   52.52170   52.61150   35.78640   53.33180   50.45480   52.84550   39.31800   45.66510   56.27660   52.28640   52.47470   32.95240   29.11680   59.39950    0.04270
 1360.50000 -999.25000   93.41392   92.00157    8.97270    0.24340   87.80220   38.82740   43.61370   54.62780   52.30310   52.36760   39.91840   54.99090   51.24250   53.74050   39.15620   45.21050   55.41260   51.85350   51.61200   60.24140   53.35290   87.45460    0.03640
 1361.00000 -999.25000   94.75870   93.41037    8.93680    0.25010   83.11420   37.85530   42.52830   53.26910   51.63360   51.42730   45.79100   59.18760   55.34090   58.06630   38.79560   44.91600   55.87760   54.09010   52.25210  368.66080  363.67929  375.15131    0.03910
 1361.50000 -999.25000   86.43622   84.06626    9.29580    0.26490   88.41340   36.85980   41.38920   51.80070   50.84440   50.61920   36.44630   50.62370   48.81400   51.14350   36.42900   41.68500   51.62080   50.34580   49.24710 2325.16724 2097.26489 1094.08691    0.04630
 1362.00000   16.00000   90.85772   88.74759    8.98460    0.27940   88.05120   36.03600   40.47280   50.60750   50.15650   49.56790   33.22790   45.28490   47.25340   49.42350   34.46570   38.80560   47.49540   48.54860   45.92270  148.00700  131.39951   74.36000    0.04430
 1362.50000 -999.25000  104.27061  102.88708    8.97270    0.26980   88.11940   35.50300   39.96740   49.93310   49.43400   48.95900   32.57040   45.07950   45.31030   47.41690   33.96920   37.89540   47.04100   47.04680   45.12910   23.61290   20.85630   54.52050    0.03610
 1363.00000 -999.25000  100.60690   99.42751    8.98460    0.24440   88.52700   35.27350   39.83530   49.71530   48.98210   48.96150   39.15440   49.23050   49.72510   52.11840   35.34750   40.62560   50.33410   49.14210   47.69010   51.37010   46.18450   58.67890    0.03030
 1363.50000 -999.25000   95.27863   93.74632    9.00860    0.24410   91.38040   35.13040   39.83220   49.60340   48.73940   49.06710   39.66360   55.94000   56.73300   59.37200   36.81000   42.71960   52.62510   51.52860   50.73280   67.58320   95.20700  368.58310    0.03370
 1364.00000   18.00000   98.07813   96.39749    8.93680    0.25920   91.92390   34.89870   39.83440   49.47210   48.55710   49.13650   33.72560   48.72800   48.47730   50.78500   34.72190   40.69690   49.75550   48.52460   48.03630  650.58258  612.45258 2371.16919    0.04170
 1364.50000 -999.25000   94.63751   93.29877    8.93680    0.28490   94.36970   34.57190   39.68830   49.14630   48.18170   48.90400   30.64210   44.36180   43.97220   45.90670   33.71420   39.14780   47.35430   46.49610   45.65020  163.23151  145.78090  125.04080    0.05180
