~Version ---------------------------------------------------
VERS.   2.0 : CWLS log ASCII Standard -VERSION 2.0
WRAP.    NO : One line per depth step
DLM . SPACE : Column Data Section Delimiter
~Well ------------------------------------------------------
STRT.ft              16.5 : START DEPTH
STOP.ft            1462.0 : STOP DEPTH
STEP.ft               0.5 : STEP
NULL.             -999.25 : NULL VALUE
COMP.                     : COMPANY
WELL.           Umiat #18 : WELL
FLD .       Linc_Umiat_18 : FIELD
LOC .                     : LOCATION
PROV.                     : PROVINCE
CNTY.                     : COUNTY
STAT.                     : STATE
CTRY.                     : COUNTRY
SRVC. TERRASCIENCES, Inc. : SERVICE COMPANY
DATE.                     : DATE
UWI .           Umiat #18 : UNIQUE WELL ID
API .           Umiat #18 : API NUMBER
~Curve Information -----------------------------------------
TDEP     .ft    : Measured Depth
DCSI6    .      : Data Copy Status Indicator for Waveform Array 6
DTCO3    .us/F  : Compressional Slowness from Measurement 3
DTCO     .us/F  : Delta-T Compressional
DTSH3    .us/F  : Shear Slowness from Measurement 3
DTSH5    .us/F  : Shear Slowness from Measurement 5
DTSH6    .us/F  : Shear Slowness from Measurement 6
DTSM     .us/F  : Delta-T Shear
DTSTE    .us/F  : The elastic Stoneley slowness
DTST     .us/F  : Delta-T Stoneley - Monopole Stoneley
DWF1     .      : Display Waveform Array 1 Monopole Upper Middle Frequency
DWF1_MONO.      : Display Waveform 1 Monopole Component
DWF2     .      : Display Waveform Array 2 Monopole Lower Middle Frequency
DWF2_MONO.      : Display Waveform 2 Monopole Component
DWF3     .      : Display Waveform Array 3 Monopole Far Middle Frequency
DWF3_MONO.      : Display Waveform 3 Monopole Component
DWF4_MONO.      : Display Waveform 4 Monopole Component
DWF5_DIIN.      : Display Waveform 5 Dipole Inline Component
DWF6_DIIN.      : Display Waveform 6 Dipole Inline Component
ITT      .s     : Integrated Transit Time
LQC_WF1  .      : Log Quality Control for Waveform Array Measurement 1
LQC_WF2  .      : Log Quality Control for Waveform Array Measurement 2
LQC_WF3  .      : Log Quality Control for Waveform Array Measurement 3
LQC_WF4  .      : Log Quality Control for Waveform Array Measurement 4
LQC_WF5  .      : Log Quality Control for Waveform Array Measurement 5
~Params ----------------------------------------------------
PROD   .            TerraStation II : 
PROG   .                         [] : 
RUN    .                         [] : 
DESCENT.                         [] : 
VERSION.                            : 
LINEAGE. Python-converted from DLIS : 
ORFILE .          DynamicImage.dlis : 
~Other -----------------------------------------------------
~ASCII -----------------------------------------------------
# ...
 1452.00000    0.00000   83.29239   83.29239 -999.25000  237.02727  160.48181  237.02727  288.31183  250.06757   23.00000   26.00000   21.00000   24.00000   14.00000   15.00000   23.00000   -2.00000    0.00000    0.11085    0.00000    0.00000    0.00000    0.00000    0.00000
 1452.50000    0.00000   83.29239   83.29239 -999.25000  237.02727  160.48181  237.02727  288.31183  250.06757   23.00000   26.00000   21.00000   24.00000   14.00000   15.00000   23.00000   -2.00000    0.00000    0.11085    0.00000    0.00000    0.00000    0.00000    0.00000
 1453.00000    0.00000   83.29239   83.29239 -999.25000  237.02727  160.48181  237.02727  288.31183  250.06757   23.00000   26.00000   21.00000   24.00000   14.00000   15.00000   23.00000   -2.00000    0.00000    0.11085    0.00000    0.00000    0.00000    0.00000    0.00000
 1453.50000    0.00000   83.29239   83.29239 -999.25000  237.02727  160.48181  237.02727  288.31183  250.06757   23.00000   26.00000   21.00000   24.00000   14.00000   15.00000   23.00000   -2.00000    0.00000    0.11085    0.00000    0.00000    0.00000    0.00000    0.00000
 1454.00000    0.00000   83.29239   83.29239 -999.25000  237.02727  160.48181  237.02727  288.31183  250.06757   23.00000   26.00000   21.00000   24.00000   14.00000   15.00000   23.00000   -2.00000    0.00000    0.11085    0.00000    0.00000    0.00000    0.00000    0.00000
 1454.50000    0.00000   83.29239   83.29239 -999.25000  237.02727  160.48181  237.02727  288.31183  250.06757   23.00000   26.00000   21.00000   24.00000   14.00000   15.00000   23.00000   -2.00000    0.00000    0.11085    0.00000    0.00000    0.00000    0.00000    0.00000
 1455.00000    0.00000   83.29239   83.29239 -999.25000  237.02727  160.48181  237.02727  288.31183  250.06757   23.00000   26.00000   21.00000   24.00000   14.00000   15.00000   23.00000   -2.00000    0.00000    0.11085    0.00000    0.00000    0.00000    0.00000    0.00000
 1455.50000    0.00000   83.29239   83.29239 -999.25000  237.02727  160.48181  237.02727  288.31183  250.06757   23.00000   26.00000   21.00000   24.00000   14.00000   15.00000   23.00000   -2.00000    0.00000    0.11085    0.00000    0.00000    0.00000    0.00000    0.00000
 1456.00000    0.00000   83.29239   83.29239 -999.25000  237.02727  160.48181  237.02727  288.31183  250.06757   23.00000   26.00000   21.00000   24.00000   14.00000   15.00000   23.00000   -2.00000    0.00000    0.11085    0.00000    0.00000    0.00000    0.00000    0.00000
 1456.50000    0.00000   83.29239   83.29239 -999.25000  237.02727  160.48181  237.02727  288.31183  250.06757   23.00000   26.00000   21.00000   24.00000   14.00000   15.00000   23.00000   -2.00000    0.00000    0.11085    0.00000    0.00000    0.00000    0.00000    0.00000
 1457.00000    0.00000   83.29239   83.29239 -999.25000  237.02727  160.48181  237.02727  288.31183  250.06757   23.00000   26.00000   21.00000   24.00000   14.00000   15.00000   23.00000   -2.00000    0.00000    0.11085    0.00000    0.00000    0.00000    0.00000    0.00000
 1457.50000    0.00000   83.29239   83.29239 -999.25000  237.02727  160.48181  237.02727  288.31183  250.06757   23.00000   26.00000   21.00000   24.00000   14.00000   15.00000   23.00000   -2.00000    0.00000    0.11085    0.00000    0.00000    0.00000    0.00000    0.00000
 1458.00000    0.00000   83.29239   83.29239 -999.25000  237.02727  160.48181  237.02727  288.31183  250.06757   23.00000   26.00000   21.00000   24.00000   14.00000   15.00000   23.00000   -2.00000    0.00000    0.11085    0.00000    0.00000    0.00000    0.00000    0.00000
 1458.50000    0.00000   83.29239   83.29239 -999.25000  237.02727  160.48181  237.02727  288.31183  250.06757   23.00000   26.00000   21.00000   24.00000   14.00000   15.00000   23.00000   -2.00000    0.00000    0.11085    0.00000    0.00000    0.00000    0.00000    0.00000
 1459.00000    0.00000   83.29239   83.29239 -999.25000  237.02727  160.48181  237.02727  288.31183  250.06757   23.00000   26.00000   21.00000   24.00000   14.00000   15.00000   23.00000   -2.00000    0.00000    0.11085    0.00000    0.00000    0.00000    0.00000    0.00000
 1459.50000    0.00000   83.29239   83.29239 -999.25000  237.02727  160.48181  237.02727  288.31183  250.06757   23.00000   26.00000   21.00000   24.00000   14.00000   15.00000   23.00000   -2.00000    0.00000    0.11085    0.00000    0.00000    0.00000    0.00000    0.00000
 1460.00000    0.00000   83.29239   83.29239 -999.25000  237.02727  160.48181  237.02727  288.31183  250.06757   23.00000   26.00000   21.00000   24.00000   14.00000   15.00000   23.00000   -2.00000    0.00000    0.11085    0.00000    0.00000    0.00000    0.00000    0.00000
 1460.50000    0.00000   83.29239   83.29239 -999.25000  237.02727  160.48181  237.02727  288.31183  250.06757   23.00000   26.00000   21.00000   24.00000   14.00000   15.00000   23.00000   -2.00000    0.00000    0.11085    0.00000    0.00000    0.00000    0.00000    0.00000
 1461.00000 -999.25000 -999.25000 -999.25000 -999.25000 -999.25000 -999.25000 -999.25000 -999.25000 -999.25000 -999.25000 -999.25000 -999.25000 -999.25000 -999.25000 -999.25000 -999.25000 -999.25000 -999.25000 -999.25000 -999.25000 -999.25000 -999.25000 -999.25000 -999.25000
 1461.50000 -999.25000 -999.25000 -999.25000 -999.25000 -999.25000 -999.25000 -999.25000 -999.25000 -999.25000 -999.25000 -999.25000 -999.25000 -999.25000 -999.25000 -999.25000 -999.25000 -999.25000 -999.25000 -999.25000 -999.25000 -999.25000 -999.25000 -999.25000 -999.25000
 1462.00000 -999.25000 -999.25000 -999.25000 -999.25000 -999.25000 -999.25000 -999.25000 -999.25000 -999.25000 -999.25000 -999.25000 -999.25000 -999.25000 -999.25000 -999.25000 -999.25000 -999.25000 -999.25000 -999.25000 -999.25000 -999.25000 -999.25000 -999.25000 -999.25000
