~Version ---------------------------------------------------
VERS.   2.0 : CWLS log ASCII Standard -VERSION 2.0
WRAP.    NO : One line per depth step
DLM . SPACE : Column Data Section Delimiter
~Well ------------------------------------------------------
STRT.ft              16.5 : START DEPTH
STOP.ft            1462.0 : STOP DEPTH
STEP.ft               0.5 : STEP
NULL.             -999.25 : NULL VALUE
COMP.                     : COMPANY
WELL.           Umiat #18 : WELL
FLD .       Linc_Umiat_18 : FIELD
LOC .                     : LOCATION
PROV.                     : PROVINCE
CNTY.                     : COUNTY
STAT.                     : STATE
CTRY.                     : COUNTRY
SRVC. TERRASCIENCES, Inc. : SERVICE COMPANY
DATE.                     : DATE
UWI .           Umiat #18 : UNIQUE WELL ID
API .           Umiat #18 : API NUMBER
~Curve Information -----------------------------------------
TDEP     .ft     : Measured Depth
QUAF2    .       : 
EHGR_EDTC.gAPI   : High Resolution Corrected Gamma Ray
HGR_EDTC .gAPI   : High Resolution Gamma Ray
HCAL     .in     : HRCC Caliper Calibrated
NPHI     .%/100  : Thermal Neutron Porosity (original Ratio Method) in Selected
GR       .gAPI   : Gamma Ray
AF10     .ohm.m  : Array Induction Four Foot Resistivity A10
AF20     .ohm.m  : Array Induction Four Foot Resistivity A20
AF30     .ohm.m  : Array Induction Four Foot Resistivity A30
AF60     .ohm.m  : Array Induction Four Foot Resistivity A60
AF90     .ohm.m  : Array Induction Four Foot Resistivity A90
AO10     .ohm.m  : Array Induction One Foot Resistivity A10
AO30     .ohm.m  : Array Induction One Foot Resistivity A30
AO60     .ohm.m  : Array Induction One Foot Resistivity A60
AO90     .ohm.m  : Array Induction One Foot Resistivity A90
AT10     .ohm.m  : Array Induction Two Foot Resistivity A10
AT20     .ohm.m  : Array Induction Two Foot Resistivity A20
AT30     .ohm.m  : Array Induction Two Foot Resistivity A30
AT60     .ohm.m  : Array Induction Two Foot Resistivity A60
AT90     .ohm.m  : Array Induction Two Foot Resistivity A90
HMIN     .ohm.m  : HIP Micro Inverse Resistivity
HMNO     .ohm.m  : HIP Micro Normal Resistivity
RXOZ     .ohm.m  : Invaded Formation Resistivity filtered at 18 inches
DPHZ     .%/100  : Standard Resolution Density Porosity
~Params ----------------------------------------------------
PROD   .            TerraStation II : 
PROG   .                         [] : 
RUN    .                         [] : 
DESCENT.                         [] : 
VERSION.                            : 
LINEAGE. Python-converted from DLIS : 
ORFILE .          DynamicImage.dlis : 
~Other -----------------------------------------------------
~ASCII -----------------------------------------------------
# ...
  799.50000 -999.25000   33.63370   33.08828    8.96070    0.24950   26.49700   86.33460  108.37400  214.72440  243.70270  282.18680   87.22340  217.84950  217.41969  308.92310   87.03360  112.97050  220.49249  251.11880  299.37219  311.72980  314.26929 3335.08447    0.18730
  800.00000   16.00000   31.18392   30.67823    8.96070    0.24950   30.36960   86.12730  108.19320  216.61490  248.01410  286.33670   86.78600  213.51199  194.58620  266.07330   86.42460  112.94680  220.53830  256.37741  296.15411  778.91260  724.38287 3171.98340    0.18660
  800.50000 -999.25000   24.06537   23.65197    8.98460    0.24440   31.38850   86.54500  108.77180  218.11960  249.71190  288.81860   87.12600  198.77670  192.17680  251.83459   85.91150  112.26280  219.85361  257.32840  287.63351  426.20670  415.60339 3072.77759    0.19250
  801.00000 -999.25000   28.35058   27.85227    8.98460    0.22770   28.53500   86.80690  109.18060  219.78909  248.99480  288.12491   85.18810  199.02490  186.43210  238.98940   85.99020  112.94370  220.61250  255.56520  278.19360   71.31170   99.29740 1873.40210    0.19110
  801.50000 -999.25000   29.92089   29.45245    8.97270    0.23530   27.31220   87.27360  109.87670  221.07320  247.10921  286.38339   84.95090  201.81700  194.01270  247.11140   87.55040  115.52090  220.86800  250.37030  268.63071  753.79773  680.45587 1625.57581    0.18860
  802.00000    8.00000   29.27196   28.77144    8.98460    0.24140   25.88560   87.88320  110.75830  222.69940  243.07080  283.21860   91.14480  191.60770  185.00620  234.60860   88.39750  115.44140  225.01961  244.42281  262.15341  561.37732  525.68951 1596.39307    0.18400
  802.50000 -999.25000   37.49755   36.87434    8.98460    0.24570   27.31240   88.92450  112.20040  226.76311  241.98520  281.53680   86.13530  188.87489  170.59900  219.07140   88.61890  114.07850  219.74181  236.13910  252.37090  341.51471  335.69330 2338.64868    0.18230
  803.00000 -999.25000   33.59033   33.02937    8.99660    0.23940   26.29340   90.11710  113.71940  229.06900  242.47391  282.00491   90.28540  211.22411  174.53210  227.36639   90.13540  119.07510  233.54790  241.73920  260.67911  588.41602  551.85181 2385.84131    0.18040
  803.50000 -999.25000   29.56622   28.75354    9.05640    0.24490   27.31240   91.15520  114.62810  233.52130  241.91341  281.16971   95.92440  211.11920  169.70689  220.55960   91.45210  121.45170  237.78690  253.33000  266.91959  550.97028  520.10962 2485.12646    0.17660
  804.00000    9.00000   26.47292   26.04355    8.94880    0.25180   28.12780   92.60300  115.73100  237.97800  244.87469  286.27121   96.29910  244.67931  188.49390  252.17850   94.00500  124.68910  247.43590  244.82381  271.79721  874.88031  800.79712 2566.13062    0.17960
  804.50000 -999.25000   31.43745   30.93011    8.96070    0.26240   31.59260   93.09850  116.20510  238.45200  251.39980  289.79120   92.64680  247.90871  198.91431  274.02802   94.28010  126.59440  254.40710  257.42099  287.12451 1158.52710 1055.93738 2564.99902    0.18670
  805.00000 -999.25000   24.61142   24.22411    8.96070    0.24680   34.24230   93.15080  113.96480  232.46330  246.61780  283.68909   94.81020  250.99580  214.76450  303.70200   93.65050  120.72530  243.60921  259.45581  284.56070 1075.43262  980.27448 2990.87354    0.19690
  805.50000 -999.25000   38.67196   38.06651    8.96070    0.23560   32.40780   92.82630  111.36110  224.45370  238.85809  273.73779   93.52260  231.41090  210.84380  301.15189   93.35440  115.90330  232.66310  251.55521  274.59259 1229.11475 1125.43469 3140.99536    0.19960
  806.00000   12.00000   27.73960   27.28969    8.93680    0.22590   30.36960   91.87290  109.00510  214.60381  226.81790  259.70160   92.53020  214.70889  214.47141  304.69171   92.48060  113.13920  219.68330  235.13110  255.88480  594.59869  564.22540 2806.40625    0.19070
  806.50000 -999.25000   28.39741   27.95275    8.93680    0.24480   28.12750   89.93490  107.05090  203.44231  211.68449  242.71280   93.56240  196.29230  204.15660  284.24380   90.71940  110.13410  206.78630  217.65140  236.21770  178.00110  191.80389 2194.38525    0.17830
  807.00000 -999.25000   23.29155   22.91378    8.93680    0.25500   28.53510   87.82040  105.01080  192.58389  196.05690  225.63390   89.16930  191.47211  189.74820  255.80000   89.45740  108.02430  197.55460  201.59801  217.64529  799.45569  731.67963 1997.47900    0.17170
  807.50000 -999.25000   25.33266   24.92179    8.93680    0.24960   31.38850   85.42630  101.88630  180.34570  179.22729  206.37711   91.49440  184.77480  166.51131  215.04750   88.21460  110.97020  186.78870  185.39920  198.81250 1207.69751 1094.19592 2401.95361    0.17270
  808.00000   15.00000   24.39285   24.00898    8.93680    0.22570   33.01900   82.84120   98.67000  169.09480  165.00160  189.52521   85.59010  158.65100  131.37140  162.37840   83.38620  104.41890  170.17329  163.31590  171.48470 1151.73511 1042.71619 1705.92090    0.17390
  808.50000 -999.25000   33.93037   33.49752    8.93680    0.20510   37.09570   80.27080   96.17350  159.30341  154.21271  176.23981   80.63920  147.24010  122.37050  147.24820   79.77560  100.12670  159.87041  153.95430  158.60490  338.07111  322.50009 1272.07129    0.15780
  809.00000 -999.25000   40.84199   40.31752    8.93680    0.19700   39.54160   77.95380   92.43670  150.90210  145.14810  164.10670   72.83930  131.57880  110.96040  131.40080   77.04890   95.71760  147.96471  140.24820  141.32230  548.21167  501.99380 1084.45129    0.13620
  809.50000 -999.25000   45.70735   45.01373    8.93680    0.20390   45.04490   76.03770   89.37830  143.90750  138.36870  154.15250   73.95920  126.54850  107.64190  126.73460   74.11100   92.31840  141.29980  134.53799  131.40010 1099.68689  982.89423 1488.28711    0.11790
  810.00000   16.00000   41.26345   40.65713    8.93680    0.21960   47.69440   74.77380   87.50270  140.47121  135.79800  148.62070   72.35820  122.37150  105.44280  123.50710   73.22210   88.78510  134.23050  131.55251  125.15220 1696.67163 1525.81921 1790.82275    0.12870
  810.50000 -999.25000   53.76596   52.95005    8.93680    0.25780   43.82190   75.05650   87.09140  140.71730  137.42171  147.90230   71.09610  116.64380  100.64130  117.00770   72.76560   84.91020  130.45360  126.31580  122.18750  310.75711  304.44421 1223.76013    0.16020
  811.00000 -999.25000   46.88438   46.15036    8.93680    0.28820   37.50330   76.15830   87.86010  143.72050  142.29590  150.80620   74.15160  133.07820  115.42850  136.66260   75.41070   90.38800  140.21970  137.02670  132.67300  452.03339  415.31311 1179.74304    0.18650
  811.50000 -999.25000   39.03394   38.44159    8.96070    0.29660   31.59250   77.71710   89.23150  148.35880  149.50259  156.67140   82.18580  154.17160  136.98160  164.28500   78.28550   92.75490  152.11230  155.65981  151.83890   63.23440   87.41250 1236.79871    0.18990
  812.00000   15.00000   31.53556   31.02408    8.93680    0.27210   29.55400   79.27760   91.05490  153.73061  158.03020  164.61369   80.76340  152.23531  144.95700  177.89461   80.38280   95.18300  157.04810  161.94460  160.26010  542.71478  506.23651 1626.32349    0.17620
  812.50000 -999.25000   30.65028   30.16793    8.96070    0.25640   31.47590   80.59810   92.04720  158.93919  166.46941  174.07080   77.13380  138.12540  148.06950  184.05400   80.72860   95.22840  161.72600  171.16040  174.77890  877.26752  787.51923 1420.26990    0.16310
  813.00000 -999.25000   41.71426   41.03769    8.93680    0.24940   30.25320   81.48160   93.27770  163.28391  173.15700  183.10710   81.96560  169.29179  170.57111  215.89799   81.66530   96.27490  167.65660  183.64729  188.39410 1186.73792 1060.85815 1410.70984    0.15810
  813.50000 -999.25000   42.47235   41.82782    8.93680    0.23280   32.49530   81.96770   94.43880  166.20940  176.69530  190.19991   84.60670  186.35280  185.78860  234.73911   83.27390  100.28740  176.11560  189.84419  206.16721 1123.36523 1005.20520 1300.42932    0.15630
