~Version ---------------------------------------------------
VERS.   2.0 : CWLS log ASCII Standard -VERSION 2.0
WRAP.    NO : One line per depth step
DLM . SPACE : Column Data Section Delimiter
~Well ------------------------------------------------------
STRT.ft              16.5 : START DEPTH
STOP.ft            1462.0 : STOP DEPTH
STEP.ft               0.5 : STEP
NULL.             -999.25 : NULL VALUE
COMP.                     : COMPANY
WELL.           Umiat #18 : WELL
FLD .       Linc_Umiat_18 : FIELD
LOC .                     : LOCATION
PROV.                     : PROVINCE
CNTY.                     : COUNTY
STAT.                     : STATE
CTRY.                     : COUNTRY
SRVC. TERRASCIENCES, Inc. : SERVICE COMPANY
DATE.                     : DATE
UWI .           Umiat #18 : UNIQUE WELL ID
API .           Umiat #18 : API NUMBER
~Curve Information -----------------------------------------
TDEP     .ft     : Measured Depth
QUAF2    .       : 
EHGR_EDTC.gAPI   : High Resolution Corrected Gamma Ray
HGR_EDTC .gAPI   : High Resolution Gamma Ray
HCAL     .in     : HRCC Caliper Calibrated
NPHI     .%/100  : Thermal Neutron Porosity (original Ratio Method) in Selected
GR       .gAPI   : Gamma Ray
AF10     .ohm.m  : Array Induction Four Foot Resistivity A10
AF20     .ohm.m  : Array Induction Four Foot Resistivity A20
AF30     .ohm.m  : Array Induction Four Foot Resistivity A30
AF60     .ohm.m  : Array Induction Four Foot Resistivity A60
AF90     .ohm.m  : Array Induction Four Foot Resistivity A90
AO10     .ohm.m  : Array Induction One Foot Resistivity A10
AO30     .ohm.m  : Array Induction One Foot Resistivity A30
AO60     .ohm.m  : Array Induction One Foot Resistivity A60
AO90     .ohm.m  : Array Induction One Foot Resistivity A90
AT10     .ohm.m  : Array Induction Two Foot Resistivity A10
AT20     .ohm.m  : Array Induction Two Foot Resistivity A20
AT30     .ohm.m  : Array Induction Two Foot Resistivity A30
AT60     .ohm.m  : Array Induction Two Foot Resistivity A60
AT90     .ohm.m  : Array Induction Two Foot Resistivity A90
HMIN     .ohm.m  : HIP Micro Inverse Resistivity
HMNO     .ohm.m  : HIP Micro Normal Resistivity
RXOZ     .ohm.m  : Invaded Formation Resistivity filtered at 18 inches
DPHZ     .%/100  : Standard Resolution Density Porosity
~Params ----------------------------------------------------
PROD   .            TerraStation II : 
PROG   .                         [] : 
RUN    .                         [] : 
DESCENT.                         [] : 
VERSION.                            : 
LINEAGE. Python-converted from DLIS : 
ORFILE .          DynamicImage.dlis : 
~Other -----------------------------------------------------
~ASCII -----------------------------------------------------
# ...
  611.00000 -999.25000   83.38646   81.87447    8.88890    0.25820   84.17920   52.72770   59.90500   83.29630   83.69950   84.07610   50.11160   70.48060   64.76110   70.50530   51.77030   58.66260   83.11650   82.30490   83.19210  772.64459  720.07330 3393.14648    0.03110
  611.50000 -999.25000   81.27591   79.69232    8.93680    0.26440   85.80940   52.42390   59.51250   82.51110   82.93380   83.30340   50.88940   80.12660   76.10700   83.36290   52.15060   61.71010   82.12820   86.57540   84.30520 1146.52466 1026.59827  594.23712    0.03440
  612.00000    9.00000   83.95671   82.44097    8.93680    0.25150   84.99410   51.73290   58.87430   80.95110   80.94740   81.65630   57.67690   88.09450   80.36960   87.79840   53.32810   63.66760   85.39970   86.27710   84.84730  180.98711  160.78030  399.24460    0.03480
  612.50000 -999.25000   87.46005   85.88107    8.93680    0.23900   84.81930   50.81270   57.28810   78.32870   78.10600   78.83510   50.91290   71.46740   69.31760   75.45840   51.98100   57.89330   79.57680   80.32860   79.78310  143.59830  138.62131  409.67270    0.03220
  613.00000 -999.25000  109.83098  107.83949    8.92480    0.23900   92.40610   49.57470   55.87110   76.06380   75.15170   76.28700   49.34230   73.00620   67.21070   72.96590   49.81310   57.01720   76.03970   74.48470   75.02040  267.73700  275.32141 2253.76074    0.03360
  613.50000 -999.25000   93.96752   92.27105    8.90090    0.24710   94.03690   48.32110   54.25540   73.70890   72.42470   74.07840   48.20320   72.57730   66.30180   71.60860   48.46790   56.29240   71.35110   70.59070   70.40060  599.03162  567.01788 3549.40820    0.03800
  614.00000   11.00000   85.68065   84.05196    8.91290    0.25810   94.00760   47.37310   53.35180   72.27420   70.44870   72.46380   46.45190   67.58300   61.49660   66.38560   46.55440   53.78650   69.66180   67.96390   67.56950  953.67200  861.95892 2174.48047    0.03810
  614.50000 -999.25000  102.80105  100.74901    8.96070    0.27560   96.61220   47.57210   53.67640   72.37260   69.95460   71.53430   41.96400   58.52810   54.62180   58.69230   44.17690   50.53540   66.00170   65.73060   64.10360 1253.07043 1121.10229  257.14291    0.03590
  615.00000 -999.25000   94.31483   92.47695    8.97270    0.29570   93.99160   48.93110   55.53410   74.76800   71.77300   72.88270   44.88170   65.38270   62.08080   66.96330   47.46020   54.79660   71.96970   69.29490   70.31810   74.54110   66.01830  159.69450    0.03540
  615.50000 -999.25000   93.44967   91.66607    8.96070    0.27940   89.30400   50.80860   58.00490   78.52780   75.34830   76.96940   47.32560   71.18110   64.92610   70.34190   50.21360   58.71760   79.26650   73.42290   76.67610  116.86330  103.65660  161.96761    0.03710
  616.00000   10.00000   90.84140   88.93499    8.93680    0.26090   83.80070   52.93350   60.87170   83.08940   80.33200   82.15430   52.46610   77.69730   67.79640   73.72610   53.83480   63.28820   83.94990   80.65210   81.30830  312.88449  313.73981  537.84613    0.04410
  616.50000 -999.25000   75.23885   73.69825    8.93680    0.23870   84.38270   55.35630   63.55270   87.47020   85.61390   88.71150   64.37810   98.01330   78.38140   86.13260   57.04610   67.65080   91.35390   92.31440   87.70400  489.51080  470.52451 3580.55566    0.04320
  617.00000 -999.25000   83.09165   81.35414    8.91290    0.22990   83.77120   57.69660   66.24380   92.05760   90.95510   94.69510   68.56130  113.60640   88.09510   98.09320   58.84470   69.20680   90.29990   94.09380   88.25180  635.01428  570.17670  814.17688    0.04450
  617.50000 -999.25000   96.97117   94.89735    8.96070    0.22490   81.73290   60.00020   68.86700   96.59690   94.01670   98.15160   60.16230   96.05860   85.01790   94.85330   60.13880   71.01060   97.34970   96.89740   95.70570  370.39169  329.79059  395.87299    0.04210
  618.00000    8.00000   98.89047   96.86216    8.98460    0.21770   79.49120   61.96450   70.35500   98.75130   94.95330  100.05340   59.51850   89.12610   93.09500  104.68590   61.71270   72.72740  101.11060   96.90690  102.46070  187.58070  166.65210  320.63370    0.04460
  618.50000 -999.25000   77.10622   75.59796    8.98460    0.21710   80.30600   62.48460   70.58250   99.81560   95.26740  100.66730   64.41430  102.35990   97.13290  109.99900   63.07850   71.53760  101.88280   96.04690   99.81760  364.93829  329.19849  454.25140    0.05000
  619.00000 -999.25000   80.35709   78.79140    8.92480    0.20650   79.89890   62.55940   70.75940  100.37610   94.81930  100.04290   64.75210  109.31190   96.50800  108.35360   64.03330   77.29270  104.76180   97.90970  100.67060   73.43940  103.94360 2150.49048    0.05090
  619.50000 -999.25000   88.74686   86.97536    8.93680    0.21490   79.49060   62.39540   70.77550  100.57760   94.69190   99.42470   62.60540   94.87540   82.99890   92.54940   63.27990   73.98900   97.89220   93.15370   95.19940  923.86517  856.04028 3800.84131    0.04090
  620.00000   11.00000   88.76279   86.85813    8.93680    0.22860   78.47170   62.33300   70.76650  100.95010   94.72220   98.58070   61.14680   91.86480   77.39110   85.82840   61.14300   73.24750   97.99070   90.95510   91.69270  623.27258  568.39539 1609.08154    0.03180
  620.50000 -999.25000   97.39915   95.35513    8.96070    0.24930   80.30600   62.74920   71.07060  101.91620   95.16610   98.84810   57.07320   89.25070   77.77480   86.44940   59.49190   67.06430   91.24830   91.52740   87.43690  590.46863  526.83398  267.18359    0.02700
  621.00000 -999.25000   81.66193   80.02564    8.98460    0.23090   81.73280   64.07320   72.71560  104.62160   98.23370   99.82420   60.59340   92.17800   80.67230   90.44870   63.50800   74.15910  104.89010   99.67370   97.45160  121.26470  107.57560  261.61359    0.04370
  621.50000 -999.25000   91.08011   89.17555    9.03250    0.21170   79.69480   66.25230   75.37420  110.33230  102.60300  103.45370   66.08540  103.87270   89.05600  100.53640   67.01290   78.03800  108.05130  100.73340   96.89170  184.51370  179.32420  282.00729    0.05930
  622.00000   14.00000   77.57150   75.76044    8.99660    0.19490   69.59100   68.46140   78.14690  116.60930  107.66290  108.78770   73.83590  123.28260   99.06030  111.84550   70.24660   87.96690  126.25600  113.34940  110.19150 1453.85486 1326.21094 3446.17407    0.06810
  622.50000 -999.25000   76.46980   74.68446    8.96070    0.19410   69.27410   70.72810   81.41990  124.54420  114.72790  115.52170   71.18980  120.96000   90.74900  102.10820   71.06580   82.55580  124.92250  116.06090  103.06410  898.25958  826.51282 2481.89478    0.05760
  623.00000 -999.25000   77.05539   75.22580    9.00860    0.19250   69.68150   73.88430   85.28740  134.05560  122.81940  123.98490   68.55370  113.06120   96.71850  109.22190   70.55950   84.87580  130.41980  119.90820  109.33800 1232.36743 1101.72485 1877.06433    0.05130
  623.50000 -999.25000   60.49780   59.06134    9.03250    0.19340   71.42840   77.87620   89.97710  145.15710  131.99890  133.19160   72.55740  117.91660   99.49680  115.05590   75.31480   83.53480  132.40680  123.32360  110.93090 1161.08374 1037.88220  547.60211    0.04930
  624.00000   17.00000   66.28866   64.92903    9.03250    0.19720   61.55420   82.75980   95.62860  156.87950  141.44250  143.20270   86.84000  158.76720  139.32829  168.36310   85.02270   96.64780  163.00020  146.66901  132.91110  255.56670  229.81090  587.93738    0.06560
  624.50000 -999.25000   67.60741   66.28496    8.98460    0.20570   57.68190   86.54890  101.24930  167.84540  150.62041  153.81039   98.03380  206.22060  175.33630  218.77721   95.28670  112.31900  182.24840  161.80550  148.27049  357.45999  346.66580  609.51703    0.07450
  625.00000 -999.25000   69.28559   67.89729    8.93680    0.21300   54.77000   86.58490  102.90110  172.97580  153.73140  155.77521   99.63230  235.88690  186.97380  230.68950  102.54470  134.72701  212.38989  188.77769  175.83630  338.94299  336.99670 1973.39941    0.07810
