~Version ---------------------------------------------------
VERS.   2.0 : CWLS log ASCII Standard -VERSION 2.0
WRAP.    NO : One line per depth step
DLM . SPACE : Column Data Section Delimiter
~Well ------------------------------------------------------
STRT.ft              16.5 : START DEPTH
STOP.ft            1462.0 : STOP DEPTH
STEP.ft               0.5 : STEP
NULL.             -999.25 : NULL VALUE
COMP.                     : COMPANY
WELL.           Umiat #18 : WELL
FLD .       Linc_Umiat_18 : FIELD
LOC .                     : LOCATION
PROV.                     : PROVINCE
CNTY.                     : COUNTY
STAT.                     : STATE
CTRY.                     : COUNTRY
SRVC. TERRASCIENCES, Inc. : SERVICE COMPANY
DATE.                     : DATE
UWI .           Umiat #18 : UNIQUE WELL ID
API .           Umiat #18 : API NUMBER
~Curve Information -----------------------------------------
TDEP     .ft     : Measured Depth
ECGR_EDTC.gAPI   : Environmentally Corrected Gamma Ray
GDEV_EDTC.deg    : EDTC Hole Deviation from Gravity
GR_EDTC  .gAPI   : Gamma Ray
HV       .V      : Head Voltage
RAZ_EDTC .       : EDTC Raw Z-Axis Acceleration Data
CDF      .lbf    : Calibrated Downhole Force
DF       .lbf    : Uncalibrated Downhole Force
HDAR     .in     : Hole Diameter from Area
DCAL     .in     : Differential Caliper
AZIM     .deg    : Measured Azimuth
GHD      .in     : Borehole Diameter
BHRM     .ohm.m  : Borehole Mud Resistivity
ED       .ft     : East Departure
DLS      .       : Dog Leg Severity
FCD      .in     : Future Casing Diameter
TENS     .lbf    : Cable Tension
ICV      .cuft   : Integrated Cement Volume
ND       .ft     : North Departure
FF       .       : Formation Factor
TVDSS    .ft     : Sub-sea TVD: True Vertical Depth measured from Mean Sea Leve
TDSP     .ft     : Total Displacement (of survey measure point from vertical)
INCL     .deg    : Hole inclination
X        .ft     : Depth Index
BHPR     .psi    : Borehole Pressure
~Params ----------------------------------------------------
PROD   .            TerraStation II : 
PROG   .                         [] : 
RUN    .                         [] : 
DESCENT.                         [] : 
VERSION.                            : 
LINEAGE. Python-converted from DLIS : 
ORFILE .          DynamicImage.dlis : 
~Other -----------------------------------------------------
~ASCII -----------------------------------------------------
# ...
  683.50000  118.52281    1.62702  115.87981  259.21054    9.94968 1833.34924 1833.34924    8.86957    0.36957    0.00000    8.86957  580.00305    0.00000    0.00000    9.62500 1967.57898    0.06186    0.00000    0.00250  111.48598    0.00000    0.00000  683.48596  355.07822
  684.00000  119.04587    1.58214  116.44779  259.35150    9.97093 1846.43164 1846.43164    8.85814    0.35814    0.00000    8.85814  580.07092    0.00000    0.00000    9.62500 1981.30005    0.06186    0.00000    0.00250  111.99375    0.00000    0.00000  683.99377  355.33798
  684.50000  125.37722    1.52918  122.63167  259.21054    9.95282 1833.13586 1833.13586    8.85992    0.35992    0.00000    8.85992  580.13885    0.00000    0.00000    9.62500 1965.26306    0.06186    0.00000    0.00250  112.50308    0.00000    0.00000  684.50305  355.59775
  685.00000  121.08981    1.50389  118.43814  259.16354    9.97540 1856.65210 1856.65210    8.85992    0.35992    0.00000    8.85992  580.20679    0.00000    0.00000    9.62500 1991.15784    0.06186    0.00000    0.00250  112.99519    0.00000    0.00000  684.99518  355.85751
  685.50000  118.30859    1.70238  115.71783  258.85437    9.98862 1863.40002 1863.40002    8.85992    0.35992    0.00000    8.85992  580.27472    0.00000    0.00000    9.62500 1992.21057    0.06186    0.00000    0.00250  113.49213    0.00000    0.00000  685.49213  356.11725
  686.00000  115.87903    1.70295  113.29565  258.97556    9.96316 1844.12073 1844.12073    8.86943    0.36943    0.00000    8.86943  580.34271    0.00000    0.00000    9.62500 1979.36853    0.06186    0.00000    0.00250  113.99257    0.00000    0.00000  685.99255  356.37701
  686.50000  120.30564    1.70835  117.56645  258.64661    9.93949 1839.67700 1839.67700    8.88086    0.38086    0.00000    8.88086  580.41071    0.00000    0.00000    9.62500 1980.42102    0.06186    0.00000    0.00250  114.49869    0.00000    0.00000  686.49866  356.63675
  687.00000  121.84404    1.79624  119.00778  258.65652    9.92390 1827.55066 1827.55066    8.89313    0.39313    0.00000    8.89313  580.47870    0.00000    0.00000    9.62500 1959.31580    0.06186    0.00000    0.00250  114.99606    0.00000    0.00000  686.99603  356.89651
  687.50000  124.08050    1.80005  121.25536  258.45865    9.95589 1834.34460 1834.34460    8.88086    0.38086    0.00000    8.88086  580.54669    0.00000    0.00000    9.62500 1957.05273    0.06186    0.00000    0.00250  115.49432    0.00000    0.00000  687.49432  357.15625
  688.00000  121.93453    1.62823  119.09232  258.45865    9.99863 1841.84558 1841.84558    8.89389    0.39389    0.00000    8.89389  580.61469    0.00000    0.00000    9.62500 1980.73694    0.06186    0.00000    0.00250  115.99124    0.00000    0.00000  687.99121  357.41599
  688.50000  122.07177    1.74417  119.16863  258.59964    9.96633 1845.50708 1845.50708    8.90530    0.40530    0.00000    8.90530  580.68274    0.00000    0.00000    9.62500 1984.59998    0.06186    0.00000    0.00250  116.49792    0.00000    0.00000  688.49792  357.67575
  689.00000  119.79863    1.67140  116.89368  259.16354    9.94605 1833.36682 1833.36682    8.91657    0.41657    0.00000    8.91657  580.75085    0.00000    0.00000    9.62500 1975.94739    0.06186    0.00000    0.00250  117.00659    0.00000    0.00000  689.00659  357.93552
  689.50000  122.21165    1.67094  119.24819  258.78760    9.98142 1849.38220 1849.38220    8.91657    0.41657    0.00000    8.91657  580.81885    0.00000    0.00000    9.62500 1984.63159    0.06186    0.00000    0.00250  117.50264    0.00000    0.00000  689.50262  358.19528
  690.00000  121.91447    1.77652  119.01508  258.69360    9.96555 1834.57556 1834.57556    8.90530    0.40530    0.00000    8.90530  580.88696    0.00000    0.00000    9.62500 1975.84204    0.06186    0.00000    0.00250  117.99695    0.00000    0.00000  689.99695  358.45499
  690.50000  123.78101    1.78356  120.83723  258.55264    9.94671 1826.29248 1826.29248    8.90530    0.40530    0.00000    8.90530  580.95508    0.00000    0.00000    9.62500 1973.68420    0.06186    0.00000    0.00250  118.49343    0.00000    0.00000  690.49341  358.71475
  691.00000  123.08881    1.62027  120.28696  258.64661    9.95549 1839.17932 1839.17932    8.88072    0.38072    0.00000    8.88072  581.02325    0.00000    0.00000    9.62500 2003.94739    0.06186    0.00000    0.00250  118.98641    0.00000    0.00000  690.98639  358.97449
  691.50000  124.59233    1.57396  121.69795  258.64661    9.97065 1839.17932 1839.17932    8.89200    0.39200    0.00000    8.89200  581.09131    0.00000    0.00000    9.62500 1957.05005    0.06186    0.00000    0.00250  119.49126    0.00000    0.00000  691.49127  359.23425
  692.00000  122.41555    1.64175  119.45660  258.83459    9.97030 1841.17004 1841.17004    8.91470    0.41470    0.00000    8.91470  581.15948    0.00000    0.00000    9.62500 1980.63159    0.06186    0.00000    0.00250  119.99870    0.00000    0.00000  691.99866  359.49399
  692.50000  123.59834    1.70215  120.72629  258.78760    9.94692 1841.82788 1841.82788    8.89215    0.39215    0.00000    8.89215  581.22766    0.00000    0.00000    9.62500 1997.42114    0.06186    0.00000    0.00250  120.49255    0.00000    0.00000  692.49255  359.75375
  693.00000  124.96587    1.80374  121.94527  258.31766    9.95714 1837.73962 1837.73962    8.91470    0.41470    0.00000    8.91470  581.29590    0.00000    0.00000    9.62500 1977.00012    0.06186    0.00000    0.00250  120.98904    0.00000    0.00000  692.98901  360.01349
  693.50000  121.99348    1.82510  118.98711  258.64661    9.93737 1829.93640 1829.93640    8.92613    0.42613    0.00000    8.92613  581.36401    0.00000    0.00000    9.62500 1970.30005    0.06186    0.00000    0.00250  121.49293    0.00000    0.00000  693.49292  360.27325
  694.00000  117.38781    1.70445  114.43205  258.88159    9.97739 1841.57898 1841.57898    8.93910    0.43910    0.00000    8.93910  581.43225    0.00000    0.00000    9.62500 1983.00000    0.06186    0.00000    0.00250  121.99957    0.00000    0.00000  693.99957  360.53296
  694.50000  114.12988    1.65977  111.26418  258.59964    9.97009 1832.42480 1832.42480    8.93740    0.43740    0.00000    8.93740  581.50049    0.00000    0.00000    9.62500 1974.26318    0.06186    0.00000    0.00250  122.49387    0.00000    0.00000  694.49384  360.79272
  695.00000  118.50990    1.64521  115.47087  258.11240    9.94648 1829.32825 1829.32825    8.95036    0.45036    0.00000    8.95036  581.56879    0.00000    0.00000    9.62500 1988.73694    0.06186    0.00000    0.00250  122.99125    0.00000    0.00000  694.99121  361.05249
  695.50000  116.81151    1.68400  113.98732  258.36465    9.97136 1843.12537 1843.12537    8.91485    0.41485    0.00000    8.91485  581.63696    0.00000    0.00000    9.62500 1966.52637    0.06186    0.00000    0.00250  123.49080    0.00000    0.00000  695.49078  361.31226
  696.00000  113.88337    1.63207  111.12186  258.59293    9.95939 1828.42114 1828.42114    8.91657    0.41657    0.00000    8.91657  581.70526    0.00000    0.00000    9.62500 1980.59998    0.06186    0.00000    0.00250  123.99418    0.00000    0.00000  695.99414  361.57199
  696.50000  109.47806    1.72997  106.82337  258.90384    9.96477 1840.81641 1840.81641    8.91657    0.41657    0.00000    8.91657  581.77356    0.00000    0.00000    9.62500 1979.21045    0.06186    0.00000    0.00250  124.50089    0.00000    0.00000  696.50085  361.83176
  697.00000  112.81963    1.65197  109.97890  258.59964    9.97645 1845.52490 1845.52490    8.93910    0.43910    0.00000    8.93910  581.84192    0.00000    0.00000    9.62500 1991.63159    0.06186    0.00000    0.00250  124.99870    0.00000    0.00000  696.99866  362.09149
  697.50000  111.40627    1.69408  108.54940  258.31766    9.95024 1840.13928 1840.13928    8.95036    0.45036    0.00000    8.95036  581.91022    0.00000    0.00000    9.62500 1997.00000    0.06186    0.00000    0.00250  125.49299    0.00000    0.00000  697.49298  362.35126
