~Version ---------------------------------------------------
VERS.   2.0 : CWLS log ASCII Standard -VERSION 2.0
WRAP.    NO : One line per depth step
DLM . SPACE : Column Data Section Delimiter
~Well ------------------------------------------------------
STRT.ft              16.5 : START DEPTH
STOP.ft            1462.0 : STOP DEPTH
STEP.ft               0.5 : STEP
NULL.             -999.25 : NULL VALUE
COMP.                     : COMPANY
WELL.           Umiat #18 : WELL
FLD .       Linc_Umiat_18 : FIELD
LOC .                     : LOCATION
PROV.                     : PROVINCE
CNTY.                     : COUNTY
STAT.                     : STATE
CTRY.                     : COUNTRY
SRVC. TERRASCIENCES, Inc. : SERVICE COMPANY
DATE.                     : DATE
UWI .           Umiat #18 : UNIQUE WELL ID
API .           Umiat #18 : API NUMBER
~Curve Information -----------------------------------------
TDEP     .ft    : Measured Depth
DCSI6    .      : Data Copy Status Indicator for Waveform Array 6
DTCO3    .us/F  : Compressional Slowness from Measurement 3
DTCO     .us/F  : Delta-T Compressional
DTSH3    .us/F  : Shear Slowness from Measurement 3
DTSH5    .us/F  : Shear Slowness from Measurement 5
DTSH6    .us/F  : Shear Slowness from Measurement 6
DTSM     .us/F  : Delta-T Shear
DTSTE    .us/F  : The elastic Stoneley slowness
DTST     .us/F  : Delta-T Stoneley - Monopole Stoneley
DWF1     .      : Display Waveform Array 1 Monopole Upper Middle Frequency
DWF1_MONO.      : Display Waveform 1 Monopole Component
DWF2     .      : Display Waveform Array 2 Monopole Lower Middle Frequency
DWF2_MONO.      : Display Waveform 2 Monopole Component
DWF3     .      : Display Waveform Array 3 Monopole Far Middle Frequency
DWF3_MONO.      : Display Waveform 3 Monopole Component
DWF4_MONO.      : Display Waveform 4 Monopole Component
DWF5_DIIN.      : Display Waveform 5 Dipole Inline Component
DWF6_DIIN.      : Display Waveform 6 Dipole Inline Component
ITT      .s     : Integrated Transit Time
LQC_WF1  .      : Log Quality Control for Waveform Array Measurement 1
LQC_WF2  .      : Log Quality Control for Waveform Array Measurement 2
LQC_WF3  .      : Log Quality Control for Waveform Array Measurement 3
LQC_WF4  .      : Log Quality Control for Waveform Array Measurement 4
LQC_WF5  .      : Log Quality Control for Waveform Array Measurement 5
~Params ----------------------------------------------------
PROD   .            TerraStation II : 
PROG   .                         [] : 
RUN    .                         [] : 
DESCENT.                         [] : 
VERSION.                            : 
LINEAGE. Python-converted from DLIS : 
ORFILE .          DynamicImage.dlis : 
~Other -----------------------------------------------------
~ASCII -----------------------------------------------------
# ...
  393.50000    0.00000   80.60144   80.60144  129.21219  133.52345  134.42317  133.52345  230.76317  242.55070  -44.00000  -31.00000   84.00000   98.00000   63.00000   57.00000   47.00000   -2.00000    5.00000    0.19318    0.00000    0.00000    0.00000    0.00000    0.00000
  394.00000    0.00000   80.19858   80.19858  128.87398  132.65265  133.22270  132.65265  230.71725  242.14999  185.00000  174.00000  108.00000  114.00000  -14.00000   -6.00000  156.00000  -17.00000   -2.00000    0.19314    0.00000    0.00000    0.00000    0.00000    0.00000
  394.50000    0.00000   79.86054   79.86054  128.29512  131.74384  132.38664  131.74384  230.24338  242.24660   -2.00000    2.00000   31.00000   44.00000  -48.00000  -54.00000  -35.00000   -2.00000   -5.00000    0.19310    0.00000    0.00000    0.00000    0.00000    0.00000
  395.00000    0.00000   79.51252   79.51252  127.87769  131.14734  132.34386  131.14734  230.16760  241.92735  161.00000  158.00000   52.00000   62.00000  193.00000  188.00000   95.00000    8.00000   -2.00000    0.19306    0.00000    0.00000    0.00000    0.00000    0.00000
  395.50000    0.00000   79.34504   79.34504  127.22388  130.63914  131.63623  130.63914  229.96323  241.81320  153.00000  154.00000  179.00000  160.00000  -17.00000  -33.00000   11.00000  -20.00000    0.00000    0.19302    0.00000    0.00000    0.00000    0.00000    0.00000
  396.00000    0.00000   79.24496   79.24496  128.06004  130.43437  131.40323  130.43437  229.80202  241.63152   29.00000   34.00000  -44.00000  -38.00000    5.00000   14.00000 -168.00000  -11.00000  -17.00000    0.19298    0.00000    0.00000    0.00000    0.00000    0.00000
  396.50000    0.00000   79.25095   79.25095  127.61964  130.64185  131.56403  130.64185  229.83174  241.55217   34.00000   48.00000   89.00000  100.00000   46.00000   28.00000  108.00000    5.00000   11.00000    0.19294    0.00000    0.00000    0.00000    0.00000    0.00000
  397.00000    0.00000   78.77171   78.77171  125.92443  130.39365  130.99620  130.39365  229.64552  240.58423   68.00000   62.00000   76.00000   80.00000  153.00000  139.00000   47.00000   14.00000  -14.00000    0.19290    0.00000    0.00000    0.00000    0.00000    0.00000
  397.50000    0.00000   78.58400   78.58400  125.67265  128.75034  131.65422  128.75034  229.16583  241.35725  -76.00000  -66.00000   55.00000   50.00000  125.00000  112.00000  -11.00000   -8.00000   -5.00000    0.19286    0.00000    0.00000    0.00000    0.00000    0.00000
  398.00000    0.00000   78.32166   78.32166  125.04485  128.81734  129.57312  128.81734  229.22134  241.14781   82.00000   90.00000   23.00000   30.00000   65.00000   70.00000 -156.00000   -5.00000   -5.00000    0.19282    0.00000    0.00000    0.00000    0.00000    0.00000
  398.50000    0.00000   77.74728   77.74728  124.31641  129.06740  129.40738  129.06740  229.27859  240.92229  177.00000  190.00000  142.00000  144.00000    1.00000  -21.00000  241.00000    8.00000   -5.00000    0.19278    0.00000    0.00000    0.00000    0.00000    0.00000
  399.00000    0.00000   77.47171   77.47171  123.62407  127.88102  129.20277  127.88102  228.88213  240.93411   55.00000   63.00000  103.00000   84.00000 -150.00000 -136.00000   95.00000   -5.00000    2.00000    0.19274    0.00000    0.00000    0.00000    0.00000    0.00000
  399.50000    0.00000   77.06950   77.06950  123.69805  127.99817  128.89246  127.99817  228.88342  240.98076    7.00000   40.00000   -7.00000  -10.00000   24.00000   43.00000  108.00000   -2.00000   -2.00000    0.19270    0.00000    0.00000    0.00000    0.00000    0.00000
  400.00000    0.00000   76.58821   76.58821  123.80537  127.04153  128.32239  127.04153  228.55455  240.94699  -29.00000   -8.00000  103.00000  100.00000   90.00000  111.00000  -11.00000    2.00000    2.00000    0.19266    0.00000    0.00000    0.00000    0.00000    0.00000
  400.50000    0.00000   75.57161   75.57161  123.21925  127.06601  128.30377  127.06601  228.50560  240.92924   55.00000   76.00000  214.00000  204.00000 -113.00000 -108.00000  120.00000    8.00000   11.00000    0.19263    0.00000    0.00000    0.00000    0.00000    0.00000
  401.00000    0.00000   76.14838   76.14838  123.19254  127.41641  128.14355  127.41641  228.57957  241.08449   23.00000   40.00000  174.00000  178.00000  127.00000  128.00000   23.00000    8.00000    0.00000    0.19259    0.00000    0.00000    0.00000    0.00000    0.00000
  401.50000    0.00000   76.12385   76.12385  123.65131  127.42327  127.98480  127.42327  228.54744  241.11278  100.00000  114.00000  171.00000  180.00000   82.00000   72.00000  277.00000    2.00000   -2.00000    0.19255    0.00000    0.00000    0.00000    0.00000    0.00000
  402.00000    0.00000   76.05335   76.05335  123.66975  127.28322  127.37727  127.28322  228.48747  241.16190  246.00000  232.00000   13.00000    8.00000   98.00000  104.00000   23.00000   26.00000   -5.00000    0.19251    0.00000    0.00000    0.00000    0.00000    0.00000
  402.50000    0.00000   76.11873   76.11873  123.74311  126.82561  128.64977  126.82561  228.39117  241.16437   10.00000   12.00000  -63.00000  -34.00000    0.00000   -5.00000  -71.00000    0.00000   20.00000    0.19247    0.00000    0.00000    0.00000    0.00000    0.00000
  403.00000    0.00000   76.21964   76.21964  123.77693  127.12981  127.28493  127.12981  228.46733  241.15816  -50.00000  -46.00000  124.00000  132.00000   62.00000   60.00000   35.00000  -17.00000    5.00000    0.19244    0.00000    0.00000    0.00000    0.00000    0.00000
  403.50000    0.00000   76.42413   76.42413  124.28454  127.87790  127.49100  127.87790  228.73914  241.29700  -21.00000  -10.00000   95.00000  100.00000   31.00000   32.00000   83.00000   -8.00000    2.00000    0.19240    0.00000    0.00000    0.00000    0.00000    0.00000
  404.00000    0.00000   76.12209   76.12209  124.42906  127.94126  127.56187  127.94126  228.77899  241.11919   50.00000   62.00000  177.00000  194.00000   94.00000   91.00000  -83.00000   -2.00000    2.00000    0.19236    0.00000    0.00000    0.00000    0.00000    0.00000
  404.50000    0.00000   76.26484   76.26484  124.88158  128.25656  128.73485  128.25656  228.91277  241.00237 -126.00000 -128.00000  -44.00000  -16.00000   85.00000   84.00000   83.00000   -2.00000   -8.00000    0.19232    0.00000    0.00000    0.00000    0.00000    0.00000
  405.00000    0.00000   76.54464   76.54464  124.96609  127.56289  128.21236  127.56289  228.65828  241.01765   10.00000   14.00000  116.00000  122.00000 -122.00000 -105.00000   23.00000   -2.00000    8.00000    0.19228    0.00000    0.00000    0.00000    0.00000    0.00000
  405.50000    0.00000   76.45077   76.45077  125.29176  128.11424  130.82315  128.11424  228.93883  241.01683   66.00000   80.00000  -23.00000  -16.00000   81.00000   86.00000   35.00000   -5.00000   -5.00000    0.19224    0.00000    0.00000    0.00000    0.00000    0.00000
  406.00000    0.00000   76.34797   76.34797  125.80505  127.69093  129.36876  127.69093  228.73819  240.98167 -190.00000 -180.00000  -18.00000  -10.00000  -13.00000  -21.00000   47.00000   -2.00000    5.00000    0.19221    0.00000    0.00000    0.00000    0.00000    0.00000
  406.50000    0.00000   77.14859   77.14859  125.54590  128.17596  129.04507  128.17596  228.92079  240.89185  179.00000  186.00000   74.00000   78.00000   41.00000   28.00000  -83.00000    2.00000    0.00000    0.19217    0.00000    0.00000    0.00000    0.00000    0.00000
  407.00000    0.00000   77.26824   77.26824  125.74603  127.42626  130.05655  127.42626  228.69096  240.94669  261.00000  264.00000  235.00000  248.00000  -61.00000  -73.00000 -108.00000   -5.00000   -2.00000    0.19213    0.00000    0.00000    0.00000    0.00000    0.00000
  407.50000    0.00000   77.24888   77.24888  125.68747  128.39717  128.92393  128.39717  228.88618  240.90515  111.00000  134.00000   92.00000  108.00000 -127.00000 -125.00000  -47.00000   -5.00000   -2.00000    0.19209    0.00000    0.00000    0.00000    0.00000    0.00000
