~Version ---------------------------------------------------
VERS.   2.0 : CWLS log ASCII Standard -VERSION 2.0
WRAP.    NO : One line per depth step
DLM . SPACE : Column Data Section Delimiter
~Well ------------------------------------------------------
STRT.ft              16.5 : START DEPTH
STOP.ft            1462.0 : STOP DEPTH
STEP.ft               0.5 : STEP
NULL.             -999.25 : NULL VALUE
COMP.                     : COMPANY
WELL.           Umiat #18 : WELL
FLD .       Linc_Umiat_18 : FIELD
LOC .                     : LOCATION
PROV.                     : PROVINCE
CNTY.                     : COUNTY
STAT.                     : STATE
CTRY.                     : COUNTRY
SRVC. TERRASCIENCES, Inc. : SERVICE COMPANY
DATE.                     : DATE
UWI .           Umiat #18 : UNIQUE WELL ID
API .           Umiat #18 : API NUMBER
~Curve Information -----------------------------------------
TDEP     .ft     : Measured Depth
ECGR_EDTC.gAPI   : Environmentally Corrected Gamma Ray
GDEV_EDTC.deg    : EDTC Hole Deviation from Gravity
GR_EDTC  .gAPI   : Gamma Ray
HV       .V      : Head Voltage
RAZ_EDTC .       : EDTC Raw Z-Axis Acceleration Data
CDF      .lbf    : Calibrated Downhole Force
DF       .lbf    : Uncalibrated Downhole Force
HDAR     .in     : Hole Diameter from Area
DCAL     .in     : Differential Caliper
AZIM     .deg    : Measured Azimuth
GHD      .in     : Borehole Diameter
BHRM     .ohm.m  : Borehole Mud Resistivity
ED       .ft     : East Departure
DLS      .       : Dog Leg Severity
FCD      .in     : Future Casing Diameter
TENS     .lbf    : Cable Tension
ICV      .cuft   : Integrated Cement Volume
ND       .ft     : North Departure
FF       .       : Formation Factor
TVDSS    .ft     : Sub-sea TVD: True Vertical Depth measured from Mean Sea Leve
TDSP     .ft     : Total Displacement (of survey measure point from vertical)
INCL     .deg    : Hole inclination
X        .ft     : Depth Index
BHPR     .psi    : Borehole Pressure
~Params ----------------------------------------------------
PROD   .            TerraStation II : 
PROG   .                         [] : 
RUN    .                         [] : 
DESCENT.                         [] : 
VERSION.                            : 
LINEAGE. Python-converted from DLIS : 
ORFILE .          DynamicImage.dlis : 
~Other -----------------------------------------------------
~ASCII -----------------------------------------------------
# ...
  973.50000   58.57566    2.91128   57.68775  260.47263    9.97983 1943.33240 1943.33240    8.69935    0.19935    0.00000    8.69935  622.24640    0.00000    0.00000    9.62500 2173.64990    0.06186    0.00000    0.00250  401.50211    0.00000    0.00000  973.50208  505.73325
  974.00000   59.42473    2.83421   58.55275  261.04324    9.95419 1916.10938 1916.10938    8.68790    0.18790    0.00000    8.68790  622.32458    0.00000    0.00000    9.62500 2137.47388    0.06186    0.00000    0.00250  401.99695    0.00000    0.00000  973.99695  505.99301
  974.50000   56.66208    2.65719   55.79878  261.32520    9.96292 1923.64600 1923.64600    8.70118    0.20118    0.00000    8.70118  622.40277    0.00000    0.00000    9.62500 2150.89990    0.06186    0.00000    0.00250  402.48962    0.00000    0.00000  974.48956  506.25275
  975.00000   57.45888    2.82293   56.61100  260.87540    9.95069 1915.40027 1915.40027    8.68985    0.18985    0.00000    8.68985  622.48096    0.00000    0.00000    9.62500 2175.15015    0.06186    0.00000    0.00250  402.99957    0.00000    0.00000  974.99957  506.51251
  975.50000   53.62453    2.86792   52.83324  260.99625    9.89342 1916.76721 1916.76721    8.68985    0.18985    0.00000    8.68985  622.55914    0.00000    0.00000    9.62500 2162.73682    0.06186    0.00000    0.00250  403.49167    0.00000    0.00000  975.49164  506.77222
  976.00000   50.05252    2.88038   49.31393  261.41248   10.00146 1952.55835 1952.55835    8.68985    0.18985    0.00000    8.68985  622.63739    0.00000    0.00000    9.62500 2176.05005    0.06186    0.00000    0.00250  403.98502    0.00000    0.00000  975.98499  507.03198
  976.50000   48.10160    2.66624   47.34938  260.76129    9.97072 1936.67529 1936.67529    8.71069    0.21069    0.00000    8.71069  622.71558    0.00000    0.00000    9.62500 2186.75000    0.06186    0.00000    0.00250  404.49042    0.00000    0.00000  976.49042  507.29175
  977.00000   50.91220    2.70762   50.11602  260.33835    9.89930 1906.69885 1906.69885    8.71069    0.21069    0.00000    8.71069  622.79395    0.00000    0.00000    9.62500 2132.95020    0.06186    0.00000    0.00250  404.99628    0.00000    0.00000  976.99628  507.55151
  977.50000   51.31609    2.93772   50.53424  260.60687    9.96370 1920.85120 1920.85120    8.70118    0.20118    0.00000    8.70118  622.87213    0.00000    0.00000    9.62500 2160.25000    0.06186    0.00000    0.00250  405.50418    0.00000    0.00000  977.50415  507.81125
  978.00000   52.63710    2.83697   51.86037  260.33835    9.94857 1944.70935 1944.70935    8.68985    0.18985    0.00000    8.68985  622.95044    0.00000    0.00000    9.62500 2211.00024    0.06186    0.00000    0.00250  405.99826    0.00000    0.00000  977.99823  508.07101
  978.50000   53.83532    2.81021   53.01950  260.29135    9.96585 1931.59155 1931.59155    8.69924    0.19924    0.00000    8.69924  623.02881    0.00000    0.00000    9.62500 2127.39990    0.06186    0.00000    0.00250  406.49170    0.00000    0.00000  978.49164  508.33075
  979.00000   54.44987    2.73287   53.62473  259.57751    9.96672 1925.25256 1925.25256    8.69924    0.19924    0.00000    8.69924  623.10718    0.00000    0.00000    9.62500 2185.39990    0.06186    0.00000    0.00250  407.00250    0.00000    0.00000  979.00250  508.59052
  979.50000   56.37693    2.56101   55.52259  259.66702    9.97458 1931.93933 1931.93933    8.69924    0.19924    0.00000    8.69924  623.18549    0.00000    0.00000    9.62500 2139.50024    0.06186    0.00000    0.00250  407.50500    0.00000    0.00000  979.50500  508.85025
  980.00000   56.23109    2.69486   55.35173  259.77444    9.93094 1906.79541 1906.79541    8.71069    0.21069    0.00000    8.71069  623.26385    0.00000    0.00000    9.62500 2148.52637    0.06186    0.00000    0.00250  408.00131    0.00000    0.00000  980.00134  509.10999
  980.50000   65.49815    2.73194   64.53706  259.49249    9.91695 1908.41296 1908.41296    8.68790    0.18790    0.00000    8.68790  623.34229    0.00000    0.00000    9.62500 2140.50024    0.06186    0.00000    0.00250  408.49875    0.00000    0.00000  980.49878  509.36975
  981.00000   69.10867    2.79029   68.08888  259.62228    9.95912 1906.71594 1906.71594    8.68985    0.18985    0.00000    8.68985  623.42078    0.00000    0.00000    9.62500 2120.75000    0.06186    0.00000    0.00250  409.00375    0.00000    0.00000  981.00372  509.62952
  981.50000   71.33378    2.80128   70.24694  259.39850    9.99788 1903.88037 1903.88037    8.70118    0.20118    0.00000    8.70118  623.49915    0.00000    0.00000    9.62500 2127.78931    0.06186    0.00000    0.00250  409.50131    0.00000    0.00000  981.50134  509.88928
  982.00000   64.23467    2.76031   63.26126  259.77444    9.94042 1919.94897 1919.94897    8.69924    0.19924    0.00000    8.69924  623.57758    0.00000    0.00000    9.62500 2184.19995    0.06186    0.00000    0.00250  410.00000    0.00000    0.00000  982.00000  510.14899
  982.50000   57.16138    2.75712   56.29516  259.80130    9.96332 1956.95984 1956.95984    8.69924    0.19924    0.00000    8.69924  623.65607    0.00000    0.00000    9.62500 2189.85010    0.06186    0.00000    0.00250  410.50586    0.00000    0.00000  982.50586  510.40875
  983.00000   50.67737    2.70855   49.90941  259.86841    9.92206 1918.18909 1918.18909    8.69924    0.19924    0.00000    8.69924  623.73462    0.00000    0.00000    9.62500 2157.47363    0.06186    0.00000    0.00250  410.99652    0.00000    0.00000  982.99652  510.66849
  983.50000   49.46697    2.88738   48.71735  259.48801    9.95049 1929.89099 1929.89099    8.69924    0.19924    0.00000    8.69924  623.81311    0.00000    0.00000    9.62500 2161.94995    0.06186    0.00000    0.00250  411.49210    0.00000    0.00000  983.49207  510.92825
  984.00000   51.66068    2.76350   50.87357  259.68045    9.98224 1946.18481 1946.18481    8.70118    0.20118    0.00000    8.70118  623.89166    0.00000    0.00000    9.62500 2186.80005    0.06186    0.00000    0.00250  412.00211    0.00000    0.00000  984.00208  511.18799
  984.50000   54.48301    2.81953   53.65290  260.51736    9.95595 1932.43018 1932.43018    8.70118    0.20118    0.00000    8.70118  623.97021    0.00000    0.00000    9.62500 2182.68433    0.06186    0.00000    0.00250  412.49606    0.00000    0.00000  984.49603  511.44775
  985.00000   56.31240    2.73502   55.45905  260.43234    9.93855 1938.87927 1938.87927    8.69924    0.19924    0.00000    8.69924  624.04883    0.00000    0.00000    9.62500 2185.05005    0.06186    0.00000    0.00250  412.99084    0.00000    0.00000  984.99084  511.70749
  985.50000   55.34595    2.73022   54.50270  260.80829    9.92674 1919.85999 1919.85999    8.70118    0.20118    0.00000    8.70118  624.12738    0.00000    0.00000    9.62500 2146.73682    0.06186    0.00000    0.00250  413.48816    0.00000    0.00000  985.48816  511.96725
  986.00000   54.43030    2.85705   53.60100  260.99625    9.97743 1934.55994 1934.55994    8.70118    0.20118    0.00000    8.70118  624.20599    0.00000    0.00000    9.62500 2158.94995    0.06186    0.00000    0.00250  413.99585    0.00000    0.00000  985.99585  512.22699
  986.50000   56.98491    2.89347   56.12136  261.41248    9.98286 1951.15332 1951.15332    8.69924    0.19924    0.00000    8.69924  624.28467    0.00000    0.00000    9.62500 2184.78955    0.06186    0.00000    0.00250  414.49695    0.00000    0.00000  986.49695  512.48676
  987.00000   55.88736    2.84606   55.06754  261.13721    9.96414 1946.89575 1946.89575    8.68780    0.18780    0.00000    8.68780  624.36340    0.00000    0.00000    9.62500 2200.09985    0.06186    0.00000    0.00250  414.99374    0.00000    0.00000  986.99377  512.74652
  987.50000   55.88602    2.80449   55.00778  261.05441    9.89848 1934.73254 1934.73254    8.71250    0.21250    0.00000    8.71250  624.44202    0.00000    0.00000    9.62500 2177.00000    0.06186    0.00000    0.00250  415.49710    0.00000    0.00000  987.49707  513.00623
