~Version
 VERS              .         3.0                           : CWLS LOG ASCII STANDARD - VERSION 3.0
 WRAP              .         NO                            : ONE LINE PER DEPTH STEP
 DLM               .         SPACE                         : DELIMITING CHARACTER(SPACE TAB OR COMMA)
~Well Information
#_______________________________________________________________________________
#
#PARAMETER_NAME    .UNIT     VALUE                         : DESCRIPTION
#_______________________________________________________________________________
STRT               .ft       113.5                         : First reference value
STOP               .ft       4251                          : Last reference value
STEP               .ft       0.5                           : Step increment
NULL               .         -9999                         : Missing value
COMP               .         ConocoPhillips Alaska,Inc.    : Company
WELL               .         Tinmiaq-6                     : Well name
FLD                .         NPRA ASP4                     : Field
LOC                .                                       : Location
SRVC               .                                       : Service Company
CTRY               .                                       : Country
DATE               .                                       : Service Date
X                  .                                       : X or East-West coordinate
Y                  .                                       : Y or North South coordinate
GDAT               .                                       : Geodetic Datum
HZCS               .                                       : Horizontal Co-ordinate System
API                .         50-103-20731-00-00            : API NUMBER
CNTY               .                                       : COUNTY
COUNTRY            .                                       : COUNTRY
LIC                .         Y_ N 5,941,085.96 ft US       : LICENSE NUMBER
ORIGINALWELLNAME   .         Tinmiaq6_Surface              : 
PROV               .                                       : PROVINCE
STAT               .                                       : STATE
UWI                .         Tinmiaq6_Surface              : UNIQUE WELL UWI
~Parameter Information Block
#_______________________________________________________________________________
#
#PARAMETER_NAME    .UNIT     VALUE                         : DESCRIPTION
#_______________________________________________________________________________
SET                .         SonicScope                    : 
TLFamily_DTCO      .         Compressional Slowness        : 
TLFamily_DTCO_MINUS_ERR_TOTAL .         Compressional Slowness        : 
TLFamily_DTCO_PLUS_ERR_TOTAL .         Compressional Slowness        : 
TLFamily_DTSM      .         Shear Slowness                : 
TLFamily_DTSM_MINUS_ERR_TOTAL .         Shear Slowness                : 
TLFamily_DTSM_PLUS_ERR_TOTAL .         Shear Slowness                : 
TLFamily_MD        .         Measured Depth                : 
TLFamily_PR        .         Poisson Ratio (Dynamic)       : 
TLFamily_VPVS      .         VpVs (Compressional To Shear) Ratio: 
~Curve Information
#_______________________________________________________________________________
#
#LOGNAME           .UNIT     LOG_ID                        : DESCRIPTION
#_______________________________________________________________________________
MD                 .ft                                     :  {F}
DTCO               .US/F                                   :   Delta-T Compressional {F}
DTCO_MINUS_ERR_TOTAL .US/F                                   : Compressional Delta-T Minus Total Compressional Delta-T Error {F}
DTCO_PLUS_ERR_TOTAL .US/F                                   : Compressional Delta-T Plus Total Compressional Delta-T Error {F}
DTSM               .US/F                                   :  Delta-T Shear {F}
DTSM_MINUS_ERR_TOTAL .US/F                                   :    Shear Delta-T Minus Total Shear Delta-T Error {F}
DTSM_PLUS_ERR_TOTAL .US/F                                   : Shear Delta-T Plus Total Shear Delta-T Error {F}
PR                 .                                       : Poisson's Ratio {F}
VPVS               .                                       :  Compressional to Shear Velocity Ratio {F}
~Ascii
# ...
2825.5     111.84337  105.96168  117.72506  244.73401  244.73401  244.73401  0.36801    2.18819   
2826       111.33777  105.61929  117.05624  241.27084  241.27084  241.27084  0.36472    2.16702   
2826.5     111.41214  105.65203  117.17225  240.25415  240.25415  240.25415  0.36302    2.15645   
2827       111.37718  105.69753  117.05684  241.00429  241.00429  241.00429  0.36421    2.16386   
2827.5     111.17289  105.47262  116.87316  241.22739  241.22739  241.22739  0.36516    2.16984   
2828       111.28463  105.54025  117.02901  242.50151  242.50151  242.50151  0.36661    2.17911   
2828.5     111.23775  105.44091  117.0346   244.65126  244.65126  244.65126  0.3697     2.19935   
2829       111.33201  105.59843  117.06558  245.21976  245.21976  245.21976  0.37018    2.2026    
2829.5     111.84232  106.07977  117.60487  248.45874  248.45874  248.45874  0.37294    2.22151   
2830       111.44163  105.65174  117.23151  250.99576  250.99576  250.99576  0.37723    2.25226   
2830.5     111.3746   105.45837  117.29084  251.15341  251.15341  251.15341  0.37761    2.25503   
2831       111.61176  105.67665  117.54688  249.75031  249.75031  249.75031  0.37522    2.23767   
2831.5     110.91663  104.91049  116.92276  252.5007   252.5007   252.5007   0.38045    2.27649   
2832       110.79253  104.66052  116.92453  255.16283  255.16283  255.16283  0.38383    2.30307   
2832.5     111.6716   105.68806  117.65514  255.1136   255.1136   255.1136   0.38149    2.2845    
2833       111.63168  105.74442  117.51895  254.27913  254.27913  254.27913  0.38063    2.27784   
2833.5     110.76816  104.77896  116.75735  254.13783  254.13783  254.13783  0.38274    2.29432   
2834       110.87421  104.74614  117.00229  254.13275  254.13275  254.13275  0.38245    2.29208   
2834.5     110.86578  104.89439  116.83718  252.48615  252.48615  252.48615  0.38057    2.2774    
2835       111.39095  105.41376  117.36813  252.22191  252.22191  252.22191  0.37885    2.26429   
2835.5     111.39904  105.42616  117.37193  252.46114  252.46114  252.46114  0.37911    2.26628   
2836       112.66429  106.73482  118.59377  253.87889  253.87889  253.87889  0.37739    2.25341   
2836.5     114.65398  108.63647  120.67149  256.18915  256.18915  256.18915  0.37477    2.23445   
2837       116.55853  110.62498  122.49208  257.31268  257.31268  257.31268  0.37092    2.20758   
2837.5     117.63224  111.57919  123.6853   259.50052  259.50052  259.50052  0.37069    2.20603   
2838       119.24801  113.0574   125.43862  258.87741  258.87741  258.87741  0.36533    2.17092   
2838.5     120.53522  114.37788  126.69255  260.27631  260.27631  260.27631  0.36349    2.15934   
2839       121.53517  115.31768  127.75266  259.99976  259.99976  259.99976  0.3602     2.1393    
2839.5     120.17831  114.00678  126.34983  261.40051  261.40051  261.40051  0.36599    2.17511   
2840       122.01778  115.47708  128.55847  261.23495  261.23495  261.23495  0.36048    2.14096   
2840.5     120.55487  113.71745  127.3923   256.99518  256.99518  256.99518  0.35893    2.13177   
2841       120.15234  113.18498  127.11971  253.3605   253.3605   253.3605   0.35492    2.10866   
2841.5     120.46016  113.61487  127.30545  252.98422  252.98422  252.98422  0.3534     2.10015   
2842       119.81227  113.16369  126.46085  251.43817  251.43817  251.43817  0.35312    2.0986    
2842.5     119.55913  113.30075  125.8175   250.7061   250.7061   250.7061   0.35281    2.09692   
2843       118.71147  112.68736  124.73558  246.71265  246.71265  246.71265  0.34936    2.07825   
2843.5     118.5109   112.2854   124.7364   244.79419  244.79419  244.79419  0.34694    2.06558   
2844       114.39139  108.19907  120.58371  243.42747  243.42747  243.42747  0.3583     2.12802   
2844.5     111.00712  104.76026  117.25397  233.19769  233.19769  233.19769  0.35351    2.10075   
2845       109.10233  103.03632  115.16833  229.39206  229.39206  229.39206  0.35383    2.10254   
2845.5     108.19559  102.22382  114.16737  228.10428  228.10428  228.10428  0.35485    2.10826   
2846       107.10536  100.97462  113.2361   228.61171  228.61171  228.61171  0.35939    2.13446   
2846.5     107.13408  100.72601  113.54215  227.46994  227.46994  227.46994  0.35747    2.12323   
2847       107.89625  101.6104   114.18209  230.07193  230.07193  230.07193  0.35903    2.13234   
2847.5     108.87009  102.37677  115.36342  233.45297  233.45297  233.45297  0.36104    2.14433   
2848       110.23707  103.84272  116.63142  233.9565   233.9565   233.9565   0.35731    2.1223    
2848.5     111.60489  104.69675  118.51302  235.74275  235.74275  235.74275  0.35557    2.1123    
2849       111.62556  107.62556  115.62556  235.87941  235.87941  235.87941  0.35571    2.11313   
2849.5     116.33696  112.33696  120.33696  239.79765  239.79765  239.79765  0.34609    2.06123   
2850       116.29794  112.29794  120.29794  236.99004  236.99004  236.99004  0.3414     2.03778   
2850.5     114.59732  110.59732  118.59732  241.28552  241.28552  241.28552  0.35436    2.10551   
2851       115.04581  111.04581  119.04581  242.18289  242.18289  242.18289  0.35429    2.1051    
2851.5     113.34595  109.34595  117.34595  237.88557  237.88557  237.88557  0.35315    2.09876   
2852       112.55354  105.06275  120.04433  237.54826  237.54826  237.54826  0.35526    2.11054   
2852.5     112.81258  105.39981  120.22536  239.42952  239.42952  239.42952  0.35732    2.12237   
2853       113.1624   105.83798  120.48682  239.51112  239.51112  239.51112  0.35631    2.11653   
2853.5     113.82173  107.66758  119.97588  241.90887  241.90887  241.90887  0.35783    2.12533   
2854       114.44209  108.42724  120.45693  243.86426  243.86426  243.86426  0.35879    2.1309    
2854.5     115.31374  109.45361  121.17387  246.84804  246.84804  246.84804  0.36043    2.14066   
2855       115.53152  109.80656  121.25648  247.33057  247.33057  247.33057  0.36045    2.14081   
2855.5     113.87836  108.31393  119.44279  240.97682  240.97682  240.97682  0.35623    2.11609   
2856       111.33052  105.53726  117.12378  233.79362  233.79362  233.79362  0.35337    2.1       
2856.5     107.69668  101.79609  113.59727  226.70319  226.70319  226.70319  0.35427    2.10502   
2857       106.53995  100.77592  112.30397  218.36809  218.36809  218.36809  0.3438     2.04964   
2857.5     105.48323  99.71168   111.25478  216.2896   216.2896   216.2896   0.34396    2.05046   
2858       104.91642  99.14671   110.68613  216.83804  216.83804  216.83804  0.34717    2.06677   
2858.5     105.23769  99.35239   111.12299  217.94106  217.94106  217.94106  0.34797    2.07094   
2859       105.89868  100.17187  111.6255   220.85988  220.85988  220.85988  0.35073    2.08558   
2859.5     106.06249  100.47334  111.65164  221.85451  221.85451  221.85451  0.35187    2.09173   
2860       105.57381  100.0558   111.09181  220.64317  220.64317  220.64317  0.35154    2.08994   
2860.5     104.80344  99.28522   110.32167  220.90334  220.90334  220.90334  0.35477    2.10779   
2861       104.03393  98.38200000000001 109.68586  219.47263  219.47263  219.47263  0.35509    2.10963   
2861.5     103.38955  97.30233   109.47677  215.98351  215.98351  215.98351  0.35137    2.08903   
2862       103.75127  97.64576   109.85679  214.92845  214.92845  214.92845  0.34809    2.07157   
2862.5     104.72974  98.42583999999999 111.03365  217.35944  217.35944  217.35944  0.34882    2.07543   
2863       106.05502  99.91757   112.19246  220.9594   220.9594   220.9594   0.35033    2.08344   
2863.5     106.82638  100.7464   112.90636  223.87962  223.87962  223.87962  0.3526     2.09573   
2864       108.08284  102.05587  114.10981  224.56068  224.56068  224.56068  0.34925    2.07767   
2864.5     108.00426  102.22607  113.78245  225.87148  225.87148  225.87148  0.35179    2.09132   
2865       108.25701  102.47975  114.03427  225.48274  225.48274  225.48274  0.35022    2.08285   
2865.5     108.34234  102.62737  114.05731  226.32707  226.32707  226.32707  0.35136    2.089     
