~Version
 VERS              .         3.0                           : CWLS LOG ASCII STANDARD - VERSION 3.0
 WRAP              .         NO                            : ONE LINE PER DEPTH STEP
 DLM               .         SPACE                         : DELIMITING CHARACTER(SPACE TAB OR COMMA)
~Well Information
#_______________________________________________________________________________
#
#PARAMETER_NAME    .UNIT     VALUE                         : DESCRIPTION
#_______________________________________________________________________________
STRT               .ft       113.5                         : First reference value
STOP               .ft       4251                          : Last reference value
STEP               .ft       0.5                           : Step increment
NULL               .         -9999                         : Missing value
COMP               .         ConocoPhillips Alaska,Inc.    : Company
WELL               .         Tinmiaq-6                     : Well name
FLD                .         NPRA ASP4                     : Field
LOC                .                                       : Location
SRVC               .                                       : Service Company
CTRY               .                                       : Country
DATE               .                                       : Service Date
X                  .                                       : X or East-West coordinate
Y                  .                                       : Y or North South coordinate
GDAT               .                                       : Geodetic Datum
HZCS               .                                       : Horizontal Co-ordinate System
API                .         50-103-20731-00-00            : API NUMBER
CNTY               .                                       : COUNTY
COUNTRY            .                                       : COUNTRY
LIC                .         Y_ N 5,941,085.96 ft US       : LICENSE NUMBER
ORIGINALWELLNAME   .         Tinmiaq6_Surface              : 
PROV               .                                       : PROVINCE
STAT               .                                       : STATE
UWI                .         Tinmiaq6_Surface              : UNIQUE WELL UWI
~Parameter Information Block
#_______________________________________________________________________________
#
#PARAMETER_NAME    .UNIT     VALUE                         : DESCRIPTION
#_______________________________________________________________________________
SET                .         SonicScope                    : 
TLFamily_DTCO      .         Compressional Slowness        : 
TLFamily_DTCO_MINUS_ERR_TOTAL .         Compressional Slowness        : 
TLFamily_DTCO_PLUS_ERR_TOTAL .         Compressional Slowness        : 
TLFamily_DTSM      .         Shear Slowness                : 
TLFamily_DTSM_MINUS_ERR_TOTAL .         Shear Slowness                : 
TLFamily_DTSM_PLUS_ERR_TOTAL .         Shear Slowness                : 
TLFamily_MD        .         Measured Depth                : 
TLFamily_PR        .         Poisson Ratio (Dynamic)       : 
TLFamily_VPVS      .         VpVs (Compressional To Shear) Ratio: 
~Curve Information
#_______________________________________________________________________________
#
#LOGNAME           .UNIT     LOG_ID                        : DESCRIPTION
#_______________________________________________________________________________
MD                 .ft                                     :  {F}
DTCO               .US/F                                   :   Delta-T Compressional {F}
DTCO_MINUS_ERR_TOTAL .US/F                                   : Compressional Delta-T Minus Total Compressional Delta-T Error {F}
DTCO_PLUS_ERR_TOTAL .US/F                                   : Compressional Delta-T Plus Total Compressional Delta-T Error {F}
DTSM               .US/F                                   :  Delta-T Shear {F}
DTSM_MINUS_ERR_TOTAL .US/F                                   :    Shear Delta-T Minus Total Shear Delta-T Error {F}
DTSM_PLUS_ERR_TOTAL .US/F                                   : Shear Delta-T Plus Total Shear Delta-T Error {F}
PR                 .                                       : Poisson's Ratio {F}
VPVS               .                                       :  Compressional to Shear Velocity Ratio {F}
~Ascii
# ...
2097.5     122.78038  115.34892  130.21184  279.22229  279.22229  279.22229  0.38015    2.27416   
2098       122.6129   115.11984  130.10596  277.15884  277.15884  277.15884  0.37833    2.26044   
2098.5     122.77017  115.42085  130.11951  276.23959  276.23959  276.23959  0.37693    2.25005   
2099       121.43836  113.82838  129.04834  272.39771  272.39771  272.39771  0.37598    2.24309   
2099.5     120.84583  112.88945  128.8022   271.78937  271.78937  271.78937  0.37679    2.24906   
2100       120.78012  112.5015   129.05875  272.96738  272.96738  272.96738  0.37828    2.26004   
2100.5     121.42788  113.29657  129.55919  275.16293  275.16293  275.16293  0.37908    2.26606   
2101       121.47587  113.29239  129.65935  278.16339  278.16339  278.16339  0.38217    2.28987   
2101.5     122.03278  113.60124  130.46432  280.29346  280.29346  280.29346  0.38306    2.29687   
2102       122.96381  114.51042  131.41721  282.5863   282.5863   282.5863   0.38322    2.29813   
2102.5     123.41883  115.12846  131.7092   284.92694  284.92694  284.92694  0.38452    2.30862   
2103       125.22797  121.22797  129.22797  288.12973  288.12973  288.12973  0.38355    2.30084   
2103.5     126.50367  122.50367  130.50366  289.06369  289.06369  289.06369  0.38155    2.28502   
2104       127.54651  123.54651  131.54651  290.19037  290.19037  290.19037  0.38028    2.27517   
2104.5     128.15613  124.15613  132.15613  291.27982  291.27982  291.27982  0.37998    2.27285   
2105       128.57117  124.57117  132.57117  290.71881  290.71881  290.71881  0.37843    2.26115   
2105.5     129.20885  125.20885  133.20885  288.41821  288.41821  288.41821  0.37446    2.23219   
2106       129.23064  125.23064  133.23064  287.11273  287.11273  287.11273  0.37297    2.22171   
2106.5     128.71332  124.71332  132.71332  286.6113   286.6113   286.6113   0.37369    2.22674   
2107       128.15613  124.15613  132.15613  287.4845   287.4845   287.4845   0.376      2.24324   
2107.5     128.15613  124.15613  132.15613  288.32068  288.32068  288.32068  0.37689    2.24976   
2108       128.15613  124.15613  132.15613  288.11862  288.11862  288.11862  0.37668    2.24818   
2108.5     128.15613  124.15613  132.15613  287.53842  287.53842  287.53842  0.37605    2.24366   
2109       127.49614  123.49614  131.49614  286.99713  286.99713  286.99713  0.37706    2.25103   
2109.5     126.57685  122.57685  130.57684  285.39725  285.39725  285.39725  0.37757    2.25473   
2110       126.17559  122.17559  130.1756   285.44583  285.44583  285.44583  0.37858    2.26229   
2110.5     126.68569  122.68569  130.6857   283.44562  283.44562  283.44562  0.37518    2.23739   
2111       126.89156  122.89156  130.89157  283.09409  283.09409  283.09409  0.37429    2.23099   
2111.5     126.04126  122.04126  130.04126  284.09619  284.09619  284.09619  0.37747    2.25399   
2112       128.18385  124.18385  132.18385  287.37515  287.37515  287.37515  0.37581    2.2419    
2112.5     130.22298  126.22298  134.22298  287.22687  287.22687  287.22687  0.37063    2.20565   
2113       129.23064  125.23064  133.23064  289.53757  289.53757  289.53757  0.37561    2.24047   
2113.5     129.23064  125.23064  133.23064  291.63501  291.63501  291.63501  0.37783    2.2567    
2114       129.70734  125.70734  133.70734  292.14087  292.14087  292.14087  0.37724    2.25231   
2114.5     130.21407  126.21407  134.21407  292.31549  292.31549  292.31549  0.37622    2.24488   
2115       128.75671  124.75671  132.75671  292.83337  292.83337  292.83337  0.38017    2.27432   
2115.5     128.16626  120.65221  135.6803   292.46585  292.46585  292.46585  0.38116    2.28193   
2116       128.1564   120.6775   135.63531  292.65643  292.65643  292.65643  0.38137    2.28359   
2116.5     128.03316  120.54617  135.52014  292.47351  292.47351  292.47351  0.38147    2.28436   
2117       128.09779  120.64673  135.54886  291.24664  291.24664  291.24664  0.38008    2.27363   
2117.5     127.9977   120.48486  135.51053  289.81985  289.81985  289.81985  0.37884    2.26426   
2118       128.14565  120.718    135.57329  290.43152  290.43152  290.43152  0.37913    2.26642   
2118.5     127.35464  119.98109  134.7282   292.42346  292.42346  292.42346  0.38297    2.29614   
2119       126.64402  119.25865  134.02939  290.52432  290.52432  290.52432  0.3827     2.29402   
2119.5     126.09921  118.76766  133.43076  290.0206   290.0206   290.0206   0.38344    2.29994   
2120       125.67939  118.4739   132.88489  285.92206  285.92206  285.92206  0.38026    2.27501   
2120.5     125.09222  117.91827  132.26616  283.58694  283.58694  283.58694  0.37921    2.26702   
2121       123.7917   116.53385  131.04956  279.25439  279.25439  279.25439  0.37772    2.25584   
2121.5     123.40877  115.85989  130.95764  276.8721   276.8721   276.8721   0.37604    2.24354   
2122       123.73193  116.36868  131.09517  281.25497  281.25497  281.25497  0.38001    2.2731    
2122.5     123.57027  116.36784  130.77269  284.32895  284.32895  284.32895  0.38357    2.30095   
2123       122.95338  115.9193   129.98746  282.09161  282.09161  282.09161  0.38273    2.2943    
2123.5     122.18297  115.22161  129.14432  279.56213  279.56213  279.56213  0.38194    2.28806   
2124       121.63774  114.77081  128.50467  274.31705  274.31705  274.31705  0.37763    2.2552    
2124.5     120.91576  114.00493  127.8266   271.37631  271.37631  271.37631  0.37615    2.24434   
2125       120.53228  113.60175  127.46281  266.89246  266.89246  266.89246  0.37189    2.21428   
2125.5     121.49427  114.43819  128.55035  258.70047  258.70047  258.70047  0.35852    2.12932   
2126       121.71314  114.68525  128.74104  258.12408  258.12408  258.12408  0.35705    2.12076   
2126.5     121.74769  114.59496  128.90042  263.62457  263.62457  263.62457  0.36445    2.16534   
2127       121.66962  114.57375  128.7655   265.8782   265.8782   265.8782   0.36756    2.18525   
2127.5     121.78342  114.68541  128.88144  266.36218  266.36218  266.36218  0.36786    2.18718   
2128       121.84155  114.82108  128.86201  269.37857  269.37857  269.37857  0.3714     2.21089   
2128.5     122.20251  115.35383  129.05119  272.12494  272.12494  272.12494  0.3737     2.22684   
2129       122.43949  115.73023  129.14874  272.88718  272.88718  272.88718  0.37397    2.22875   
2129.5     121.72752  115.1891   128.26593  271.40338  271.40338  271.40338  0.37409    2.2296    
2130       120.4059   113.79104  127.02076  268.40097  268.40097  268.40097  0.37403    2.22913   
2130.5     119.39141  112.58706  126.19576  265.21533  265.21533  265.21533  0.37292    2.22139   
2131       121.03152  113.14977  128.91325  275.21863  275.21863  275.21863  0.38012    2.27394   
2131.5     124.49957  115.42088  133.57828  293.64514  293.64514  293.64514  0.39042    2.3586    
2132       129.25278  119.85639  138.64917  320.84772  320.84772  320.84772  0.40314    2.48233   
2132.5     134.49951  125.33559  143.66344  352.33389  352.33389  352.33389  0.41471    2.61959   
2133       139.18858  130.42435  147.95282  388.35291  388.35291  388.35291  0.42631    2.79012   
2133.5     142.80865  134.57774  151.03957  400.9209   400.9209   400.9209   0.42734    2.8074    
2134       145.57741  133.47946  157.67535  409.061    409.061    409.061    0.42749    2.80992   
2134.5     141.36565  127.22908  155.50221  396.40356  396.40356  396.40356  0.42715    2.8041    
2135       137.15388  123.4385   150.86928  368.58304  368.58304  368.58304  0.41964    2.68737   
2135.5     131.69647  125.21884  138.1741   340.2995   340.2995   340.2995   0.41192    2.58397   
2136       127.38322  121.01649  133.74994  287.41287  287.41287  287.41287  0.37778    2.25629   
2136.5     123.82265  117.84976  129.79553  277.69553  277.69553  277.69553  0.37592    2.24269   
2137       121.67717  115.86562  127.48872  276.73123  276.73123  276.73123  0.38017    2.27431   
2137.5     120.92043  114.96624  126.87461  272.50616  272.50616  272.50616  0.37741    2.2536    
