~Version
 VERS              .         3.0                           : CWLS LOG ASCII STANDARD - VERSION 3.0
 WRAP              .         NO                            : ONE LINE PER DEPTH STEP
 DLM               .         SPACE                         : DELIMITING CHARACTER(SPACE TAB OR COMMA)
~Well Information
#_______________________________________________________________________________
#
#PARAMETER_NAME    .UNIT     VALUE                         : DESCRIPTION
#_______________________________________________________________________________
STRT               .ft       113.5                         : First reference value
STOP               .ft       4251                          : Last reference value
STEP               .ft       0.5                           : Step increment
NULL               .         -9999                         : Missing value
COMP               .         ConocoPhillips Alaska,Inc.    : Company
WELL               .         Tinmiaq-6                     : Well name
FLD                .         NPRA ASP4                     : Field
LOC                .                                       : Location
SRVC               .                                       : Service Company
CTRY               .                                       : Country
DATE               .                                       : Service Date
X                  .                                       : X or East-West coordinate
Y                  .                                       : Y or North South coordinate
GDAT               .                                       : Geodetic Datum
HZCS               .                                       : Horizontal Co-ordinate System
API                .         50-103-20731-00-00            : API NUMBER
CNTY               .                                       : COUNTY
COUNTRY            .                                       : COUNTRY
LIC                .         Y_ N 5,941,085.96 ft US       : LICENSE NUMBER
ORIGINALWELLNAME   .         Tinmiaq6_Surface              : 
PROV               .                                       : PROVINCE
STAT               .                                       : STATE
UWI                .         Tinmiaq6_Surface              : UNIQUE WELL UWI
~Parameter Information Block
#_______________________________________________________________________________
#
#PARAMETER_NAME    .UNIT     VALUE                         : DESCRIPTION
#_______________________________________________________________________________
SET                .         SonicScope                    : 
TLFamily_DTCO      .         Compressional Slowness        : 
TLFamily_DTCO_MINUS_ERR_TOTAL .         Compressional Slowness        : 
TLFamily_DTCO_PLUS_ERR_TOTAL .         Compressional Slowness        : 
TLFamily_DTSM      .         Shear Slowness                : 
TLFamily_DTSM_MINUS_ERR_TOTAL .         Shear Slowness                : 
TLFamily_DTSM_PLUS_ERR_TOTAL .         Shear Slowness                : 
TLFamily_MD        .         Measured Depth                : 
TLFamily_PR        .         Poisson Ratio (Dynamic)       : 
TLFamily_VPVS      .         VpVs (Compressional To Shear) Ratio: 
~Curve Information
#_______________________________________________________________________________
#
#LOGNAME           .UNIT     LOG_ID                        : DESCRIPTION
#_______________________________________________________________________________
MD                 .ft                                     :  {F}
DTCO               .US/F                                   :   Delta-T Compressional {F}
DTCO_MINUS_ERR_TOTAL .US/F                                   : Compressional Delta-T Minus Total Compressional Delta-T Error {F}
DTCO_PLUS_ERR_TOTAL .US/F                                   : Compressional Delta-T Plus Total Compressional Delta-T Error {F}
DTSM               .US/F                                   :  Delta-T Shear {F}
DTSM_MINUS_ERR_TOTAL .US/F                                   :    Shear Delta-T Minus Total Shear Delta-T Error {F}
DTSM_PLUS_ERR_TOTAL .US/F                                   : Shear Delta-T Plus Total Shear Delta-T Error {F}
PR                 .                                       : Poisson's Ratio {F}
VPVS               .                                       :  Compressional to Shear Velocity Ratio {F}
~Ascii
# ...
2583.5     113.26015  106.23398  120.28632  249.44197  249.44197  249.44197  0.37015    2.20238   
2584       113.15663  106.18041  120.13285  249.73033  249.73033  249.73033  0.37082    2.20694   
2584.5     112.2233   105.3416   119.10501  249.06651  249.06651  249.06651  0.37263    2.21938   
2585       111.30046  104.37756  118.22337  245.42787  245.42787  245.42787  0.37055    2.20509   
2585.5     111.1954   104.20696  118.18383  245.16937  245.16937  245.16937  0.37051    2.20485   
2586       111.48296  107.48296  115.48296  246.00131  246.00131  246.00131  0.37077    2.20663   
2586.5     112.04983  108.04983  116.04983  242.66449  242.66449  242.66449  0.36451    2.16568   
2587       112.6167   108.6167   116.6167   238.53651  238.53651  238.53651  0.35659    2.11813   
2587.5     113.11354  109.11354  117.11354  238.00008  238.00008  238.00008  0.35411    2.10408   
2588       113.11354  109.11354  117.11354  242.21645  242.21645  242.21645  0.36055    2.14136   
2588.5     113.11354  109.11354  117.11354  244.24828  244.24828  244.24828  0.36349    2.15932   
2589       113.11354  109.11354  117.11354  246.51921  246.51921  246.51921  0.36666    2.1794    
2589.5     113.23452  109.23452  117.23452  246.79938  246.79938  246.79938  0.36668    2.17954   
2590       113.59888  109.59888  117.59888  249.14594  249.14594  249.14594  0.36877    2.19321   
2590.5     113.96324  109.96324  117.96324  253.39195  253.39195  253.39195  0.37322    2.22345   
2591       114.97004  110.97004  118.97004  256.21329  256.21329  256.21329  0.37394    2.22852   
2591.5     116.81798  112.81798  120.81798  259.78519  259.78519  259.78519  0.37327    2.22385   
2592       118.27525  114.27525  122.27525  259.42892  259.42892  259.42892  0.36881    2.19343   
2592.5     119.10944  115.10944  123.10944  262.14206  262.14206  262.14206  0.36992    2.20085   
2593       119.56038  115.56038  123.56038  262.74747  262.74747  262.74747  0.36943    2.19761   
2593.5     119.56038  115.56038  123.56038  258.17477  258.17477  258.17477  0.36349    2.15937   
2594       119.31274  115.31274  123.31274  254.62056  254.62056  254.62056  0.35932    2.13406   
2594.5     118.80252  114.80252  122.80252  250.0186   250.0186   250.0186   0.35418    2.10449   
2595       118.48587  114.48587  122.48587  250.88637  250.88637  250.88637  0.35647    2.11744   
2595.5     118.48587  114.48587  122.48587  253.50548  253.50548  253.50548  0.36024    2.13954   
2596       118.48587  114.48587  122.48587  254.50967  254.50967  254.50967  0.36165    2.14802   
2596.5     118.48587  114.48587  122.48587  257.23907  257.23907  257.23907  0.36536    2.17105   
2597       118.48587  114.48587  122.48587  261.80118  261.80118  261.80118  0.37121    2.20956   
2597.5     118.48587  114.48587  122.48587  264.70981  264.70981  264.70981  0.37473    2.2341    
2598       118.43481  114.43481  122.43481  257.31702  257.31702  257.31702  0.36561    2.17265   
2598.5     117.58454  113.58454  121.58454  252.44872  252.44872  252.44872  0.36147    2.14696   
2599       116.73428  112.73428  120.73428  248.73262  248.73262  248.73262  0.35876    2.13076   
2599.5     116.67156  108.1649   125.17822  247.08049  247.08049  247.08049  0.35652    2.11774   
2600       117.26109  108.55275  125.96942  249.52194  249.52194  249.52194  0.35828    2.12792   
2600.5     119.93046  111.26936  128.59157  251.02847  251.02847  251.02847  0.35212    2.09312   
2601       119.81534  111.72127  127.90941  264.61667  264.61667  264.61667  0.37106    2.20854   
2601.5     119.89802  112.11321  127.68282  265.97449  265.97449  265.97449  0.37248    2.21834   
2602       120.30566  112.81924  127.79208  267.06561  267.06561  267.06561  0.37271    2.21989   
2602.5     119.34345  111.95998  126.72693  268.28079  268.28079  268.28079  0.37665    2.24797   
2603       116.91209  109.25494  124.56924  266.65219  266.65219  266.65219  0.38101    2.28079   
2603.5     116.5849   108.67808  124.49172  264.15634  264.15634  264.15634  0.37905    2.26579   
2604       117.47495  109.52247  125.42742  266.52322  266.52322  266.52322  0.37944    2.26877   
2604.5     117.11002  109.37307  124.84696  269.68527  269.68527  269.68527  0.3838     2.30284   
2605       117.0636   109.52102  124.60618  265.19916  265.19916  265.19916  0.379      2.26543   
2605.5     116.93063  109.66113  124.20014  262.44415  262.44415  262.44415  0.37616    2.24444   
2606       116.97374  109.60757  124.3399   266.17535  266.17535  266.17535  0.38032    2.27551   
2606.5     116.8681   109.45665  124.27956  267.31436  267.31436  267.31436  0.38185    2.28732   
2607       118.01961  110.21497  125.82424  262.52454  262.52454  262.52454  0.37335    2.22441   
2607.5     117.1675   109.34677  124.98822  264.75827  264.75827  264.75827  0.37823    2.25966   
2608       118.93641  110.92743  126.94539  260.46265  260.46265  260.46265  0.36828    2.18993   
2608.5     119.55915  111.62298  127.49532  262.64166  262.64166  262.64166  0.36931    2.19675   
2609       121.32623  113.10297  129.54948  266.83701  266.83701  266.83701  0.36969    2.19933   
2609.5     123.82741  115.71159  131.94322  272.46729  272.46729  272.46729  0.36985    2.20038   
2610       123.81585  115.91374  131.71796  275.19177  275.19177  275.19177  0.37309    2.22259   
2610.5     124.00603  115.81722  132.19484  274.24948  274.24948  274.24948  0.3715     2.21158   
2611       124.03448  115.80562  132.26335  270.87543  270.87543  270.87543  0.36735    2.18387   
2611.5     123.63479  115.40656  131.86302  272.12552  272.12552  272.12552  0.36995    2.20104   
2612       123.27347  114.97049  131.57645  270.56491  270.56491  270.56491  0.36902    2.19483   
2612.5     122.80799  114.30408  131.31189  265.15594  265.15594  265.15594  0.36345    2.15911   
2613       122.37642  113.81592  130.93692  262.96988  262.96988  262.96988  0.36179    2.14886   
2613.5     122.03034  114.87593  129.18475  268.65723  268.65723  268.65723  0.37002    2.20156   
2614       122.26029  115.04431  129.47627  271.05554  271.05554  271.05554  0.37229    2.21704   
2614.5     122.53332  115.45728  129.60936  271.87946  271.87946  271.87946  0.37255    2.21882   
2615       123.33503  116.2981   130.37196  274.69562  274.69562  274.69562  0.37376    2.22723   
2615.5     121.70929  117.70929  125.70929  269.80878  269.80878  269.80878  0.37226    2.21683   
2616       121.70929  117.70929  125.70929  264.7222   264.7222   264.7222   0.36598    2.17504   
2616.5     121.70929  117.70929  125.70929  264.0965   264.0965   264.0965   0.36517    2.1699    
2617       120.63478  116.63478  124.63478  262.4675   262.4675   262.4675   0.36609    2.17572   
2617.5     120.63478  116.63478  124.63478  258.77203  258.77203  258.77203  0.36116    2.14509   
2618       120.63478  116.63478  124.63478  263.72992  263.72992  263.72992  0.3677     2.18618   
2618.5     120.02998  116.02998  124.02998  265.87158  265.87158  265.87158  0.37201    2.21504   
2619       119.56038  115.56038  123.56038  268.82767  268.82767  268.82767  0.37671    2.24847   
2619.5     119.56038  115.56038  123.56038  267.95502  267.95502  267.95502  0.37571    2.24117   
2620       119.90233  115.90233  123.90233  267.39532  267.39532  267.39532  0.37416    2.23011   
2620.5     120.41238  116.41238  124.41238  268.29767  268.29767  268.29767  0.37389    2.22816   
2621       121.35423  117.35423  125.35423  268.39401  268.39401  268.39401  0.37151    2.21166   
2621.5     121.70929  117.70929  125.70929  269.29034  269.29034  269.29034  0.37165    2.21257   
2622       121.70929  117.70929  125.70929  268.86624  268.86624  268.86624  0.37114    2.20909   
2622.5     122.72675  116.07005  129.38344  267.13937  267.13937  267.13937  0.36624    2.1767    
2623       122.34325  115.682    129.00452  267.02875  267.02875  267.02875  0.36716    2.18262   
2623.5     121.83418  115.16504  128.50331  267.87488  267.87488  267.87488  0.3696     2.19868   
