~Version
 VERS              .         3.0                           : CWLS LOG ASCII STANDARD - VERSION 3.0
 WRAP              .         NO                            : ONE LINE PER DEPTH STEP
 DLM               .         SPACE                         : DELIMITING CHARACTER(SPACE TAB OR COMMA)
~Well Information
#_______________________________________________________________________________
#
#PARAMETER_NAME    .UNIT     VALUE                         : DESCRIPTION
#_______________________________________________________________________________
STRT               .ft       113.5                         : First reference value
STOP               .ft       4251                          : Last reference value
STEP               .ft       0.5                           : Step increment
NULL               .         -9999                         : Missing value
COMP               .         ConocoPhillips Alaska,Inc.    : Company
WELL               .         Tinmiaq-6                     : Well name
FLD                .         NPRA ASP4                     : Field
LOC                .                                       : Location
SRVC               .                                       : Service Company
CTRY               .                                       : Country
DATE               .                                       : Service Date
X                  .                                       : X or East-West coordinate
Y                  .                                       : Y or North South coordinate
GDAT               .                                       : Geodetic Datum
HZCS               .                                       : Horizontal Co-ordinate System
API                .         50-103-20731-00-00            : API NUMBER
CNTY               .                                       : COUNTY
COUNTRY            .                                       : COUNTRY
LIC                .         Y_ N 5,941,085.96 ft US       : LICENSE NUMBER
ORIGINALWELLNAME   .         Tinmiaq6_Surface              : 
PROV               .                                       : PROVINCE
STAT               .                                       : STATE
UWI                .         Tinmiaq6_Surface              : UNIQUE WELL UWI
~Parameter Information Block
#_______________________________________________________________________________
#
#PARAMETER_NAME    .UNIT     VALUE                         : DESCRIPTION
#_______________________________________________________________________________
SET                .         SonicScope                    : 
TLFamily_DTCO      .         Compressional Slowness        : 
TLFamily_DTCO_MINUS_ERR_TOTAL .         Compressional Slowness        : 
TLFamily_DTCO_PLUS_ERR_TOTAL .         Compressional Slowness        : 
TLFamily_DTSM      .         Shear Slowness                : 
TLFamily_DTSM_MINUS_ERR_TOTAL .         Shear Slowness                : 
TLFamily_DTSM_PLUS_ERR_TOTAL .         Shear Slowness                : 
TLFamily_MD        .         Measured Depth                : 
TLFamily_PR        .         Poisson Ratio (Dynamic)       : 
TLFamily_VPVS      .         VpVs (Compressional To Shear) Ratio: 
~Curve Information
#_______________________________________________________________________________
#
#LOGNAME           .UNIT     LOG_ID                        : DESCRIPTION
#_______________________________________________________________________________
MD                 .ft                                     :  {F}
DTCO               .US/F                                   :   Delta-T Compressional {F}
DTCO_MINUS_ERR_TOTAL .US/F                                   : Compressional Delta-T Minus Total Compressional Delta-T Error {F}
DTCO_PLUS_ERR_TOTAL .US/F                                   : Compressional Delta-T Plus Total Compressional Delta-T Error {F}
DTSM               .US/F                                   :  Delta-T Shear {F}
DTSM_MINUS_ERR_TOTAL .US/F                                   :    Shear Delta-T Minus Total Shear Delta-T Error {F}
DTSM_PLUS_ERR_TOTAL .US/F                                   : Shear Delta-T Plus Total Shear Delta-T Error {F}
PR                 .                                       : Poisson's Ratio {F}
VPVS               .                                       :  Compressional to Shear Velocity Ratio {F}
~Ascii
# ...
3302       98.48318   91.36669000000001 105.59968  201.41653  201.41653  201.41653  0.3429099917411804 2.045190095901489
3302.5     100.24535  92.31837   108.17233  200.08911  200.08911  200.08911  0.3324399888515472 1.995990037918091
3303       101.56506  94.54900000000001 108.58112  206.32285  206.32285  206.32285  0.3400900065898895 2.031440019607544
3303.5     100.6417   93.57274   107.71066  207.06258  207.06258  207.06258  0.3453400135040283 2.057420015335083
3304       101.08044  93.71866   108.44223  207.57088  207.57088  207.57088  0.3445700109004974 2.05351996421814
3304.5     101.25706  94.40953   108.1046   208.73346  208.73346  208.73346  0.3461300134658814 2.06141996383667
3305       101.78091  94.92871   108.63312  210.86761  210.86761  210.86761  0.3481299877166748 2.07177996635437
3305.5     102.53358  95.7593    109.30785  208.74774  208.74774  208.74774  0.3410100042819977 2.035900115966797
3306       103.282    96.64028   109.92371  212.03152  212.03152  212.03152  0.3444600105285645 2.052939891815186
3306.5     104.91257  98.48923000000001 111.33591  210.87927  210.87927  210.87927  0.3355399966239929 2.010050058364868
3307       104.98938  98.65977   111.31898  211.63208  211.63208  211.63208  0.3367699980735779 2.015749931335449
3307.5     103.46898  96.68755   110.2504   209.44281  209.44281  209.44281  0.3385800123214722 2.024209976196289
3308       103.44764  96.57899999999999 110.31628  209.38945  209.38945  209.38945  0.3385500013828278 2.024110078811646
3308.5     104.67702  97.8533    111.50073  209.90601  209.90601  209.90601  0.3345000147819519 2.005270004272461
3309       104.44077  97.50002000000001 111.38153  207.10919  207.10919  207.10919  0.3294900059700012 1.983029961585999
3309.5     104.37737  97.68854   111.06621  210.15276  210.15276  210.15276  0.3362700045108795 2.013390064239502
3310       104.14973  97.42325   110.87622  206.37703  206.37703  206.37703  0.32914999127388 1.981539964675903
3310.5     103.54427  97.18355   109.90498  204.31447  204.31447  204.31447  0.3271999955177307 1.973209977149963
3311       102.65877  96.52478000000001 108.79276  201.07275  201.07275  201.07275  0.3237099945545197 1.95864999294281
3311.5     100.81815  94.86752   106.76877  198.20337  198.20337  198.20337  0.3254800140857697 1.965950012207031
3312       99.05337   93.00524   105.10149  198.48978  198.48978  198.48978  0.3341900110244751 2.003870010375977
3312.5     98.20452   91.97906   104.42998  198.41478  198.41478  198.41478  0.3377699851989746 2.020420074462891
3313       98.95182   92.10054   105.8031   200.92564  200.92564  200.92564  0.3398999869823456 2.030539989471436
3313.5     100.15277  93.31953   106.98601  206.51405  206.51405  206.51405  0.3462400138378143 2.061990022659302
3314       101.99778  95.57644999999999 108.41911  213.14458  213.14458  213.14458  0.3514899909496307 2.089699983596802
3314.5     102.33272  95.95536   108.71008  215.86145  215.86145  215.86145  0.3550600111484528 2.109410047531128
3315       101.82729  95.35309   108.30148  215.78319  215.78319  215.78319  0.3567599952220917 2.119110107421875
3315.5     101.29396  94.54262   108.0453   218.07512  218.07512  218.07512  0.3624500036239624 2.152889966964722
3316       103.68747  96.51465   110.86029  221.85211  221.85211  221.85211  0.360260009765625 2.139620065689087
3316.5     106.13503  98.94784   113.32221  227.62328  227.62328  227.62328  0.3610900044441223 2.144659996032715
3317       105.44733  98.45457   112.44009  228.66568  228.66568  228.66568  0.3649600148200989 2.168529987335205
3317.5     107.35201  100.52202  114.18199  230.94878  230.94878  230.94878  0.3621900081634522 2.151319980621338
3318       104.94791  98.13118   111.76465  228.19139  228.19139  228.19139  0.3658699989318848 2.174329996109009
3318.5     106.99751  99.92553   114.0695   229.52058  229.52058  229.52058  0.3611699938774109 2.145100116729736
3319       107.08842  99.86139   114.31546  223.13826  223.13826  223.13826  0.350380003452301 2.083679914474487
3319.5     106.05587  99.00917   113.10257  216.90883  216.90883  216.90883  0.3429099917411804 2.045229911804199
3320       102.82065  95.87074   109.77055  213.29776  213.29776  213.29776  0.3486399948596954 2.074460029602051
3320.5     104.21242  96.87472   111.55012  211.68785  211.68785  211.68785  0.3400599956512451 2.031310081481934
3321       106.50895  99.45111   113.56679  217.38501  217.38501  217.38501  0.342059999704361 2.040999889373779
3321.5     106.51044  99.82420999999999 113.19668  216.39024  216.39024  216.39024  0.3401300013065338 2.031630039215088
3322       105.33056  98.87193000000001 111.78919  216.28886  216.28886  216.28886  0.3445599973201752 2.053430080413818
3322.5     104.87312  98.34113000000001 111.40511  212.62032  212.62032  212.62032  0.33924999833107 2.02741003036499
3323       105.37713  98.98087   111.77338  210.29889  210.29889  210.29889  0.3323700129985809 1.995679974555969
3323.5     103.27168  97.08604   109.45733  205.20764  205.20764  205.20764  0.3304199874401093 1.987069964408875
3324       100.55577  94.01246999999999 107.09908  200.29503  200.29503  200.29503  0.3315100073814392 1.991880059242249
3324.5     100.34936  93.84649   106.85223  197.62065  197.62065  197.62065  0.3262799978256226 1.969329953193665
3325       99.80647999999999 93.10154   106.51142  202.62154  202.62154  202.62154  0.339819997549057 2.030139923095703
3325.5     102.02198  94.96265   109.08131  203.84523  203.84523  203.84523  0.3328999876976013 1.998049974441528
3326       102.44061  95.74635000000001 109.13488  207.68478  207.68478  207.68478  0.3392400145530701 2.027369976043701
3326.5     103.81705  97.48177   110.15234  207.9756   207.9756   207.9756   0.33406001329422 2.003289937973023
3327       103.40792  97.24197   109.57388  209.75577  209.75577  209.75577  0.3394599854946137 2.028429985046387
3327.5     101.43587  95.22154000000001 107.65021  206.37598  206.37598  206.37598  0.3407300114631653 2.034549951553345
3328       99.61723000000001 92.85194   106.38251  204.04991  204.04991  204.04991  0.3435400128364563 2.048340082168579
3328.5     100.7618   94.30037   107.22322  203.61423  203.61423  203.61423  0.3378399908542633 2.020750045776367
3329       101.37842  95.03426   107.72258  208.37895  208.37895  208.37895  0.3449600040912628 2.055459976196289
3329.5     102.30337  95.88303999999999 108.72369  211.40088  211.40088  211.40088  0.3470999896526337 2.066410064697266
3330       102.3699   95.89512000000001 108.84469  213.1794   213.1794   213.1794   0.3501499891281128 2.08243989944458
3330.5     101.83039  95.3139    108.34689  212.38573  212.38573  212.38573  0.3507499992847443 2.08568000793457
3331       102.80506  95.83141000000001 109.77872  212.61775  212.61775  212.61775  0.3474400043487549 2.068160057067871
3331.5     103.54015  96.95126000000001 110.12905  221.79546  221.79546  221.79546  0.3606700003147125 2.142119884490967
3332       105.28041  98.42323   112.13759  225.88522  225.88522  225.88522  0.3612399995326996 2.145560026168823
3332.5     107.42029  100.77009  114.07049  229.64702  229.64702  229.64702  0.3599599897861481 2.137840032577515
3333       108.13702  101.57532  114.69873  233.06311  233.06311  233.06311  0.3628300130367279 2.15526008605957
3333.5     108.37057  102.37227  114.36888  232.54887  232.54887  232.54887  0.3612900078296661 2.145869970321655
3334       106.9312   100.73402  113.12838  226.73535  226.73535  226.73535  0.3569799959659576 2.120389938354492
3334.5     105.72586  99.02904   112.42268  220.79396  220.79396  220.79396  0.3512499928474426 2.088360071182251
3335       106.24704  99.28413999999999 113.20994  221.99042  221.99042  221.99042  0.3514299988746643 2.089380025863648
3335.5     106.71657  100.05957  113.37357  221.57387  221.57387  221.57387  0.3489899933338165 2.076280117034912
3336       105.21629  98.59763   111.83495  219.40671  219.40671  219.40671  0.3506799936294556 2.08528995513916
3336.5     103.18107  96.19627   110.16586  217.50113  217.50113  217.50113  0.3547999858856201 2.107959985733032
