~Version
 VERS              .         3.0                           : CWLS LOG ASCII STANDARD - VERSION 3.0
 WRAP              .         NO                            : ONE LINE PER DEPTH STEP
 DLM               .         SPACE                         : DELIMITING CHARACTER(SPACE TAB OR COMMA)
~Well Information
#_______________________________________________________________________________
#
#PARAMETER_NAME    .UNIT     VALUE                         : DESCRIPTION
#_______________________________________________________________________________
STRT               .ft       113.5                         : First reference value
STOP               .ft       4251                          : Last reference value
STEP               .ft       0.5                           : Step increment
NULL               .         -9999                         : Missing value
COMP               .         ConocoPhillips Alaska,Inc.    : Company
WELL               .         Tinmiaq-6                     : Well name
FLD                .         NPRA ASP4                     : Field
LOC                .                                       : Location
SRVC               .                                       : Service Company
CTRY               .                                       : Country
DATE               .                                       : Service Date
X                  .                                       : X or East-West coordinate
Y                  .                                       : Y or North South coordinate
GDAT               .                                       : Geodetic Datum
HZCS               .                                       : Horizontal Co-ordinate System
API                .         50-103-20731-00-00            : API NUMBER
CNTY               .                                       : COUNTY
COUNTRY            .                                       : COUNTRY
LIC                .         Y_ N 5,941,085.96 ft US       : LICENSE NUMBER
ORIGINALWELLNAME   .         Tinmiaq6_Surface              : 
PROV               .                                       : PROVINCE
STAT               .                                       : STATE
UWI                .         Tinmiaq6_Surface              : UNIQUE WELL UWI
~Parameter Information Block
#_______________________________________________________________________________
#
#PARAMETER_NAME    .UNIT     VALUE                         : DESCRIPTION
#_______________________________________________________________________________
SET                .         SonicScope                    : 
TLFamily_DTCO      .         Compressional Slowness        : 
TLFamily_DTCO_MINUS_ERR_TOTAL .         Compressional Slowness        : 
TLFamily_DTCO_PLUS_ERR_TOTAL .         Compressional Slowness        : 
TLFamily_DTSM      .         Shear Slowness                : 
TLFamily_DTSM_MINUS_ERR_TOTAL .         Shear Slowness                : 
TLFamily_DTSM_PLUS_ERR_TOTAL .         Shear Slowness                : 
TLFamily_MD        .         Measured Depth                : 
TLFamily_PR        .         Poisson Ratio (Dynamic)       : 
TLFamily_VPVS      .         VpVs (Compressional To Shear) Ratio: 
~Curve Information
#_______________________________________________________________________________
#
#LOGNAME           .UNIT     LOG_ID                        : DESCRIPTION
#_______________________________________________________________________________
MD                 .ft                                     :  {F}
DTCO               .US/F                                   :   Delta-T Compressional {F}
DTCO_MINUS_ERR_TOTAL .US/F                                   : Compressional Delta-T Minus Total Compressional Delta-T Error {F}
DTCO_PLUS_ERR_TOTAL .US/F                                   : Compressional Delta-T Plus Total Compressional Delta-T Error {F}
DTSM               .US/F                                   :  Delta-T Shear {F}
DTSM_MINUS_ERR_TOTAL .US/F                                   :    Shear Delta-T Minus Total Shear Delta-T Error {F}
DTSM_PLUS_ERR_TOTAL .US/F                                   : Shear Delta-T Plus Total Shear Delta-T Error {F}
PR                 .                                       : Poisson's Ratio {F}
VPVS               .                                       :  Compressional to Shear Velocity Ratio {F}
~Ascii
# ...
842.5      137.06744  132.79333  141.34155  344.55109  344.55109  344.55109  0.40599    2.51373   
843        135.92799  131.71992  140.13606  341.62628  341.62628  341.62628  0.40596    2.51329   
843.5      136.25204  132.03978  140.46431  342.36633  342.36633  342.36633  0.40591    2.51274   
844        135.42986  131.11971  139.74001  348.54327  348.54327  348.54327  0.41109    2.57361   
844.5      135.82542  131.51372  140.13713  355.33301  355.33301  355.33301  0.41444    2.6161    
845        136.52626  132.19952  140.853    357.57797  357.57797  357.57797  0.41467    2.61911   
845.5      137.80933  133.43553  142.18312  360.08679  360.08679  360.08679  0.4142     2.61293   
846        137.97165  133.65092  142.29237  355.07217  355.07217  355.07217  0.41108    2.57352   
846.5      138.35396  134.35396  142.35396  348.75266  348.75266  348.75266  0.40661    2.52073   
847        138.37152  134.02664  142.7164   351.30594  351.30594  351.30594  0.40819    2.53886   
847.5      137.91878  133.62439  142.21317  357.25848  357.25848  357.25848  0.41243    2.59035   
848        138.54907  134.25342  142.84473  355.63669  355.63669  355.63669  0.41054    2.56686   
848.5      138.56329  134.29013  142.83646  354.4722   354.4722   354.4722   0.40982    2.5582    
849        137.88091  133.658    142.10381  350.75458  350.75458  350.75458  0.40862    2.5439    
849.5      137.40649  133.11504  141.69795  344.9949   344.9949   344.9949   0.40573    2.51076   
850        137.66075  133.41554  141.90596  342.72031  342.72031  342.72031  0.40381    2.4896    
850.5      136.74826  132.43269  141.06383  342.05157  342.05157  342.05157  0.40488    2.50132   
851        136.42152  132.00754  140.83551  341.56049  341.56049  341.56049  0.4051     2.50371   
851.5      137.77005  133.32404  142.21606  345.78745  345.78745  345.78745  0.40565    2.50989   
852        140.97591  136.4453   145.50652  357.57849  357.57849  357.57849  0.40798    2.53645   
852.5      144.25652  139.61772  148.89531  368.61502  368.61502  368.61502  0.40957    2.55527   
853        144.63663  140.12067  149.15259  383.41165  383.41165  383.41165  0.41704    2.65086   
853.5      148.23351  143.75418  152.71283  393.73688  393.73688  393.73688  0.41743    2.65619   
854        148.7247   144.33405  153.11536  398.68063  398.68063  398.68063  0.41917    2.68066   
854.5      147.85233  143.61736  152.0873   399.22711  399.22711  399.22711  0.42052    2.70017   
855        144.84853  140.56877  149.12828  396.73669  396.73669  396.73669  0.4231     2.73898   
855.5      144.43985  140.2068   148.6729   384.72272  384.72272  384.72272  0.41796    2.66355   
856        143.07964  138.88069  147.27858  380.89267  380.89267  380.89267  0.41785    2.6621    
856.5      141.02406  136.78557  145.26256  370.87494  370.87494  370.87494  0.41549    2.62987   
857        139.96672  135.73911  144.19434  368.76505  368.76505  368.76505  0.41585    2.63466   
857.5      140.63591  136.36702  144.9048   368.10641  368.10641  368.10641  0.41454    2.61744   
858        141.11246  136.80197  145.42294  373.40143  373.40143  373.40143  0.41669    2.64613   
858.5      142.43921  138.15144  146.72697  373.80411  373.80411  373.80411  0.41507    2.62431   
859        143.09544  138.82565  147.36523  375.57144  375.57144  375.57144  0.41509    2.62462   
859.5      143.01648  138.74738  147.28558  380.09723  380.09723  380.09723  0.41754    2.65772   
860        143.48839  139.26939  147.70738  387.24188  387.24188  387.24188  0.42042    2.69877   
860.5      142.53235  138.36456  146.70013  383.75214  383.75214  383.75214  0.41999    2.69239   
861        141.9664   137.81007  146.12273  382.62204  382.62204  382.62204  0.42018    2.69516   
861.5      143.11679  138.96649  147.26709  382.29285  382.29285  382.29285  0.4185     2.6712    
862        142.61929  138.47029  146.7683   386.79877  386.79877  386.79877  0.42133    2.71211   
862.5      143.72325  139.52078  147.92572  386.45566  386.45566  386.45566  0.41974    2.68889   
863        143.97833  139.74173  148.21494  380.91354  380.91354  380.91354  0.41666    2.64563   
863.5      143.60689  139.35913  147.85464  380.02338  380.02338  380.02338  0.41671    2.64628   
864        144.44673  140.20709  148.68637  387.24173  387.24173  387.24173  0.41919    2.68086   
864.5      145.0479   140.76276  149.33304  392.32007  392.32007  392.32007  0.42083    2.70476   
865        143.68529  139.38474  147.98584  389.07043  389.07043  389.07043  0.42104    2.7078    
865.5      144.67651  140.42921  148.92381  397.72849  397.72849  397.72849  0.42375    2.74909   
866        145.79385  141.61531  149.9724   399.57529  399.57529  399.57529  0.42321    2.74069   
866.5      144.31451  140.13618  148.49284  398.298    398.298    398.298    0.42444    2.75993   
867        145.44473  141.21829  149.67117  395.31497  395.31497  395.31497  0.42172    2.71797   
867.5      145.18585  140.95641  149.4153   394.67068  394.67068  394.67068  0.42175    2.71838   
868        145.95386  141.73065  150.17706  398.53076  398.53076  398.53076  0.42255    2.73053   
868.5      147.47041  143.27325  151.66757  404.01627  404.01627  404.01627  0.42314    2.73964   
869        146.19835  142.02289  150.37381  400.18549  400.18549  400.18549  0.42299    2.73728   
869.5      146.4035   142.23747  150.56953  399.51553  399.51553  399.51553  0.42244    2.72887   
870        144.96231  140.80426  149.12036  396.80103  396.80103  396.80103  0.42299    2.73727   
870.5      143.989    139.7957   148.1823   390.06339  390.06339  390.06339  0.42112    2.70898   
871        144.02948  139.80048  148.25848  383.56519  383.56519  383.56519  0.41793    2.6631    
871.5      143.41464  139.13225  147.69704  383.53217  383.53217  383.53217  0.41872    2.67429   
872        143.85689  139.54546  148.16832  383.30844  383.30844  383.30844  0.41803    2.66451   
872.5      144.0452   139.78067  148.30972  383.39301  383.39301  383.39301  0.41782    2.66162   
873        145.37488  141.11691  149.63284  388.89545  388.89545  388.89545  0.41878    2.67512   
873.5      145.89478  141.60255  150.187    390.45862  390.45862  390.45862  0.41887    2.6763    
874        147.46147  143.21933  151.70361  400.19479  400.19479  400.19479  0.42145    2.71389   
874.5      149.54837  145.2612   153.83554  400.83859  400.83859  400.83859  0.41915    2.68033   
875        150.33998  146.03156  154.64841  409.0014   409.0014   409.0014   0.42189    2.72051   
875.5      151.6875   147.45911  155.91589  411.90167  411.90167  411.90167  0.42155    2.71546   
876        151.75989  147.54182  155.97795  415.61719  415.61719  415.61719  0.42308    2.73865   
876.5      151.06465  146.88231  155.24699  413.24973  413.24973  413.24973  0.42288    2.73558   
877        150.54901  146.34842  154.7496   409.60477  409.60477  409.60477  0.4219     2.72074   
877.5      149.29501  145.10349  153.48654  407.18979  407.18979  407.18979  0.42235    2.72742   
878        149.87538  145.55528  154.19548  406.68246  406.68246  406.68246  0.42142    2.71347   
878.5      150.74246  146.74246  154.74246  408.8555   408.8555   408.8555   0.42134    2.71228   
879        151.60956  147.30194  155.91718  410.49982  410.49982  410.49982  0.42103    2.70761   
879.5      150.85274  146.51289  155.19258  412.34888  412.34888  412.34888  0.42274    2.73345   
880        152.24472  147.92722  156.56223  412.54297  412.54297  412.54297  0.42117    2.70974   
880.5      151.79309  147.56267  156.02351  411.64713  411.64713  411.64713  0.42131    2.7119    
881        149.728    145.50879  153.9472   409.06433  409.06433  409.06433  0.42265    2.73205   
881.5      149.00386  144.7141   153.29362  405.07285  405.07285  405.07285  0.42176    2.71854   
882        150.88748  146.59358  155.18138  404.59726  404.59726  404.59726  0.41923    2.68145   
882.5      152.47961  148.47961  156.47961  405.26456  405.26456  405.26456  0.41755    2.65783   
