~Version
 VERS              .         3.0                           : CWLS LOG ASCII STANDARD - VERSION 3.0
 WRAP              .         NO                            : ONE LINE PER DEPTH STEP
 DLM               .         SPACE                         : DELIMITING CHARACTER(SPACE TAB OR COMMA)
~Well Information
#_______________________________________________________________________________
#
#PARAMETER_NAME    .UNIT     VALUE                         : DESCRIPTION
#_______________________________________________________________________________
STRT               .ft       113.5                         : First reference value
STOP               .ft       4251                          : Last reference value
STEP               .ft       0.5                           : Step increment
NULL               .         -9999                         : Missing value
COMP               .         ConocoPhillips Alaska,Inc.    : Company
WELL               .         Tinmiaq-6                     : Well name
FLD                .         NPRA ASP4                     : Field
LOC                .                                       : Location
SRVC               .                                       : Service Company
CTRY               .                                       : Country
DATE               .                                       : Service Date
X                  .                                       : X or East-West coordinate
Y                  .                                       : Y or North South coordinate
GDAT               .                                       : Geodetic Datum
HZCS               .                                       : Horizontal Co-ordinate System
API                .         50-103-20731-00-00            : API NUMBER
CNTY               .                                       : COUNTY
COUNTRY            .                                       : COUNTRY
LIC                .         Y_ N 5,941,085.96 ft US       : LICENSE NUMBER
ORIGINALWELLNAME   .         Tinmiaq6_Surface              : 
PROV               .                                       : PROVINCE
STAT               .                                       : STATE
UWI                .         Tinmiaq6_Surface              : UNIQUE WELL UWI
~Parameter Information Block
#_______________________________________________________________________________
#
#PARAMETER_NAME    .UNIT     VALUE                         : DESCRIPTION
#_______________________________________________________________________________
SET                .         SonicScope                    : 
TLFamily_DTCO      .         Compressional Slowness        : 
TLFamily_DTCO_MINUS_ERR_TOTAL .         Compressional Slowness        : 
TLFamily_DTCO_PLUS_ERR_TOTAL .         Compressional Slowness        : 
TLFamily_DTSM      .         Shear Slowness                : 
TLFamily_DTSM_MINUS_ERR_TOTAL .         Shear Slowness                : 
TLFamily_DTSM_PLUS_ERR_TOTAL .         Shear Slowness                : 
TLFamily_MD        .         Measured Depth                : 
TLFamily_PR        .         Poisson Ratio (Dynamic)       : 
TLFamily_VPVS      .         VpVs (Compressional To Shear) Ratio: 
~Curve Information
#_______________________________________________________________________________
#
#LOGNAME           .UNIT     LOG_ID                        : DESCRIPTION
#_______________________________________________________________________________
MD                 .ft                                     :  {F}
DTCO               .US/F                                   :   Delta-T Compressional {F}
DTCO_MINUS_ERR_TOTAL .US/F                                   : Compressional Delta-T Minus Total Compressional Delta-T Error {F}
DTCO_PLUS_ERR_TOTAL .US/F                                   : Compressional Delta-T Plus Total Compressional Delta-T Error {F}
DTSM               .US/F                                   :  Delta-T Shear {F}
DTSM_MINUS_ERR_TOTAL .US/F                                   :    Shear Delta-T Minus Total Shear Delta-T Error {F}
DTSM_PLUS_ERR_TOTAL .US/F                                   : Shear Delta-T Plus Total Shear Delta-T Error {F}
PR                 .                                       : Poisson's Ratio {F}
VPVS               .                                       :  Compressional to Shear Velocity Ratio {F}
~Ascii
# ...
1085.5     154.03043  149.50893  158.55193  403.87704  403.87704  403.87704  0.4149     2.62206   
1086       151.10378  146.60841  155.59914  398.20172  398.20172  398.20172  0.41589    2.63529   
1086.5     150.81171  146.81171  154.81171  394.03137  394.03137  394.03137  0.41418    2.61274   
1087       147.89798  143.4753   152.32066  381.12219  381.12219  381.12219  0.41136    2.57693   
1087.5     145.76776  141.40045  150.13507  368.57462  368.57462  368.57462  0.40729    2.52851   
1088       144.25023  139.91292  148.58754  363.03979  363.03979  363.03979  0.40626    2.51674   
1088.5     145.61646  141.32683  149.90608  359.44104  359.44104  359.44104  0.40183    2.46841   
1089       144.82053  140.82053  148.82053  355.15875  355.15875  355.15875  0.40029    2.45241   
1089.5     144.0246   139.71834  148.33086  349.7832   349.7832   349.7832   0.39792    2.42864   
1090       144.82159  140.59705  149.04614  346.56241  346.56241  346.56241  0.39422    2.39303   
1090.5     144.98494  140.71051  149.25937  345.95367  345.95367  345.95367  0.39347    2.38614   
1091       144.81232  140.5433   149.08133  342.57724  342.57724  342.57724  0.39122    2.36566   
1091.5     142.60985  138.31955  146.90015  337.38705  337.38705  337.38705  0.39123    2.3658    
1092       140.62576  136.31302  144.93851  326.28275  326.28275  326.28275  0.38593    2.32022   
1092.5     137.59103  133.06326  142.1188   316.6369   316.6369   316.6369   0.38361    2.30129   
1093       135.10721  130.6974   139.51701  306.50717  306.50717  306.50717  0.37942    2.26862   
1093.5     133.9491   129.50031  138.39789  301.93631  301.93631  301.93631  0.37748    2.25411   
1094       132.86653  128.17464  137.55843  297.83023  297.83023  297.83023  0.37577    2.24157   
1094.5     132.54668  127.95898  137.13437  295.77798  295.77798  295.77798  0.37436    2.2315    
1095       132.88777  128.35571  137.41983  301.10492  301.10492  301.10492  0.37906    2.26586   
1095.5     133.86673  129.25375  138.47971  305.55029  305.55029  305.55029  0.38123    2.2825    
1096       136.65794  131.92604  141.38985  309.48233  309.48233  309.48233  0.37889    2.26465   
1096.5     137.82341  133.02757  142.61925  311.29492  311.29492  311.29492  0.37809    2.25865   
1097       141.69009  137.69009  145.69009  329.39453  329.39453  329.39453  0.38648    2.32475   
1097.5     145.55678  140.61726  150.49629  350.83636  350.83636  350.83636  0.39604    2.41031   
1098       146.29965  141.37167  151.22763  362.90271  362.90271  362.90271  0.40297    2.48054   
1098.5     149.82602  144.92346  154.72858  393.51309  393.51309  393.51309  0.41523    2.62647   
1099       152.93887  148.28375  157.59399  427.86737  427.86737  427.86737  0.42676    2.79764   
1099.5     153.23756  148.81073  157.6644   444.20267  444.20267  444.20267  0.43246    2.89878   
1100       155.74509  151.45758  160.03259  459.55676  459.55676  459.55676  0.43512    2.9507    
1100.5     153.51901  149.25125  157.78677  471.07065  471.07065  471.07065  0.44059    3.06848   
1101       150.76672  146.38736  155.14609  453.51361  453.51361  453.51361  0.43788    3.00805   
1101.5     146.826    142.32628  151.32573  410.50763  410.50763  410.50763  0.42665    2.79588   
1102       145.82309  141.31926  150.32692  390.52417  390.52417  390.52417  0.41899    2.67807   
1102.5     141.92874  137.46941  146.38808  376.7597   376.7597   376.7597   0.41731    2.65457   
1103       141.47473  136.75346  146.196    367.16626  367.16626  367.16626  0.41282    2.59528   
1103.5     137.12773  132.33772  141.91774  367.14954  367.14954  367.14954  0.41894    2.67743   
1104       137.86775  132.98999  142.74551  362.9115   362.9115   362.9115   0.41567    2.63232   
1104.5     140.33441  135.47495  145.19388  358.43347  358.43347  358.43347  0.40948    2.55414   
1105       138.86096  134.12932  143.59261  363.30045  363.30045  363.30045  0.41446    2.61629   
1105.5     142.41745  137.35822  147.47668  348.42249  348.42249  348.42249  0.39971    2.44649   
1106       144.13605  139.25459  149.0175   342.3519   342.3519   342.3519   0.39228    2.3752    
1106.5     147.52075  142.86462  152.17688  357.23416  357.23416  357.23416  0.39721    2.42159   
1107       150.00992  145.20877  154.81107  375.72519  375.72519  375.72519  0.40518    2.50467   
1107.5     151.92775  147.25529  156.6002   392.66635  392.66635  392.66635  0.41197    2.58456   
1108       153.34071  148.73636  157.94507  403.32892  403.32892  403.32892  0.41552    2.63028   
1108.5     156.724    151.98163  161.46637  417.15274  417.15274  417.15274  0.41783    2.6617    
1109       157.44336  153.44336  161.44336  424.22571  424.22571  424.22571  0.42013    2.69447   
1109.5     158.2513   153.88516  162.61743  433.1127   433.1127   433.1127   0.42296    2.73687   
1110       157.38167  153.13806  161.62527  428.57147  428.57147  428.57147  0.42206    2.72313   
1110.5     155.49254  151.21289  159.77219  423.57812  423.57812  423.57812  0.42213    2.72411   
1111       153.0256   149.0256   157.0256   419.18634  419.18634  419.18634  0.42312    2.73932   
1111.5     150.55867  146.36253  154.75481  405.47849  405.47849  405.47849  0.42004    2.69316   
1112       147.21866  142.76555  151.67177  390.66785  390.66785  390.66785  0.41724    2.65366   
1112.5     145.07816  140.50105  149.65526  376.13837  376.13837  376.13837  0.41262    2.59266   
1113       142.595    138.22118  146.96883  363.37006  363.37006  363.37006  0.40899    2.54827   
1113.5     142.28865  137.80879  146.76851  354.25513  354.25513  354.25513  0.40382    2.48969   
1114       139.42332  134.57164  144.27501  350.47809  350.47809  350.47809  0.406      2.51377   
1114.5     141.28543  136.825    145.74586  346.65985  346.65985  346.65985  0.4004     2.45361   
1115       141.38165  136.75975  146.00356  345.80212  345.80212  345.80212  0.39965    2.44588   
1115.5     143.00465  138.33368  147.67563  345.32861  345.32861  345.32861  0.39651    2.41481   
1116       144.96935  139.43683  150.50186  349.44925  349.44925  349.44925  0.39606    2.4105    
1116.5     144.84956  139.16808  150.53105  349.83978  349.83978  349.83978  0.39655    2.41519   
1117       145.44823  139.56041  151.33604  348.4024   348.4024   348.4024   0.39447    2.39537   
1117.5     144.88348  138.65324  151.11372  344.99866  344.99866  344.99866  0.39294    2.38121   
1118       139.73488  133.30585  146.16391  326.22244  326.22244  326.22244  0.38765    2.33458   
1118.5     131.04364  123.98683  138.10045  307.65045  307.65045  307.65045  0.38918    2.34769   
1119       126.76335  122.76335  130.76335  286.54568  286.54568  286.54568  0.37834    2.26048   
1119.5     123.28371  117.03172  129.53571  279.40622  279.40622  279.40622  0.37912    2.26637   
1120       123.67906  119.67906  127.67906  275.76682  275.76682  275.76682  0.3741     2.2297    
1120.5     126.16622  119.40412  132.92831  271.43301  271.43301  271.43301  0.3622     2.15139   
1121       124.37894  118.80499  129.9529   274.32114  274.32114  274.32114  0.37061    2.20553   
1121.5     125.82041  119.93148  131.70935  273.18024  273.18024  273.18024  0.36538    2.17119   
1122       123.35402  119.35402  127.35402  266.20572  266.20572  266.20572  0.36328    2.15806   
1122.5     123.04936  116.44258  129.65614  262.28284  262.28284  262.28284  0.35889    2.13153   
1123       121.13262  114.89627  127.36897  247.63062  247.63062  247.63062  0.34272    2.04429   
1123.5     121.68909  115.53693  127.84124  241.93123  241.93123  241.93123  0.33066    1.98811   
1124       120.06308  113.80592  126.32024  238.11087  238.11087  238.11087  0.32953    1.98321   
1124.5     114.07784  107.87318  120.28249  239.92834  239.92834  239.92834  0.35395    2.1032    
1125       117.07238  109.95669  124.18807  238.6873   238.6873   238.6873   0.34161    2.0388    
1125.5     112.188    104.46196  119.91403  233.72821  233.72821  233.72821  0.35032    2.08336   
