~Version
 VERS              .         3.0                           : CWLS LOG ASCII STANDARD - VERSION 3.0
 WRAP              .         NO                            : ONE LINE PER DEPTH STEP
 DLM               .         SPACE                         : DELIMITING CHARACTER(SPACE TAB OR COMMA)
~Well Information
#_______________________________________________________________________________
#
#PARAMETER_NAME    .UNIT     VALUE                         : DESCRIPTION
#_______________________________________________________________________________
STRT               .ft       113.5                         : First reference value
STOP               .ft       4251                          : Last reference value
STEP               .ft       0.5                           : Step increment
NULL               .         -9999                         : Missing value
COMP               .         ConocoPhillips Alaska,Inc.    : Company
WELL               .         Tinmiaq-6                     : Well name
FLD                .         NPRA ASP4                     : Field
LOC                .                                       : Location
SRVC               .                                       : Service Company
CTRY               .                                       : Country
DATE               .                                       : Service Date
X                  .                                       : X or East-West coordinate
Y                  .                                       : Y or North South coordinate
GDAT               .                                       : Geodetic Datum
HZCS               .                                       : Horizontal Co-ordinate System
API                .         50-103-20731-00-00            : API NUMBER
CNTY               .                                       : COUNTY
COUNTRY            .                                       : COUNTRY
LIC                .         Y_ N 5,941,085.96 ft US       : LICENSE NUMBER
ORIGINALWELLNAME   .         Tinmiaq6_Surface              : 
PROV               .                                       : PROVINCE
STAT               .                                       : STATE
UWI                .         Tinmiaq6_Surface              : UNIQUE WELL UWI
~Parameter Information Block
#_______________________________________________________________________________
#
#PARAMETER_NAME    .UNIT     VALUE                         : DESCRIPTION
#_______________________________________________________________________________
SET                .         SonicScope                    : 
TLFamily_DTCO      .         Compressional Slowness        : 
TLFamily_DTCO_MINUS_ERR_TOTAL .         Compressional Slowness        : 
TLFamily_DTCO_PLUS_ERR_TOTAL .         Compressional Slowness        : 
TLFamily_DTSM      .         Shear Slowness                : 
TLFamily_DTSM_MINUS_ERR_TOTAL .         Shear Slowness                : 
TLFamily_DTSM_PLUS_ERR_TOTAL .         Shear Slowness                : 
TLFamily_MD        .         Measured Depth                : 
TLFamily_PR        .         Poisson Ratio (Dynamic)       : 
TLFamily_VPVS      .         VpVs (Compressional To Shear) Ratio: 
~Curve Information
#_______________________________________________________________________________
#
#LOGNAME           .UNIT     LOG_ID                        : DESCRIPTION
#_______________________________________________________________________________
MD                 .ft                                     :  {F}
DTCO               .US/F                                   :   Delta-T Compressional {F}
DTCO_MINUS_ERR_TOTAL .US/F                                   : Compressional Delta-T Minus Total Compressional Delta-T Error {F}
DTCO_PLUS_ERR_TOTAL .US/F                                   : Compressional Delta-T Plus Total Compressional Delta-T Error {F}
DTSM               .US/F                                   :  Delta-T Shear {F}
DTSM_MINUS_ERR_TOTAL .US/F                                   :    Shear Delta-T Minus Total Shear Delta-T Error {F}
DTSM_PLUS_ERR_TOTAL .US/F                                   : Shear Delta-T Plus Total Shear Delta-T Error {F}
PR                 .                                       : Poisson's Ratio {F}
VPVS               .                                       :  Compressional to Shear Velocity Ratio {F}
~Ascii
# ...
3508       98.37459   92.55365000000001 104.19553  205.57053  205.57053  205.57053  0.3514899909496307 2.089669942855835
3508.5     98.30889000000001 92.25526000000001 104.36252  206.50839  206.50839  206.50839  0.3534800112247467 2.100610017776489
3509       100.67395  94.60357999999999 106.74432  208.12808  208.12808  208.12808  0.3472799956798554 2.067349910736084
3509.5     102.38811  96.25854   108.51767  210.44238  210.44238  210.44238  0.3449299931526184 2.055340051651001
3510       103.76336  97.77401   109.75271  212.27228  212.27228  212.27228  0.3430199921131134 2.045730113983154
3510.5     104.29998  98.48888   110.11108  213.47189  213.47189  213.47189  0.3432100117206574 2.046710014343262
3511       104.55985  98.86226000000001 110.25745  215.08255  215.08255  215.08255  0.3452700078487396 2.057029962539673
3511.5     104.10864  98.45826   109.75903  214.50104  214.50104  214.50104  0.3459199965000153 2.060359954833984
3512       103.18931  97.49816   108.88046  212.90189  212.90189  212.90189  0.3464800119400024 2.063220024108887
3512.5     102.00828  96.1708    107.84576  210.75186  210.75186  210.75186  0.3470200002193451 2.066030025482178
3513       101.56506  95.45756   107.67257  209.56462  209.56462  209.56462  0.3465000092983246 2.063349962234497
3513.5     102.05594  95.83266999999999 108.27921  209.64639  209.64639  209.64639  0.3447099924087524 2.054229974746704
3514       102.86817  96.57008   109.16626  213.28874  213.28874  213.28874  0.3484399914741516 2.07342004776001
3514.5     103.48938  97.32088   109.65788  215.53783  215.53783  215.53783  0.3501900136470795 2.08270001411438
3515       104.27402  98.3082    110.23984  213.29956  213.29956  213.29956  0.3429799973964691 2.045569896697998
3515.5     104.44781  98.69676   110.19887  212.97429  212.97429  212.97429  0.3416599929332733 2.039050102233887
3516       104.13022  98.44353   109.8169   212.29869  212.29869  212.29869  0.3416000008583069 2.038779973983765
3516.5     103.85498  97.02670000000001 110.68326  210.01688  210.01688  210.01688  0.3381499946117401 2.022209882736206
3517       103.22604  96.08752   110.36457  207.48894  207.48894  207.48894  0.3355399966239929 2.010040044784546
3517.5     103.4784   95.86812999999999 111.08867  209.27817  209.27817  209.27817  0.3382000029087067 2.022429943084717
3518       103.63271  96.00838   111.25703  211.97682  211.97682  211.97682  0.342960000038147 2.045459985733032
3518.5     104.03394  96.32124   111.74664  215.82166  215.82166  215.82166  0.3486500084400177 2.074529886245728
3519       105.15402  97.42480999999999 112.88323  221.06131  221.06131  221.06131  0.3537800014019013 2.102260112762451
3519.5     106.16427  98.53725   113.79129  225.9299   225.9299   225.9299   0.3583100140094757 2.128119945526123
3520       106.88254  99.21587   114.5492   228.22589  228.22589  228.22589  0.3595300018787384 2.135299921035767
3520.5     107.88382  100.28854  115.4791   227.99634  227.99634  227.99634  0.3557499945163727 2.113349914550781
3521       108.30045  100.81791  115.78298  227.5332   227.5332   227.5332   0.3535400032997131 2.100939989089966
3521.5     108.02792  100.66548  115.39037  226.35124  226.35124  226.35124  0.3525199890136719 2.095299959182739
3522       107.73177  100.47797  114.98557  227.55475  227.55475  227.55475  0.3555600047111511 2.112230062484741
3522.5     107.13612  99.87761   114.39462  229.045    229.045    229.045    0.3599700033664703 2.137890100479126
3523       106.76     99.49126   114.02875  229.44777  229.44777  229.44777  0.3618400096893311 2.149189949035645
3523.5     106.44434  99.22119000000001 113.6675   230.08565  230.08565  230.08565  0.3638499975204468 2.16156005859375
3524       105.88139  98.4417    113.32108  229.3243   229.3243   229.3243   0.3645299971103668 2.165859937667847
3524.5     106.21738  98.65922999999999 113.77554  230.50752  230.50752  230.50752  0.3652099967002869 2.1701500415802
3525       106.83381  99.37614000000001 114.29147  231.95702  231.95702  231.95702  0.3653799891471863 2.171190023422241
3525.5     106.73829  99.29206000000001 114.18452  234.06606  234.06606  234.06606  0.3687199950218201 2.192899942398071
3526       106.8996   99.64968   114.14951  232.79987  232.79987  232.79987  0.3664000034332275 2.177740097045898
3526.5     106.31894  99.00547   113.63241  231.05945  231.05945  231.05945  0.3657000064849854 2.173269987106323
3527       106.04034  98.8387    113.24197  228.68068  228.68068  228.68068  0.3630400002002716 2.156539916992188
3527.5     105.52618  98.25854   112.79382  225.80672  225.80672  225.80672  0.360289990901947 2.139820098876953
3528       104.89908  97.50197   112.29619  223.21312  223.21312  223.21312  0.358269989490509 2.127880096435547
3528.5     105.09113  97.73569000000001 112.44658  222.94223  222.94223  222.94223  0.3571600019931793 2.121419906616211
3529       105.61742  98.26099000000001 112.97386  225.76669  225.76669  225.76669  0.3599199950695038 2.137589931488037
3529.5     106.11445  98.78811   113.44079  227.30753  227.30753  227.30753  0.3606700003147125 2.142100095748901
3530       106.39641  98.98848   113.80434  227.88887  227.88887  227.88887  0.3606300055980682 2.141890048980713
3530.5     106.74432  99.2794    114.20924  227.67996  227.67996  227.67996  0.3591299951076508 2.132950067520142
3531       106.58949  99.28448   113.89449  228.85895  228.85895  228.85895  0.3614999949932098 2.147109985351563
3531.5     106.38938  100.26547  112.51329  226.52107  226.52107  226.52107  0.358489990234375 2.129169940948486
3532       106.25692  100.04476  112.46908  227.20325  227.20325  227.20325  0.3600299954414368 2.138240098953247
3532.5     106.37543  100.16454  112.58633  226.97675  226.97675  226.97675  0.3592700064182282 2.133729934692383
3533       106.162    99.98318   112.34083  227.49089  227.49089  227.49089  0.3607999980449677 2.14286994934082
3533.5     106.56205  100.35455  112.76955  227.68748  227.68748  227.68748  0.3597599864006043 2.136670112609863
3534       106.62415  100.23144  113.01687  228.29965  228.29965  228.29965  0.360509991645813 2.141160011291504
3534.5     106.81169  100.64327  112.98011  228.81665  228.81665  228.81665  0.3606899976730347 2.142240047454834
3535       106.84628  100.64218  113.05037  226.77776  226.77776  226.77776  0.357340008020401 2.122469902038574
3535.5     107.1451   100.97384  113.31637  229.10744  229.10744  229.10744  0.3600299954414368 2.138289928436279
3536       106.92105  100.81172  113.03038  228.17021  228.17021  228.17021  0.3593100011348724 2.134010076522827
3536.5     106.92956  100.75812  113.101    228.48616  228.48616  228.48616  0.3597800135612488 2.136790037155151
3537       106.69772  100.5445   112.85094  230.3649   230.3649   230.3649   0.3634400069713593 2.159039974212647
3537.5     106.4352   100.24646  112.62395  227.68695  227.68695  227.68695  0.3601900041103363 2.139209985733032
3538       106.56194  100.38138  112.74251  228.00121  228.00121  228.00121  0.3602499961853027 2.139610052108765
3538.5     106.60129  100.47378  112.7288   227.38072  227.38072  227.38072  0.359140008687973 2.132999897003174
3539       106.31394  100.14327  112.48461  228.89394  228.89394  228.89394  0.3624599874019623 2.153000116348267
3539.5     106.44878  100.27768  112.61989  229.5761   229.5761   229.5761   0.3630599975585938 2.156680107116699
3540       106.39891  100.06963  112.72819  227.50792  227.50792  227.50792  0.3600299954414368 2.138250112533569
3540.5     106.3119   100.05553  112.56828  226.87602  226.87602  226.87602  0.3593200147151947 2.134059906005859
3541       106.34729  100.07238  112.6222   224.90887  224.90887  224.90887  0.3560200035572052 2.114850044250488
3541.5     106.814    100.59592  113.03209  224.16408  224.16408  224.16408  0.3531300127506256 2.098639965057373
3542       106.7471   100.54578  112.94843  225.55295  225.55295  225.55295  0.355679988861084 2.112970113754273
3542.5     107.10859  100.90387  113.31331  226.57408  226.57408  226.57408  0.356110006570816 2.115370035171509
