~Version
 VERS              .         3.0                           : CWLS LOG ASCII STANDARD - VERSION 3.0
 WRAP              .         NO                            : ONE LINE PER DEPTH STEP
 DLM               .         SPACE                         : DELIMITING CHARACTER(SPACE TAB OR COMMA)
~Well Information
#_______________________________________________________________________________
#
#PARAMETER_NAME    .UNIT     VALUE                         : DESCRIPTION
#_______________________________________________________________________________
STRT               .ft       113.5                         : First reference value
STOP               .ft       4251                          : Last reference value
STEP               .ft       0.5                           : Step increment
NULL               .         -9999                         : Missing value
COMP               .         ConocoPhillips Alaska,Inc.    : Company
WELL               .         Tinmiaq-6                     : Well name
FLD                .         NPRA ASP4                     : Field
LOC                .                                       : Location
SRVC               .                                       : Service Company
CTRY               .                                       : Country
DATE               .                                       : Service Date
X                  .                                       : X or East-West coordinate
Y                  .                                       : Y or North South coordinate
GDAT               .                                       : Geodetic Datum
HZCS               .                                       : Horizontal Co-ordinate System
API                .         50-103-20731-00-00            : API NUMBER
CNTY               .                                       : COUNTY
COUNTRY            .                                       : COUNTRY
LIC                .         Y_ N 5,941,085.96 ft US       : LICENSE NUMBER
ORIGINALWELLNAME   .         Tinmiaq6_Surface              : 
PROV               .                                       : PROVINCE
STAT               .                                       : STATE
UWI                .         Tinmiaq6_Surface              : UNIQUE WELL UWI
~Parameter Information Block
#_______________________________________________________________________________
#
#PARAMETER_NAME    .UNIT     VALUE                         : DESCRIPTION
#_______________________________________________________________________________
SET                .         SonicScope                    : 
TLFamily_DTCO      .         Compressional Slowness        : 
TLFamily_DTCO_MINUS_ERR_TOTAL .         Compressional Slowness        : 
TLFamily_DTCO_PLUS_ERR_TOTAL .         Compressional Slowness        : 
TLFamily_DTSM      .         Shear Slowness                : 
TLFamily_DTSM_MINUS_ERR_TOTAL .         Shear Slowness                : 
TLFamily_DTSM_PLUS_ERR_TOTAL .         Shear Slowness                : 
TLFamily_MD        .         Measured Depth                : 
TLFamily_PR        .         Poisson Ratio (Dynamic)       : 
TLFamily_VPVS      .         VpVs (Compressional To Shear) Ratio: 
~Curve Information
#_______________________________________________________________________________
#
#LOGNAME           .UNIT     LOG_ID                        : DESCRIPTION
#_______________________________________________________________________________
MD                 .ft                                     :  {F}
DTCO               .US/F                                   :   Delta-T Compressional {F}
DTCO_MINUS_ERR_TOTAL .US/F                                   : Compressional Delta-T Minus Total Compressional Delta-T Error {F}
DTCO_PLUS_ERR_TOTAL .US/F                                   : Compressional Delta-T Plus Total Compressional Delta-T Error {F}
DTSM               .US/F                                   :  Delta-T Shear {F}
DTSM_MINUS_ERR_TOTAL .US/F                                   :    Shear Delta-T Minus Total Shear Delta-T Error {F}
DTSM_PLUS_ERR_TOTAL .US/F                                   : Shear Delta-T Plus Total Shear Delta-T Error {F}
PR                 .                                       : Poisson's Ratio {F}
VPVS               .                                       :  Compressional to Shear Velocity Ratio {F}
~Ascii
# ...
3067       115.05508  108.70501  121.40516  254.98553  254.98553  254.98553  0.37217    2.2162    
3067.5     116.67715  110.57764  122.77666  260.12418  260.12418  260.12418  0.37407    2.22944   
3068       118.56895  112.72395  124.41395  263.67432  263.67432  263.67432  0.37327    2.22381   
3068.5     120.76148  114.89754  126.62543  267.01218  267.01218  267.01218  0.37143    2.21107   
3069       121.98129  116.03178  127.93081  267.15414  267.15414  267.15414  0.3683     2.19012   
3069.5     121.20248  114.78439  127.62057  262.56293  262.56293  262.56293  0.36461    2.16632   
3070       121.78115  115.15813  128.40416  261.93066  261.93066  261.93066  0.36211    2.15083   
3070.5     121.07306  114.70703  127.43909  261.15128  261.15128  261.15128  0.36311    2.15697   
3071       120.22384  113.94785  126.49983  257.13379  257.13379  257.13379  0.36012    2.13879   
3071.5     117.52653  111.27274  123.78032  244.56885  244.56885  244.56885  0.34987    2.08097   
3072       113.62052  107.3796   119.86144  226.7097   226.7097   226.7097   0.33229    1.99532   
3072.5     110.1006   103.70567  116.49553  222.67212  222.67212  222.67212  0.3382     2.02244   
3073       106.47498  100.08721  112.86274  212.35822  212.35822  212.35822  0.33209    1.99444   
3073.5     102.33815  96.23701   108.43929  201.73102  201.73102  201.73102  0.32673    1.97122   
3074       99.84129   94.0925    105.59009  197.8183   197.8183   197.8183   0.3291     1.98133   
3074.5     98.25535000000001 92.63173000000001 103.87897  196.62556  196.62556  196.62556  0.33359    2.00117   
3075       98.41647   92.67168   104.16125  196.56389  196.56389  196.56389  0.33272    1.99727   
3075.5     98.24918   92.34363000000001 104.15474  198.55254  198.55254  198.55254  0.33788    2.02091   
3076       98.54913000000001 92.56547999999999 104.53278  196.37364  196.37364  196.37364  0.33169    1.99265   
3076.5     98.67771000000001 92.56456   104.79086  198.14409  198.14409  198.14409  0.33509    2.00799   
3077       99.09676   93.0007    105.19283  197.21655  197.21655  197.21655  0.33112    1.99014   
3077.5     100.01275  93.94299   106.08251  197.66634  197.66634  197.66634  0.32795    1.97641   
3078       99.85363   93.87783   105.82943  200.26022  200.26022  200.26022  0.33456    2.00554   
3078.5     100.02402  93.89476000000001 106.15329  199.67615  199.67615  199.67615  0.3325     1.99628   
3079       100.24918  94.17377000000001 106.32458  199.59134  199.59134  199.59134  0.3313     1.99095   
3079.5     100.66917  94.80629999999999 106.53203  202.98952  202.98952  202.98952  0.33691    2.0164    
3080       101.11238  95.47005   106.75471  202.60477  202.60477  202.60477  0.33417    2.00376   
3080.5     100.86844  95.35160999999999 106.38527  200.92749  200.92749  200.92749  0.33153    1.99198   
3081       100.17793  94.69376   105.66209  198.23672  198.23672  198.23672  0.32852    1.97885   
3081.5     99.55880999999999 94.14964000000001 104.96798  195.92099  195.92099  195.92099  0.32594    1.96789   
3082       98.78054   93.44513000000001 104.11595  195.00682  195.00682  195.00682  0.32742    1.97414   
3082.5     97.87757000000001 92.54828999999999 103.20686  194.34116  194.34116  194.34116  0.33007    1.98555   
3083       97.51085999999999 92.14999   102.87172  194.38254  194.38254  194.38254  0.33187    1.99345   
3083.5     97.97456   92.50666   103.44245  196.07549  196.07549  196.07549  0.33362    2.00129   
3084       98.05058   92.44841   103.65274  196.60342  196.60342  196.60342  0.33447    2.00512   
3084.5     97.70014000000001 92.06762999999999 103.33266  195.59544  195.59544  195.59544  0.33378    2.002     
3085       96.76949999999999 91.10986   102.42914  199.43452  199.43452  199.43452  0.34603    2.06092   
3085.5     96.29040000000001 90.536     102.0448   200.27507  200.27507  200.27507  0.34967    2.07991   
3086       95.73132   90.01728   101.44535  199.96849  199.96849  199.96849  0.35134    2.08885   
3086.5     94.97566000000001 89.14310999999999 100.80821  201.02521  201.02521  201.02521  0.35632    2.1166    
3087       95.79038   89.76785   101.81291  202.25439  202.25439  202.25439  0.35541    2.11143   
3087.5     96.04597   89.68903   102.40292  201.05598  201.05598  201.05598  0.35216    2.09333   
3088       96.75400999999999 90.32462   103.1834   200.08649  200.08649  200.08649  0.3474     2.06799   
3088.5     97.43814999999999 91.04331999999999 103.83298  197.70227  197.70227  197.70227  0.33958    2.029     
3089       98.26579   92.07217   104.45941  198.25824  198.25824  198.25824  0.33717    2.01757   
3089.5     99.36214   93.12614000000001 105.59814  198.56088  198.56088  198.56088  0.33297    1.99836   
3090       98.79758   92.85624   104.73893  196.36867  196.36867  196.36867  0.33054    1.98759   
3090.5     98.89978000000001 93.09981000000001 104.69975  192.06947  192.06947  192.06947  0.3196     1.94206   
3091       97.73342   92.01523   103.45161  188.85609  188.85609  188.85609  0.31712    1.93236   
3091.5     96.88773999999999 91.30764000000001 102.46784  187.07466  187.07466  187.07466  0.31672    1.93084   
3092       95.04284   89.48195   100.60373  185.92107  185.92107  185.92107  0.32311    1.95618   
3092.5     94.23357   88.73737   99.72976   187.35931  187.35931  187.35931  0.33069    1.98824   
3093       94.05688000000001 88.54095   99.57281   186.84982  186.84982  186.84982  0.3303     1.98656   
3093.5     94.08953   88.62403000000001 99.55503   186.49693  186.49693  186.49693  0.32928    1.98212   
3094       93.83279   88.11609   99.5495    187.44749  187.44749  187.44749  0.33282    1.99768   
3094.5     95.46669   89.56371   101.36967  187.41885  187.41885  187.41885  0.32481    1.96319   
3095       97.07484   90.98296000000001 103.16671  191.83424  191.83424  191.83424  0.32789    1.97615   
3095.5     98.75664999999999 92.7641    104.74921  197.29185  197.29185  197.29185  0.33283    1.99776   
3096       100.12211  94.30931   105.93491  202.34821  202.34821  202.34821  0.3379     2.02101   
3096.5     100.86368  95.15019   106.57716  205.06653  205.06653  205.06653  0.34043    2.03311   
3097       101.63546  96.10506   107.16586  206.56763  206.56763  206.56763  0.3403     2.03244   
3097.5     101.59081  96.23587000000001 106.94576  206.6188   206.6188   206.6188   0.34059    2.03383   
3098       100.35738  94.96243   105.75233  202.69781  202.69781  202.69781  0.33763    2.01976   
3098.5     98.84533   93.24597   104.44469  198.77039  198.77039  198.77039  0.33573    2.01092   
3099       97.66283   91.70921   103.61646  194.97479  194.97479  194.97479  0.33253    1.99641   
3099.5     97.52633   91.41136   103.6413   194.50943  194.50943  194.50943  0.33209    1.99443   
3100       97.81354   91.51904999999999 104.10802  194.54077  194.54077  194.54077  0.33084    1.98889   
3100.5     99.07756999999999 92.8634    105.29173  198.06607  198.06607  198.06607  0.33313    1.9991    
3101       101.23474  94.94337   107.52612  204.25139  204.25139  204.25139  0.33717    2.0176    
3101.5     103.24545  96.96656   109.52435  211.01959  211.01959  211.01959  0.34264    2.04386   
3102       104.48634  98.40231   110.57037  217.12244  217.12244  217.12244  0.34931    2.078     
3102.5     105.41609  99.45231   111.37988  219.62022  219.62022  219.62022  0.35032    2.08337   
3103       105.31322  99.53308   111.09335  218.71471  218.71471  218.71471  0.34908    2.0768    
3103.5     104.71724  98.81647   110.61801  216.49759  216.49759  216.49759  0.3473     2.06745   
3104       103.86424  98.05061000000001 109.67787  212.34338  212.34338  212.34338  0.34275    2.04443   
3104.5     102.81409  96.8634    108.76478  211.35516  211.35516  211.35516  0.34501    2.0557    
3105       103.28288  97.43253   109.13324  212.21161  212.21161  212.21161  0.3448     2.05466   
3105.5     102.70779  96.5626    108.85297  212.46005  212.46005  212.46005  0.34752    2.06859   
3106       105.0339   98.91025000000001 111.15755  218.87779  218.87779  218.87779  0.35041    2.08388   
