~Version
 VERS              .         3.0                           : CWLS LOG ASCII STANDARD - VERSION 3.0
 WRAP              .         NO                            : ONE LINE PER DEPTH STEP
 DLM               .         SPACE                         : DELIMITING CHARACTER(SPACE TAB OR COMMA)
~Well Information
#_______________________________________________________________________________
#
#PARAMETER_NAME    .UNIT     VALUE                         : DESCRIPTION
#_______________________________________________________________________________
STRT               .ft       113.5                         : First reference value
STOP               .ft       4251                          : Last reference value
STEP               .ft       0.5                           : Step increment
NULL               .         -9999                         : Missing value
COMP               .         ConocoPhillips Alaska,Inc.    : Company
WELL               .         Tinmiaq-6                     : Well name
FLD                .         NPRA ASP4                     : Field
LOC                .                                       : Location
SRVC               .                                       : Service Company
CTRY               .                                       : Country
DATE               .                                       : Service Date
X                  .                                       : X or East-West coordinate
Y                  .                                       : Y or North South coordinate
GDAT               .                                       : Geodetic Datum
HZCS               .                                       : Horizontal Co-ordinate System
API                .         50-103-20731-00-00            : API NUMBER
CNTY               .                                       : COUNTY
COUNTRY            .                                       : COUNTRY
LIC                .         Y_ N 5,941,085.96 ft US       : LICENSE NUMBER
ORIGINALWELLNAME   .         Tinmiaq6_Surface              : 
PROV               .                                       : PROVINCE
STAT               .                                       : STATE
UWI                .         Tinmiaq6_Surface              : UNIQUE WELL UWI
~Parameter Information Block
#_______________________________________________________________________________
#
#PARAMETER_NAME    .UNIT     VALUE                         : DESCRIPTION
#_______________________________________________________________________________
SET                .         SonicScope                    : 
TLFamily_DTCO      .         Compressional Slowness        : 
TLFamily_DTCO_MINUS_ERR_TOTAL .         Compressional Slowness        : 
TLFamily_DTCO_PLUS_ERR_TOTAL .         Compressional Slowness        : 
TLFamily_DTSM      .         Shear Slowness                : 
TLFamily_DTSM_MINUS_ERR_TOTAL .         Shear Slowness                : 
TLFamily_DTSM_PLUS_ERR_TOTAL .         Shear Slowness                : 
TLFamily_MD        .         Measured Depth                : 
TLFamily_PR        .         Poisson Ratio (Dynamic)       : 
TLFamily_VPVS      .         VpVs (Compressional To Shear) Ratio: 
~Curve Information
#_______________________________________________________________________________
#
#LOGNAME           .UNIT     LOG_ID                        : DESCRIPTION
#_______________________________________________________________________________
MD                 .ft                                     :  {F}
DTCO               .US/F                                   :   Delta-T Compressional {F}
DTCO_MINUS_ERR_TOTAL .US/F                                   : Compressional Delta-T Minus Total Compressional Delta-T Error {F}
DTCO_PLUS_ERR_TOTAL .US/F                                   : Compressional Delta-T Plus Total Compressional Delta-T Error {F}
DTSM               .US/F                                   :  Delta-T Shear {F}
DTSM_MINUS_ERR_TOTAL .US/F                                   :    Shear Delta-T Minus Total Shear Delta-T Error {F}
DTSM_PLUS_ERR_TOTAL .US/F                                   : Shear Delta-T Plus Total Shear Delta-T Error {F}
PR                 .                                       : Poisson's Ratio {F}
VPVS               .                                       :  Compressional to Shear Velocity Ratio {F}
~Ascii
# ...
4135.5     100.65554  94.82590999999999 106.48517  207.69904  207.69904  207.69904  0.3465299904346466 2.063460111618042
4136       100.02361  94.1357    105.91151  205.13757  205.13757  205.13757  0.3440499901771545 2.05088996887207
4136.5     100.90868  95.20666   106.61069  205.21074  205.21074  205.21074  0.3405399918556213 2.033629894256592
4137       100.82946  95.0686    106.59032  204.02596  204.02596  204.02596  0.3384200036525726 2.02347993850708
4137.5     102.01239  96.20585   107.81893  207.62288  207.62288  207.62288  0.3408800065517426 2.035269975662231
4138       102.48793  96.81802999999999 108.15783  209.02657  209.02657  209.02657  0.3417499959468842 2.039520025253296
4138.5     102.32417  96.68485   107.96349  207.55196  207.55196  207.55196  0.3394500017166138 2.028379917144775
4139       102.07777  96.39763000000001 107.7579   208.68146  208.68146  208.68146  0.3427299857139587 2.044339895248413
4139.5     102.46363  96.81068000000001 108.11658  211.61856  211.61856  211.61856  0.3468799889087677 2.065299987792969
4140       102.37386  96.57172   108.17601  213.85568  213.85568  213.85568  0.3513599932193756 2.088969945907593
4140.5     102.6204   96.91772   108.32308  213.79256  213.79256  213.79256  0.3503099977970123 2.083329916000366
4141       102.84917  97.19842   108.49992  213.44543  213.44543  213.44543  0.348800003528595 2.07532000541687
4141.5     102.94152  97.337     108.54604  214.39088  214.39088  214.39088  0.3501800000667572 2.082649946212769
4142       103.03093  97.40479000000001 108.65707  212.76488  212.76488  212.76488  0.3468399941921234 2.065059900283814
4142.5     103.08743  97.47777000000001 108.6971   213.42516  213.42516  213.42516  0.3478499948978424 2.070329904556274
4143       102.73023  97.12407   108.3364   213.39507  213.39507  213.39507  0.3491699993610382 2.077239990234375
4143.5     102.5666   96.90940999999999 108.22379  213.11206  213.11206  213.11206  0.3492699861526489 2.077790021896362
4144       102.61098  96.91009   108.31188  212.85548  212.85548  212.85548  0.3486300110816956 2.074389934539795
4144.5     102.7728   97.01688   108.52872  213.94052  213.94052  213.94052  0.3499999940395355 2.081680059432983
4145       103.0634   97.26745   108.85935  213.90332  213.90332  213.90332  0.3488300144672394 2.075449943542481
4145.5     103.51346  97.69511   109.3318   215.69336  215.69336  215.69336  0.350380003452301 2.083719968795776
4146       104.01138  98.30416   109.71859  217.07809  217.07809  217.07809  0.3510099947452545 2.08705997467041
4146.5     104.35972  98.62591999999999 110.09351  219.15054  219.15054  219.15054  0.3533599972724915 2.099950075149536
4147       104.64299  99.04662999999999 110.23935  219.32138  219.32138  219.32138  0.3526299893856049 2.095900058746338
4147.5     104.6348   99.05188   110.21773  218.21184  218.21184  218.21184  0.3507100045681 2.08545994758606
4148       103.89434  98.20768   109.581    217.2639   217.2639   217.2639   0.3517700135707855 2.091200113296509
4148.5     103.77558  98.02318   109.52798  215.52121  215.52121  215.52121  0.3490799963474274 2.076800107955933
4149       103.85683  98.13003999999999 109.58363  217.61171  217.61171  217.61171  0.3525199890136719 2.095299959182739
4149.5     104.13017  98.33665000000001 109.92369  218.45335  218.45335  218.45335  0.3529900014400482 2.09788990020752
4150       104.3002   98.55292   110.04749  219.08099  219.08099  219.08099  0.3534600138664246 2.100480079650879
4150.5     104.47852  98.72911000000001 110.22792  216.35452  216.35452  216.35452  0.3479399979114533 2.070800065994263
4151       104.45595  98.70064000000001 110.21126  217.7406   217.7406   217.7406   0.3505299985408783 2.084520101547241
4151.5     104.4333   98.70407   110.16252  219.28439  219.28439  219.28439  0.3533299863338471 2.099760055541992
4152       104.29145  98.58369   109.99921  219.22894  219.22894  219.22894  0.3537499904632568 2.10208010673523
4152.5     104.29988  98.60986   109.9899   218.49043  218.49043  218.49043  0.352429986000061 2.09483003616333
4153       103.95245  98.28686   109.61803  220.00418  220.00418  220.00418  0.3562900125980377 2.116389989852905
4153.5     104.47266  98.80541   110.13992  220.14494  220.14494  220.14494  0.3546600043773651 2.107199907302856
4154       103.89944  98.13025   109.66862  220.04991  220.04991  220.04991  0.356550008058548 2.117909908294678
4154.5     104.25941  98.54907   109.96976  223.37537  223.37537  223.37537  0.3607400059700012 2.142499923706055
4155       104.41971  98.76575   110.07366  220.64139  220.64139  220.64139  0.3556900024414063 2.113019943237305
4155.5     104.22522  98.60321999999999 109.84722  219.80318  219.80318  219.80318  0.3549700081348419 2.108930110931397
4156       103.85175  98.18456000000001 109.51894  218.54282  218.54282  218.54282  0.3541600108146668 2.1043701171875
4156.5     103.79279  98.13216   109.45342  217.59512  217.59512  217.59512  0.352730005979538 2.096440076828003
4157       103.635    98.00533   109.26468  218.01427  218.01427  218.01427  0.3540300130844116 2.103669881820679
4157.5     103.35728  97.70524   109.00933  215.18367  215.18367  215.18367  0.3500500023365021 2.081939935684204
4158       103.53664  98.0568    109.01649  216.05202  216.05202  216.05202  0.3509399890899658 2.086719989776611
4158.5     103.22894  97.73051   108.72736  216.20361  216.20361  216.20361  0.3523600101470947 2.094409942626953
4159       103.14829  97.61629000000001 108.6803   216.10863  216.10863  216.10863  0.3524900078773499 2.09512996673584
4159.5     103.14829  97.61629000000001 108.6803   216.07466  216.07466  216.07466  0.352429986000061 2.094799995422363
4160       103.14829  97.61629000000001 108.6803   216.08063  216.08063  216.08063  0.3524399995803833 2.094850063323975
4160.5     103.14829  97.61629000000001 108.6803   216.08809  216.08809  216.08809  0.3524500131607056 2.094929933547974
4161       103.14829  97.61629000000001 108.6803   216.16833  216.16833  216.16833  0.3525899946689606 2.095700025558472
4161.5     103.14829  97.61629000000001 108.6803   215.9541   215.9541   215.9541   0.3522099852561951 2.093630075454712
4162       103.14829  97.61629000000001 108.6803   215.89645  215.89645  215.89645  0.3521099984645844 2.093070030212402
4162.5     103.14829  97.61629000000001 108.6803   215.91138  215.91138  215.91138  0.3521400094032288 2.093209981918335
4163       103.14829  97.61629000000001 108.6803   216.23706  216.23706  216.23706  0.3527100086212158 2.096369981765747
4163.5     103.14829  97.61629000000001 108.6803   216.29366  216.29366  216.29366  0.3528099954128265 2.096920013427734
4164       103.14829  97.61629000000001 108.6803   216.33096  216.33096  216.33096  0.3528800010681152 2.097280025482178
4164.5     103.14829  97.61629000000001 108.6803   216.18352  216.18352  216.18352  0.352620005607605 2.095849990844727
4165       103.14829  97.61629000000001 108.6803   216.14606  216.14606  216.14606  0.3525499999523163 2.095489978790283
4165.5     103.14829  97.61629000000001 108.6803   216.00981  216.00981  216.00981  0.3523100018501282 2.094170093536377
4166       103.14829  97.61629000000001 108.6803   215.98863  215.98863  215.98863  0.3522799909114838 2.093960046768189
4166.5     103.14829  97.61629000000001 108.6803   216.11177  216.11177  216.11177  0.3524900078773499 2.095160007476807
4167       103.14829  97.61629000000001 108.6803   216.06686  216.06686  216.06686  0.3524099886417389 2.094719886779785
4167.5     103.14829  97.61629000000001 108.6803   216.08272  216.08272  216.08272  0.3524399995803833 2.094870090484619
4168       103.14829  97.61629000000001 108.6803   215.74696  215.74696  215.74696  0.3518500030040741 2.091619968414307
4168.5     103.14829  97.61629000000001 108.6803   215.9935   215.9935   215.9935   0.3522799909114838 2.0940101146698
4169       103.14829  97.61629000000001 108.6803   216.05998  216.05998  216.05998  0.352400004863739 2.094650030136108
4169.5     103.14829  97.61629000000001 108.6803   216.18257  216.18257  216.18257  0.352620005607605 2.095839977264404
