~Version
 VERS              .         3.0                           : CWLS LOG ASCII STANDARD - VERSION 3.0
 WRAP              .         NO                            : ONE LINE PER DEPTH STEP
 DLM               .         SPACE                         : DELIMITING CHARACTER(SPACE TAB OR COMMA)
~Well Information
#_______________________________________________________________________________
#
#PARAMETER_NAME    .UNIT     VALUE                         : DESCRIPTION
#_______________________________________________________________________________
STRT               .ft       113.5                         : First reference value
STOP               .ft       4251                          : Last reference value
STEP               .ft       0.5                           : Step increment
NULL               .         -9999                         : Missing value
COMP               .         ConocoPhillips Alaska,Inc.    : Company
WELL               .         Tinmiaq-6                     : Well name
FLD                .         NPRA ASP4                     : Field
LOC                .                                       : Location
SRVC               .                                       : Service Company
CTRY               .                                       : Country
DATE               .                                       : Service Date
X                  .                                       : X or East-West coordinate
Y                  .                                       : Y or North South coordinate
GDAT               .                                       : Geodetic Datum
HZCS               .                                       : Horizontal Co-ordinate System
API                .         50-103-20731-00-00            : API NUMBER
CNTY               .                                       : COUNTY
COUNTRY            .                                       : COUNTRY
LIC                .         Y_ N 5,941,085.96 ft US       : LICENSE NUMBER
ORIGINALWELLNAME   .         Tinmiaq6_Surface              : 
PROV               .                                       : PROVINCE
STAT               .                                       : STATE
UWI                .         Tinmiaq6_Surface              : UNIQUE WELL UWI
~Parameter Information Block
#_______________________________________________________________________________
#
#PARAMETER_NAME    .UNIT     VALUE                         : DESCRIPTION
#_______________________________________________________________________________
SET                .         SonicScope                    : 
TLFamily_DTCO      .         Compressional Slowness        : 
TLFamily_DTCO_MINUS_ERR_TOTAL .         Compressional Slowness        : 
TLFamily_DTCO_PLUS_ERR_TOTAL .         Compressional Slowness        : 
TLFamily_DTSM      .         Shear Slowness                : 
TLFamily_DTSM_MINUS_ERR_TOTAL .         Shear Slowness                : 
TLFamily_DTSM_PLUS_ERR_TOTAL .         Shear Slowness                : 
TLFamily_MD        .         Measured Depth                : 
TLFamily_PR        .         Poisson Ratio (Dynamic)       : 
TLFamily_VPVS      .         VpVs (Compressional To Shear) Ratio: 
~Curve Information
#_______________________________________________________________________________
#
#LOGNAME           .UNIT     LOG_ID                        : DESCRIPTION
#_______________________________________________________________________________
MD                 .ft                                     :  {F}
DTCO               .US/F                                   :   Delta-T Compressional {F}
DTCO_MINUS_ERR_TOTAL .US/F                                   : Compressional Delta-T Minus Total Compressional Delta-T Error {F}
DTCO_PLUS_ERR_TOTAL .US/F                                   : Compressional Delta-T Plus Total Compressional Delta-T Error {F}
DTSM               .US/F                                   :  Delta-T Shear {F}
DTSM_MINUS_ERR_TOTAL .US/F                                   :    Shear Delta-T Minus Total Shear Delta-T Error {F}
DTSM_PLUS_ERR_TOTAL .US/F                                   : Shear Delta-T Plus Total Shear Delta-T Error {F}
PR                 .                                       : Poisson's Ratio {F}
VPVS               .                                       :  Compressional to Shear Velocity Ratio {F}
~Ascii
# ...
1571       141.47905  136.96085  145.99725  333.16278  333.16278  333.16278  0.39       2.35486   
1571.5     140.45644  135.85156  145.06131  329.64575  329.64575  329.64575  0.38909    2.34696   
1572       139.88333  135.40411  144.36255  330.54718  330.54718  330.54718  0.39092    2.36302   
1572.5     140.82259  136.28592  145.35925  327.93414  327.93414  327.93414  0.38695    2.3287    
1573       139.63095  135.01779  144.24411  324.10635  324.10635  324.10635  0.38605    2.32116   
1573.5     139.74847  135.30704  144.18991  327.70511  327.70511  327.70511  0.38886    2.34496   
1574       139.63763  135.21236  144.06291  324.08984  324.08984  324.08984  0.38602    2.32093   
1574.5     138.98805  134.59766  143.37845  323.34952  323.34952  323.34952  0.38668    2.32646   
1575       140.06694  135.53568  144.59821  322.98877  322.98877  322.98877  0.38419    2.30596   
1575.5     140.49533  136.12854  144.86212  322.67593  322.67593  322.67593  0.38304    2.2967    
1576       138.28619  133.38014  143.19225  316.52661  316.52661  316.52661  0.38205    2.28892   
1576.5     138.0058   134.0058   142.0058   314.93756  314.93756  314.93756  0.38117    2.28206   
1577       138.86699  133.96651  143.76747  314.46399  314.46399  314.46399  0.37887    2.2645    
1577.5     141.36336  136.078    146.64871  311.38736  311.38736  311.38736  0.3702     2.20274   
1578       138.96109  134.40207  143.52011  317.95981  317.95981  317.95981  0.38195    2.28812   
1578.5     138.46846  134.46846  142.46846  319.8306   319.8306   319.8306   0.38466    2.30977   
1579       139.45282  134.49481  144.41083  321.08328  321.08328  321.08328  0.38376    2.30245   
1579.5     140.17947  135.36148  144.99747  321.75055  321.75055  321.75055  0.38286    2.29528   
1580       138.8166   134.33669  143.29652  318.86465  318.86465  318.86465  0.38308    2.29702   
1580.5     138.21947  133.78177  142.65717  317.17261  317.17261  317.17261  0.38278    2.2947    
1581       136.62907  131.98978  141.26837  314.12079  314.12079  314.12079  0.38333    2.29908   
1581.5     136.67244  131.98215  141.36273  315.1774   315.1774   315.1774   0.38421    2.30608   
1582       138.98425  134.39349  143.57501  317.03271  317.03271  317.03271  0.38105    2.28107   
1582.5     138.0096   133.42171  142.59749  322.11389  322.11389  322.11389  0.38758    2.334     
1583       139.24303  134.79868  143.68738  328.93887  328.93887  328.93887  0.39084    2.36234   
1583.5     139.03955  135.03955  143.03955  330.66071  330.66071  330.66071  0.39261    2.37818   
1584       137.72531  133.24277  142.20786  329.10562  329.10562  329.10562  0.39384    2.38958   
1584.5     138.71634  134.05571  143.37697  324.2449   324.2449   324.2449   0.38799    2.33747   
1585       137.23801  132.49042  141.9856   319.85449  319.85449  319.85449  0.38718    2.33066   
1585.5     134.28645  129.35547  139.21744  313.71182  313.71182  313.71182  0.38783    2.33614   
1586       131.35532  126.52734  136.18329  305.04041  305.04041  305.04041  0.38618    2.32225   
1586.5     129.76323  124.91418  134.61227  297.25974  297.25974  297.25974  0.38229    2.29079   
1587       126.01974  121.20404  130.83545  290.17749  290.17749  290.17749  0.38378    2.30264   
1587.5     125.31946  120.59961  130.03931  286.16638  286.16638  286.16638  0.38136    2.2835    
1588       123.6298   118.61079  128.64882  281.70474  281.70474  281.70474  0.38073    2.27862   
1588.5     126.21117  121.22547  131.19685  279.61615  279.61615  279.61615  0.37207    2.21546   
1589       126.39227  121.74863  131.0359   278.85019  278.85019  278.85019  0.37072    2.20623   
1589.5     125.9473   121.42477  130.46982  280.56879  280.56879  280.56879  0.37382    2.22767   
1590       123.39932  118.53819  128.26047  281.75015  281.75015  281.75015  0.38132    2.28324   
1590.5     122.94351  118.12534  127.76169  283.97241  283.97241  283.97241  0.38466    2.30978   
1591       124.60867  120.04278  129.17458  284.92511  284.92511  284.92511  0.38175    2.28656   
1591.5     123.33662  118.35003  128.32321  287.74316  287.74316  287.74316  0.38746    2.33299   
1592       125.45139  120.27824  130.62454  286.76154  286.76154  286.76154  0.38166    2.28584   
1592.5     125.3372   120.63777  130.03662  288.91959  288.91959  288.91959  0.38409    2.30514   
1593       126.86411  122.21455  131.51366  286.88928  286.88928  286.88928  0.37846    2.26139   
1593.5     127.89913  122.9593   132.83896  284.91241  284.91241  284.91241  0.37381    2.22763   
1594       126.78231  121.99732  131.56731  286.23026  286.23026  286.23026  0.37796    2.25765   
1594.5     127.73296  122.16415  133.30176  285.67856  285.67856  285.67856  0.37506    2.23653   
1595       126.4462   121.66063  131.23177  286.16858  286.16858  286.16858  0.3787     2.26316   
1595.5     125.41548  120.40292  130.42804  289.52252  289.52252  289.52252  0.38451    2.30851   
1596       125.87598  121.01925  130.73273  290.31039  290.31039  290.31039  0.38424    2.30632   
1596.5     126.86752  122.27653  131.45853  293.06241  293.06241  293.06241  0.38469    2.30999   
1597       128.04167  124.04167  132.04167  293.42734  293.42734  293.42734  0.3824     2.29166   
1597.5     129.21582  125.21582  133.21582  293.52637  293.52637  293.52637  0.37981    2.2716    
1598       129.76053  125.22907  134.29198  294.15982  294.15982  294.15982  0.3792     2.26694   
1598.5     129.36269  124.56074  134.16463  294.91971  294.91971  294.91971  0.38088    2.27979   
1599       127.69583  123.02368  132.36798  295.07047  295.07047  295.07047  0.38478    2.31073   
1599.5     127.75931  122.59299  132.92563  294.89203  294.89203  294.89203  0.38447    2.30818   
1600       129.07523  124.2695   133.88095  294.68515  294.68515  294.68515  0.3813     2.28305   
1600.5     129.12758  124.00954  134.24562  295.71457  295.71457  295.71457  0.3822     2.2901    
1601       128.11137  123.60239  132.62036  294.90271  294.90271  294.90271  0.38369    2.30192   
1601.5     129.47604  124.94035  134.01173  294.06775  294.06775  294.06775  0.37976    2.27121   
1602       129.85217  125.28798  134.41637  294.02554  294.02554  294.02554  0.37885    2.26431   
1602.5     128.84535  124.01204  133.67867  295.25424  295.25424  295.25424  0.38238    2.29154   
1603       129.3537   124.71804  133.98935  295.31863  295.31863  295.31863  0.3813     2.28303   
1603.5     128.98976  124.98976  132.98976  294.09067  294.09067  294.09067  0.3809     2.27995   
1604       128.62582  123.88882  133.36282  293.32239  293.32239  293.32239  0.38096    2.28043   
1604.5     128.58104  123.49397  133.66812  292.70209  292.70209  292.70209  0.38044    2.2764    
1605       127.30096  122.68533  131.9166   293.89902  293.89902  293.89902  0.38453    2.30869   
1605.5     127.75571  122.8363   132.67513  291.42438  291.42438  291.42438  0.38105    2.28111   
1606       128.54634  123.94817  133.14452  292.98398  292.98398  292.98398  0.3808     2.27921   
1606.5     129.87912  124.73711  135.02113  292.90637  292.90637  292.90637  0.37763    2.25522   
1607       128.91939  123.91461  133.92416  296.33804  296.33804  296.33804  0.38328    2.29863   
1607.5     131.71175  127.71175  135.71175  298.34811  298.34811  298.34811  0.37896    2.26516   
1608       129.82407  124.55803  135.0901   300.16315  300.16315  300.16315  0.38494    2.31208   
1608.5     130.21184  126.21184  134.21184  303.69199  303.69199  303.69199  0.38738    2.33229   
1609       130.59961  125.47663  135.7226   304.61569  304.61569  304.61569  0.38739    2.33244   
1609.5     130.34566  126.34566  134.34566  301.19995  301.19995  301.19995  0.38478    2.31078   
1610       129.41841  124.54121  134.29561  295.79453  295.79453  295.79453  0.38162    2.28557   
1610.5     129.96576  125.1474   134.78412  293.96844  293.96844  293.96844  0.37853    2.26189   
1611       130.64368  125.68047  135.60689  294.67068  294.67068  294.67068  0.37767    2.25553   
