~Version
 VERS              .         3.0                           : CWLS LOG ASCII STANDARD - VERSION 3.0
 WRAP              .         NO                            : ONE LINE PER DEPTH STEP
 DLM               .         SPACE                         : DELIMITING CHARACTER(SPACE TAB OR COMMA)
~Well Information
#_______________________________________________________________________________
#
#PARAMETER_NAME    .UNIT     VALUE                         : DESCRIPTION
#_______________________________________________________________________________
STRT               .ft       113.5                         : First reference value
STOP               .ft       4251                          : Last reference value
STEP               .ft       0.5                           : Step increment
NULL               .         -9999                         : Missing value
COMP               .         ConocoPhillips Alaska,Inc.    : Company
WELL               .         Tinmiaq-6                     : Well name
FLD                .         NPRA ASP4                     : Field
LOC                .                                       : Location
SRVC               .                                       : Service Company
CTRY               .                                       : Country
DATE               .                                       : Service Date
X                  .                                       : X or East-West coordinate
Y                  .                                       : Y or North South coordinate
GDAT               .                                       : Geodetic Datum
HZCS               .                                       : Horizontal Co-ordinate System
API                .         50-103-20731-00-00            : API NUMBER
CNTY               .                                       : COUNTY
COUNTRY            .                                       : COUNTRY
LIC                .         Y_ N 5,941,085.96 ft US       : LICENSE NUMBER
ORIGINALWELLNAME   .         Tinmiaq6_Surface              : 
PROV               .                                       : PROVINCE
STAT               .                                       : STATE
UWI                .         Tinmiaq6_Surface              : UNIQUE WELL UWI
~Parameter Information Block
#_______________________________________________________________________________
#
#PARAMETER_NAME    .UNIT     VALUE                         : DESCRIPTION
#_______________________________________________________________________________
SET                .         SonicScope                    : 
TLFamily_DTCO      .         Compressional Slowness        : 
TLFamily_DTCO_MINUS_ERR_TOTAL .         Compressional Slowness        : 
TLFamily_DTCO_PLUS_ERR_TOTAL .         Compressional Slowness        : 
TLFamily_DTSM      .         Shear Slowness                : 
TLFamily_DTSM_MINUS_ERR_TOTAL .         Shear Slowness                : 
TLFamily_DTSM_PLUS_ERR_TOTAL .         Shear Slowness                : 
TLFamily_MD        .         Measured Depth                : 
TLFamily_PR        .         Poisson Ratio (Dynamic)       : 
TLFamily_VPVS      .         VpVs (Compressional To Shear) Ratio: 
~Curve Information
#_______________________________________________________________________________
#
#LOGNAME           .UNIT     LOG_ID                        : DESCRIPTION
#_______________________________________________________________________________
MD                 .ft                                     :  {F}
DTCO               .US/F                                   :   Delta-T Compressional {F}
DTCO_MINUS_ERR_TOTAL .US/F                                   : Compressional Delta-T Minus Total Compressional Delta-T Error {F}
DTCO_PLUS_ERR_TOTAL .US/F                                   : Compressional Delta-T Plus Total Compressional Delta-T Error {F}
DTSM               .US/F                                   :  Delta-T Shear {F}
DTSM_MINUS_ERR_TOTAL .US/F                                   :    Shear Delta-T Minus Total Shear Delta-T Error {F}
DTSM_PLUS_ERR_TOTAL .US/F                                   : Shear Delta-T Plus Total Shear Delta-T Error {F}
PR                 .                                       : Poisson's Ratio {F}
VPVS               .                                       :  Compressional to Shear Velocity Ratio {F}
~Ascii
# ...
3926       101.55959  95.83874   107.28043  204.7012   204.7012   204.7012   0.3367399871349335 2.01557993888855
3926.5     101.96669  96.3978    107.53558  206.79974  206.79974  206.79974  0.3393999934196472 2.028110027313232
3927       101.71796  96.04751   107.3884   209.37022  209.37022  209.37022  0.3455199897289276 2.058340072631836
3927.5     101.88082  96.22298000000001 107.53867  208.01862  208.01862  208.01862  0.3422200083732605 2.0417799949646
3928       101.49915  95.83504000000001 107.16326  208.15057  208.15057  208.15057  0.3440200090408325 2.05076003074646
3928.5     101.27724  95.51793000000001 107.03654  210.57715  210.57715  210.57715  0.3495399951934815 2.079220056533814
3929       101.74354  95.97848000000001 107.5086   210.50497  210.50497  210.50497  0.3475899994373322 2.068979978561401
3929.5     101.79542  96.08138   107.50945  211.84087  211.84087  211.84087  0.3498800098896027 2.081049919128418
3930       101.93613  96.15479000000001 107.71748  216.14053  216.14053  216.14053  0.3569799959659576 2.120349884033203
3930.5     102.58145  96.67688   108.48602  219.948    219.948    219.948    0.3610099852085114 2.144129991531372
3931       103.35116  97.68980000000001 109.01252  216.18652  216.18652  216.18652  0.3518700003623962 2.091769933700562
3931.5     104.40607  98.65801999999999 110.15411  217.35997  217.35997  217.35997  0.3500399887561798 2.081870079040527
3932       105.04277  99.44261   110.64293  225.87579  225.87579  225.87579  0.3620299994945526 2.150320053100586
3932.5     104.58925  99.01805   110.16045  219.32277  219.32277  219.32277  0.3528299927711487 2.09699010848999
3933       104.05847  98.43066   109.68629  215.03055  215.03055  215.03055  0.3470999896526337 2.066440105438232
3933.5     103.08932  97.35239   108.82626  212.44815  212.44815  212.44815  0.3460099995136261 2.06082010269165
3934       102.44221  96.57855000000001 108.30586  208.55997  208.55997  208.55997  0.3410100042819977 2.035880088806152
3934.5     101.58868  95.79306   107.38431  204.29515  204.29515  204.29515  0.335750013589859 2.010999917984009
3935       101.39737  95.49786   107.29688  203.77365  203.77365  203.77365  0.3354600071907044 2.009649991989136
3935.5     101.61748  95.59157999999999 107.64337  207.39029  207.39029  207.39029  0.3420299887657166 2.040889978408814
3936       102.19518  96.45354   107.93681  207.1472   207.1472   207.1472   0.3391599953174591 2.026979923248291
3936.5     102.66029  96.94537   108.3752   207.40718  207.40718  207.40718  0.3377499878406525 2.02032995223999
3937       102.59069  96.96905   108.21233  208.44989  208.44989  208.44989  0.3401800096035004 2.031860113143921
3937.5     102.17166  96.59966   107.74367  208.0016   208.0016   208.0016   0.3409900069236755 2.035809993743897
3938       102.1854   96.62860000000001 107.7422   209.54767  209.54767  209.54767  0.3440000116825104 2.050659894943237
3938.5     101.69722  96.25190000000001 107.14254  211.04819  211.04819  211.04819  0.3487899899482727 2.075259923934937
3939       101.38493  95.85178999999999 106.91808  205.92409  205.92409  205.92409  0.3400200009346008 2.031110048294067
3939.5     101.46748  95.831     107.10395  207.07326  207.07326  207.07326  0.3420099914073944 2.040780067443848
3940       101.51529  95.77392999999999 107.25665  210.75899  210.75899  210.75899  0.3489600121974945 2.076129913330078
3940.5     102.17327  96.44602999999999 107.90051  208.86658  208.86658  208.86658  0.3427099883556366 2.04423999786377
3941       102.76001  97.00516   108.51486  211.45016  211.45016  211.45016  0.3454000055789948 2.057709932327271
3941.5     102.84586  97.08698   108.60473  212.40382  212.40382  212.40382  0.3468799889087677 2.06525993347168
3942       103.3215   97.63448   109.00852  213.90021  213.90021  213.90021  0.3478299975395203 2.070240020751953
3942.5     104.00957  98.37378   109.64537  215.55052  215.55052  215.55052  0.3482500016689301 2.072410106658936
3943       103.9961   98.43078   109.56142  214.38745  214.38745  214.38745  0.3461399972438812 2.061500072479248
3943.5     103.65783  98.15437   109.16129  213.86685  213.86685  213.86685  0.3464699983596802 2.063199996948242
3944       102.62807  97.07255000000001 108.18359  208.39726  208.39726  208.39726  0.3399200141429901 2.030610084533691
3944.5     101.87083  96.14538   107.59628  205.99574  205.99574  205.99574  0.3381400108337402 2.022130012512207
3945       102.24575  96.42184   108.06966  206.39688  206.39688  206.39688  0.3373900055885315 2.018640041351318
3945.5     102.43447  96.72353   108.14541  210.35803  210.35803  210.35803  0.3445900082588196 2.053590059280396
3946       102.46062  96.80403   108.11722  210.77919  210.77919  210.77919  0.3452999889850617 2.057169914245606
3946.5     102.39587  96.61153   108.18021  210.30446  210.30446  210.30446  0.3446399867534638 2.053839921951294
3947       102.44872  96.62291999999999 108.27452  211.22783  211.22783  211.22783  0.3461999893188477 2.061789989471436
3947.5     102.95098  97.19248   108.70948  208.12521  208.12521  208.12521  0.338019996881485 2.021600008010864
3948       102.60066  96.9391    108.26222  210.97151  210.97151  210.97151  0.3451099991798401 2.056240081787109
3948.5     102.15942  96.38157   107.93726  209.03088  209.03088  209.03088  0.3430899977684021 2.046119928359985
3949       102.81946  96.97556   108.66336  212.31432  212.31432  212.31432  0.3468100130558014 2.064919948577881
3949.5     103.35905  97.43874   109.27935  215.30853  215.30853  215.30853  0.350270003080368 2.083110094070435
3950       103.94442  98.13555   109.75329  218.06613  218.06613  218.06613  0.3529900014400482 2.097909927368164
3950.5     104.50877  98.80926   110.20829  217.1528   217.1528   217.1528   0.3492799997329712 2.077840089797974
3951       104.45479  98.75042999999999 110.15915  219.29996  219.29996  219.29996  0.3532800078392029 2.099469900131226
3951.5     104.29988  98.62576   109.97401  218.00557  218.00557  218.00557  0.3515799939632416 2.090179920196533
3952       103.63956  97.93908999999999 109.34003  214.94258  214.94258  214.94258  0.3485400080680847 2.07394003868103
3952.5     103.43968  97.70815   109.17122  216.85721  216.85721  216.85721  0.352730005979538 2.096460103988648
3953       103.20493  97.49809000000001 108.91176  213.44052  213.44052  213.44052  0.3474299907684326 2.068120002746582
3953.5     103.25883  97.63177   108.88588  205.66223  205.66223  205.66223  0.3314799964427948 1.991719961166382
3954       103.39445  97.79066   108.99823  208.42844  208.42844  208.42844  0.3368000090122223 2.015860080718994
3954.5     103.20206  97.60561   108.79852  219.2475   219.2475   219.2475   0.3576799929141998 2.124449968338013
3955       103.6988   98.07348   109.32412  217.96994  217.96994  217.96994  0.3537200093269348 2.10194993019104
3955.5     103.37983  97.70135000000001 109.0583   216.68004  216.68004  216.68004  0.3526400029659271 2.095959901809692
3956       103.24387  97.57601   108.91174  217.41588  217.41588  217.41588  0.354420006275177 2.105849981307983
3956.5     103.4421   97.65481   109.22939  215.4109   215.4109   215.4109   0.3501400053501129 2.082429885864258
3957       103.94867  98.14849   109.74885  218.02795  218.02795  218.02795  0.3529100120067596 2.097460031509399
3957.5     104.07392  98.27155000000001 109.87629  216.80646  216.80646  216.80646  0.3502900004386902 2.083199977874756
3958       103.98888  98.26511000000001 109.71266  215.93454  215.93454  215.93454  0.3490299880504608 2.076519966125488
3958.5     104.53403  98.80126   110.26681  212.46944  212.46944  212.46944  0.3403199911117554 2.032540082931519
3959       103.99216  98.37936000000001 109.60495  212.36162  212.36162  212.36162  0.3422800004482269 2.042089939117432
3959.5     103.53369  98.02903000000001 109.03835  213.38959  213.38959  213.38959  0.3460600078105927 2.061059951782227
3960       103.2924   97.67956   108.90524  209.8185   209.8185   209.8185   0.3400599956512451 2.031310081481934
