~Version
 VERS              .         3.0                           : CWLS LOG ASCII STANDARD - VERSION 3.0
 WRAP              .         NO                            : ONE LINE PER DEPTH STEP
 DLM               .         SPACE                         : DELIMITING CHARACTER(SPACE TAB OR COMMA)
~Well Information
#_______________________________________________________________________________
#
#PARAMETER_NAME    .UNIT     VALUE                         : DESCRIPTION
#_______________________________________________________________________________
STRT               .ft       113.5                         : First reference value
STOP               .ft       4251                          : Last reference value
STEP               .ft       0.5                           : Step increment
NULL               .         -9999                         : Missing value
COMP               .         ConocoPhillips Alaska,Inc.    : Company
WELL               .         Tinmiaq-6                     : Well name
FLD                .         NPRA ASP4                     : Field
LOC                .                                       : Location
SRVC               .                                       : Service Company
CTRY               .                                       : Country
DATE               .                                       : Service Date
X                  .                                       : X or East-West coordinate
Y                  .                                       : Y or North South coordinate
GDAT               .                                       : Geodetic Datum
HZCS               .                                       : Horizontal Co-ordinate System
API                .         50-103-20731-00-00            : API NUMBER
CNTY               .                                       : COUNTY
COUNTRY            .                                       : COUNTRY
LIC                .         Y_ N 5,941,085.96 ft US       : LICENSE NUMBER
ORIGINALWELLNAME   .         Tinmiaq6_Surface              : 
PROV               .                                       : PROVINCE
STAT               .                                       : STATE
UWI                .         Tinmiaq6_Surface              : UNIQUE WELL UWI
~Parameter Information Block
#_______________________________________________________________________________
#
#PARAMETER_NAME    .UNIT     VALUE                         : DESCRIPTION
#_______________________________________________________________________________
SET                .         SonicScope                    : 
TLFamily_DTCO      .         Compressional Slowness        : 
TLFamily_DTCO_MINUS_ERR_TOTAL .         Compressional Slowness        : 
TLFamily_DTCO_PLUS_ERR_TOTAL .         Compressional Slowness        : 
TLFamily_DTSM      .         Shear Slowness                : 
TLFamily_DTSM_MINUS_ERR_TOTAL .         Shear Slowness                : 
TLFamily_DTSM_PLUS_ERR_TOTAL .         Shear Slowness                : 
TLFamily_MD        .         Measured Depth                : 
TLFamily_PR        .         Poisson Ratio (Dynamic)       : 
TLFamily_VPVS      .         VpVs (Compressional To Shear) Ratio: 
~Curve Information
#_______________________________________________________________________________
#
#LOGNAME           .UNIT     LOG_ID                        : DESCRIPTION
#_______________________________________________________________________________
MD                 .ft                                     :  {F}
DTCO               .US/F                                   :   Delta-T Compressional {F}
DTCO_MINUS_ERR_TOTAL .US/F                                   : Compressional Delta-T Minus Total Compressional Delta-T Error {F}
DTCO_PLUS_ERR_TOTAL .US/F                                   : Compressional Delta-T Plus Total Compressional Delta-T Error {F}
DTSM               .US/F                                   :  Delta-T Shear {F}
DTSM_MINUS_ERR_TOTAL .US/F                                   :    Shear Delta-T Minus Total Shear Delta-T Error {F}
DTSM_PLUS_ERR_TOTAL .US/F                                   : Shear Delta-T Plus Total Shear Delta-T Error {F}
PR                 .                                       : Poisson's Ratio {F}
VPVS               .                                       :  Compressional to Shear Velocity Ratio {F}
~Ascii
# ...
1814       127.14145  122.37498  131.90791  281.67908  281.67908  281.67908  0.37207    2.21548   
1814.5     128.21776  120.09467  136.34085  282.13138  282.13138  282.13138  0.36985    2.20041   
1815       126.83211  121.56841  132.09581  283.71249  283.71249  283.71249  0.37512    2.23691   
1815.5     127.10628  123.10628  131.10628  288.8613   288.8613   288.8613   0.37994    2.2726    
1816       127.08472  123.08472  131.08472  292.19263  292.19263  292.19263  0.38335    2.2992    
1816.5     126.49606  122.49606  130.49606  296.07959  296.07959  296.07959  0.38836    2.34062   
1817       125.90741  121.90741  129.90741  298.02841  298.02841  298.02841  0.39137    2.36704   
1817.5     125.49452  121.49452  129.49452  296.80161  296.80161  296.80161  0.39115    2.36506   
1818       125.49452  121.49452  129.49452  296.8392   296.8392   296.8392   0.39118    2.36536   
1818.5     125.49452  121.49452  129.49452  294.44144  294.44144  294.44144  0.38901    2.34625   
1819       125.06579  121.06579  129.0658   296.21872  296.21872  296.21872  0.39154    2.3685    
1819.5     124.30061  120.30061  128.30061  294.59671  294.59671  294.59671  0.39171    2.37003   
1820       123.8829   119.8829   127.8829   293.10718  293.10718  293.10718  0.39126    2.366     
1820.5     123.8829   119.8829   127.8829   293.19733  293.19733  293.19733  0.39134    2.36673   
1821       123.8829   119.8829   127.8829   293.22577  293.22577  293.22577  0.39136    2.36696   
1821.5     123.8829   119.8829   127.8829   292.89874  292.89874  292.89874  0.39107    2.36432   
1822       123.8829   119.8829   127.8829   293.88614  293.88614  293.88614  0.39196    2.37229   
1822.5     123.50134  119.50134  127.50134  295.20129  295.20129  295.20129  0.39392    2.39027   
1823       122.54484  118.54484  126.54484  295.08371  295.08371  295.08371  0.3958     2.40797   
1823.5     122.27115  118.27115  126.27115  293.85364  293.85364  293.85364  0.39531    2.4033    
1824       122.27115  118.27115  126.27115  296.44376  296.44376  296.44376  0.3975     2.42448   
1824.5     121.83718  117.83718  125.83718  297.91754  297.91754  297.91754  0.39958    2.44521   
1825       120.744    116.744    124.744    287.28763  287.28763  287.28763  0.39273    2.37931   
1825.5     120.65939  116.65939  124.65939  277.09116  277.09116  277.09116  0.38301    2.29647   
1826       121.06332  117.06332  125.06332  273.23575  273.23575  273.23575  0.37787    2.25697   
1826.5     122.7637   118.7637   126.7637   272.66107  272.66107  272.66107  0.37287    2.22102   
1827       124.86366  120.86366  128.86366  273.87582  273.87582  273.87582  0.3688     2.1934    
1827.5     127.73307  123.73307  131.73306  280.92426  280.92426  280.92426  0.36969    2.19931   
1828       128.71803  124.71803  132.71803  288.85236  288.85236  288.85236  0.37611    2.24407   
1828.5     128.71803  124.71803  132.71803  294.43082  294.43082  294.43082  0.38186    2.28741   
1829       128.71803  124.71803  132.71803  298.8576   298.8576   298.8576   0.38612    2.3218    
1829.5     129.15662  125.15662  133.15662  299.33664  299.33664  299.33664  0.38562    2.31763   
1830       130.32965  126.32965  134.32965  297.31897  297.31897  297.31897  0.38107    2.28128   
1830.5     130.32965  126.32965  134.32965  295.06033  295.06033  295.06033  0.3788     2.26395   
1831       130.32965  126.32965  134.32965  294.3024   294.3024   294.3024   0.37802    2.25814   
1831.5     130.32965  126.32965  134.32965  291.49619  291.49619  291.49619  0.37508    2.23661   
1832       128.66441  124.66441  132.66441  289.53064  289.53064  289.53064  0.37696    2.25028   
1832.5     126.97092  122.97092  130.97092  288.58896  288.58896  288.58896  0.37998    2.27287   
1833       126.62312  122.62312  130.62311  286.22684  286.22684  286.22684  0.37834    2.26046   
1833.5     126.27531  122.27531  130.2753   288.90802  288.90802  288.90802  0.38192    2.28792   
1834       125.9275   121.9275   129.92749  291.12653  291.12653  291.12653  0.38492    2.31186   
1834.5     125.57969  121.57969  129.57968  293.2341   293.2341   293.2341   0.3877     2.33504   
1835       125.49452  121.49452  129.49452  295.86856  295.86856  295.86856  0.39031    2.35762   
1835.5     125.49452  121.49452  129.49452  294.2467   294.2467   294.2467   0.38883    2.3447    
1836       125.49452  121.49452  129.49452  295.22729  295.22729  295.22729  0.38973    2.35251   
1836.5     125.49452  121.49452  129.49452  294.75882  294.75882  294.75882  0.3893     2.34878   
1837       130.47235  125.50226  135.44244  290.86755  290.86755  290.86755  0.37405    2.22934   
1837.5     131.49817  126.06905  136.92728  289.92987  289.92987  289.92987  0.37051    2.20482   
1838       130.24953  124.56904  135.93002  292.31854  292.31854  292.31854  0.37614    2.2443    
1838.5     131.50002  126.59201  136.40802  297.29324  297.29324  297.29324  0.37838    2.26078   
1839       131.3474   126.17156  136.52324  299.36066  299.36066  299.36066  0.3808     2.27915   
1839.5     134.62622  129.8732   139.37924  300.02158  300.02158  300.02158  0.37394    2.22855   
1840       132.08815  127.01359  137.16272  299.66968  299.66968  299.66968  0.37943    2.26871   
1840.5     130.59648  126.59648  134.59648  296.73099  296.73099  296.73099  0.37988    2.27212   
1841       130.14748  124.71583  135.57912  292.8262   292.8262   292.8262   0.37692    2.24996   
1841.5     132.33559  127.12473  137.54645  289.48517  289.48517  289.48517  0.36791    2.18751   
1842       130.3867   126.3867   134.3867   290.00977  290.00977  290.00977  0.37333    2.22423   
1842.5     130.45068  124.64567  136.25571  289.63995  289.63995  289.63995  0.37277    2.2203    
1843       133.73349  128.28894  139.17804  293.66705  293.66705  293.66705  0.36918    2.19591   
1843.5     131.01331  125.28307  136.74353  296.74899  296.74899  296.74899  0.37895    2.26503   
1844       131.30424  125.80122  136.80728  301.06995  301.06995  301.06995  0.38256    2.29292   
1844.5     131.0117   125.80233  136.22107  302.17181  302.17181  302.17181  0.38425    2.30645   
1845       133.19383  127.73403  138.65364  302.32901  302.32901  302.32901  0.37958    2.26984   
1845.5     131.36806  125.65823  137.07788  301.33478  301.33478  301.33478  0.38267    2.29382   
1846       129.84584  124.83522  134.85646  298.78888  298.78888  298.78888  0.38359    2.3011    
1846.5     131.13094  125.44573  136.81615  293.66663  293.66663  293.66663  0.37548    2.23949   
1847       130.22661  125.09166  135.36156  291.29019  291.29019  291.29019  0.3751     2.23679   
1847.5     128.76588  123.68747  133.8443   291.35318  291.35318  291.35318  0.37863    2.26266   
1848       129.80547  124.21985  135.39108  290.20825  290.20825  290.20825  0.37495    2.23572   
1848.5     132.49374  126.74781  138.23969  289.36377  289.36377  289.36377  0.36737    2.18398   
1849       128.78436  124.78436  132.78436  290.06754  290.06754  290.06754  0.37724    2.25235   
1849.5     129.8154   123.60006  136.03075  292.03922  292.03922  292.03922  0.37688    2.24965   
1850       130.49962  124.82497  136.17427  293.12823  293.12823  293.12823  0.3764     2.2462    
1850.5     131.69472  126.01513  137.37431  294.60947  294.60947  294.60947  0.37514    2.23706   
1851       130.24538  124.92413  135.56662  295.93668  295.93668  295.93668  0.37988    2.27215   
1851.5     132.66147  127.07394  138.24899  295.65891  295.65891  295.65891  0.37396    2.22867   
1852       131.61205  125.95789  137.2662   294.7464   294.7464   294.7464   0.37548    2.23951   
1852.5     131.38274  126.25916  136.50632  294.25885  294.25885  294.25885  0.37551    2.23971   
1853       128.98012  123.37637  134.58388  292.71515  292.71515  292.71515  0.37953    2.26946   
1853.5     128.77554  123.58665  133.96443  291.34457  291.34457  291.34457  0.3786     2.26242   
1854       127.27547  121.91122  132.63971  289.24295  289.24295  289.24295  0.37994    2.27257   
