~Version
 VERS              .         3.0                           : CWLS LOG ASCII STANDARD - VERSION 3.0
 WRAP              .         NO                            : ONE LINE PER DEPTH STEP
 DLM               .         SPACE                         : DELIMITING CHARACTER(SPACE TAB OR COMMA)
~Well Information
#_______________________________________________________________________________
#
#PARAMETER_NAME    .UNIT     VALUE                         : DESCRIPTION
#_______________________________________________________________________________
STRT               .ft       113.5                         : First reference value
STOP               .ft       4251                          : Last reference value
STEP               .ft       0.5                           : Step increment
NULL               .         -9999                         : Missing value
COMP               .         ConocoPhillips Alaska,Inc.    : Company
WELL               .         Tinmiaq-6                     : Well name
FLD                .         NPRA ASP4                     : Field
LOC                .                                       : Location
SRVC               .                                       : Service Company
CTRY               .                                       : Country
DATE               .                                       : Service Date
X                  .                                       : X or East-West coordinate
Y                  .                                       : Y or North South coordinate
GDAT               .                                       : Geodetic Datum
HZCS               .                                       : Horizontal Co-ordinate System
API                .         50-103-20731-00-00            : API NUMBER
CNTY               .                                       : COUNTY
COUNTRY            .                                       : COUNTRY
LIC                .         Y_ N 5,941,085.96 ft US       : LICENSE NUMBER
ORIGINALWELLNAME   .         Tinmiaq6_Surface              : 
PROV               .                                       : PROVINCE
STAT               .                                       : STATE
UWI                .         Tinmiaq6_Surface              : UNIQUE WELL UWI
~Parameter Information Block
#_______________________________________________________________________________
#
#PARAMETER_NAME    .UNIT     VALUE                         : DESCRIPTION
#_______________________________________________________________________________
SET                .         SonicScope                    : 
TLFamily_DTCO      .         Compressional Slowness        : 
TLFamily_DTCO_MINUS_ERR_TOTAL .         Compressional Slowness        : 
TLFamily_DTCO_PLUS_ERR_TOTAL .         Compressional Slowness        : 
TLFamily_DTSM      .         Shear Slowness                : 
TLFamily_DTSM_MINUS_ERR_TOTAL .         Shear Slowness                : 
TLFamily_DTSM_PLUS_ERR_TOTAL .         Shear Slowness                : 
TLFamily_MD        .         Measured Depth                : 
TLFamily_PR        .         Poisson Ratio (Dynamic)       : 
TLFamily_VPVS      .         VpVs (Compressional To Shear) Ratio: 
~Curve Information
#_______________________________________________________________________________
#
#LOGNAME           .UNIT     LOG_ID                        : DESCRIPTION
#_______________________________________________________________________________
MD                 .ft                                     :  {F}
DTCO               .US/F                                   :   Delta-T Compressional {F}
DTCO_MINUS_ERR_TOTAL .US/F                                   : Compressional Delta-T Minus Total Compressional Delta-T Error {F}
DTCO_PLUS_ERR_TOTAL .US/F                                   : Compressional Delta-T Plus Total Compressional Delta-T Error {F}
DTSM               .US/F                                   :  Delta-T Shear {F}
DTSM_MINUS_ERR_TOTAL .US/F                                   :    Shear Delta-T Minus Total Shear Delta-T Error {F}
DTSM_PLUS_ERR_TOTAL .US/F                                   : Shear Delta-T Plus Total Shear Delta-T Error {F}
PR                 .                                       : Poisson's Ratio {F}
VPVS               .                                       :  Compressional to Shear Velocity Ratio {F}
~Ascii
# ...
1328.5     127.48917  123.48917  131.48917  266.18573  266.18573  266.18573  0.35116    2.08791   
1329       128.12691  124.12691  132.12691  266.17609  266.17609  266.17609  0.34921    2.07744   
1329.5     128.76463  124.76463  132.76463  263.19934  263.19934  263.19934  0.34267    2.04403   
1330       128.93948  124.93948  132.93948  263.15558  263.15558  263.15558  0.34204    2.04092   
1330.5     128.96349  124.96349  132.96349  266.27063  266.27063  266.27063  0.34677    2.0647    
1331       129.55203  125.55203  133.55203  269.80511  269.80511  269.80511  0.35017    2.0826    
1331.5     130.14056  126.14056  134.14056  276.11652  276.11652  276.11652  0.3572     2.12168   
1332       130.72914  126.72914  134.72914  280.82928  280.82928  280.82928  0.36167    2.14818   
1332.5     131.31779  127.31779  135.31779  284.75195  284.75195  284.75195  0.36494    2.16842   
1333       131.90645  127.90645  135.90645  286.65207  286.65207  286.65207  0.36568    2.17315   
1333.5     131.29906  127.29906  135.29906  283.66507  283.66507  283.66507  0.36367    2.16045   
1334       130.22513  126.22513  134.22513  281.02197  281.02197  281.02197  0.36327    2.15797   
1334.5     129.58752  125.58752  133.58752  277.86694  277.86694  277.86694  0.36103    2.14424   
1335       128.94992  124.94992  132.94992  275.71497  275.71497  275.71497  0.36001    2.13816   
1335.5     128.93948  124.93948  132.93948  273.44308  273.44308  273.44308  0.35704    2.12071   
1336       128.93948  124.93948  132.93948  274.20605  274.20605  274.20605  0.35806    2.12663   
1336.5     128.93948  124.93948  132.93948  274.28369  274.28369  274.28369  0.35816    2.12723   
1337       128.93948  124.93948  132.93948  272.81143  272.81143  272.81143  0.35618    2.11581   
1337.5     129.23689  125.23689  133.23689  269.31656  269.31656  269.31656  0.35042    2.0839    
1338       130.08701  126.08701  134.08701  267.18127  267.18127  267.18127  0.34464    2.05387   
1338.5     130.55109  126.55109  134.55109  268.09512  268.09512  268.09512  0.34458    2.05356   
1339       130.55109  126.55109  134.55109  268.29596  268.29596  268.29596  0.34489    2.0551    
1339.5     130.55109  126.55109  134.55109  273.87079  273.87079  273.87079  0.35298    2.09781   
1340       130.55109  126.55109  134.55109  277.03387  277.03387  277.03387  0.35727    2.12203   
1340.5     130.55109  126.55109  134.55109  278.50931  278.50931  278.50931  0.3592     2.13334   
1341       130.55109  126.55109  134.55109  277.41486  277.41486  277.41486  0.35777    2.12495   
1341.5     127.67305  123.67305  131.67305  286.10806  286.10806  286.10806  0.37568    2.24094   
1342       130.22334  126.22334  134.22334  282.05951  282.05951  282.05951  0.36455    2.16597   
1342.5     131.73994  127.73994  135.73994  261.27423  261.27423  261.27423  0.32954    1.98326   
1343       129.9742   125.9742   133.9742   256.4165   256.4165   256.4165   0.32711    1.97283   
1343.5     128.20844  124.20844  132.20844  251.55879  251.55879  251.55879  0.32455    1.96211   
1344       126.47538  122.47538  130.47537  237.5209   237.5209   237.5209   0.30213    1.878     
1344.5     124.77485  120.77485  128.77484  225.54572  225.54572  225.54572  0.27949    1.80762   
1345       119.71189  115.71189  123.71189  198.4666   198.4666   198.4666   0.21405    1.65787   
1345.5     109.20159  105.20159  113.20159  158.15181  158.15181  158.15181  0.0444     1.44826   
1346       82.70668000000001 78.70668000000001 86.70668000000001 120.89035  120.89035  120.89035  0.06005    1.46168   
1346.5     80.58804000000001 76.58804000000001 84.58804000000001 113.99749  113.99749  113.99749  0.0005000000000000004 1.41457   
1347       80.58804000000001 76.58804000000001 84.58804000000001 115.81931  115.81931  115.81931  0.03073000000000001 1.43718   
1347.5     84.17645   80.17645   88.17645   116.21384  116.21384  116.21384  -0.05185000000000001 1.3806    
1348       108.76455  104.76455  112.76455  134.83894  134.83894  134.83894  -0.43121   1.23973   
1348.5     118.96774  114.96774  122.96774  148.54823  148.54823  148.54823  -0.3942800000000001 1.24864   
1349       121.91694  117.91694  125.91694  178.03993  178.03993  178.03993  0.05853    1.46034   
1349.5     125.71596  121.71596  129.71596  199.68556  199.68556  199.68556  0.17169    1.58839   
1350       124.10435  120.10435  128.10434  224.25902  224.25902  224.25902  0.27928    1.80702   
1350.5     124.10435  120.10435  128.10434  244.63429  244.63429  244.63429  0.32673    1.9712    
1351       123.07085  119.07085  127.07085  252.08365  252.08365  252.08365  0.34353    2.04828   
1351.5     123.88699  119.88699  127.88699  254.20674  254.20674  254.20674  0.34426    2.05192   
1352       125.50414  121.50414  129.50415  253.0023   253.0023   253.0023   0.3368     2.01589   
1352.5     125.71596  121.71596  129.71596  249.30603  249.30603  249.30603  0.32951    1.98309   
1353       125.71596  121.71596  129.71596  232.87109  232.87109  232.87109  0.29434    1.85236   
1353.5     126.04913  122.04913  130.04913  227.91396  227.91396  227.91396  0.27967    1.80814   
1354       122.22361  118.22361  126.22361  215.34203  215.34203  215.34203  0.26238    1.76187   
1354.5     118.39809  114.39809  122.39809  199.14627  199.14627  199.14627  0.22665    1.68201   
1355       113.09873  109.09873  117.09873  185.75482  185.75482  185.75482  0.20545    1.64241   
1355.5     107.74104  103.74104  111.74104  164.21295  164.21295  164.21295  0.12208    1.52414   
1356       87.77473999999999 83.77473999999999 91.77473999999999 145.47943  145.47943  145.47943  0.2138     1.65742   
1356.5     79.25207   75.25207   83.25207   127.4735   127.4735   127.4735   0.18497    1.60846   
1357       76.63144   72.63144   80.63144   116.27794  116.27794  116.27794  0.11609    1.51737   
1357.5     74.71850000000001 70.71850000000001 78.71850000000001 100.54456  100.54456  100.54456  -0.11671   1.34564   
1358       72.80556   68.80556   76.80556   97.22533   97.22533   97.22533   -0.13831   1.33541   
1358.5     73.34796   69.34796   77.34796   99.20052   99.20052   99.20052   -0.10302   1.35246   
1359       76.31771999999999 72.31771999999999 80.31771999999999 104.1237   104.1237   104.1237   -0.08043   1.36434   
1359.5     89.07194   85.07194   93.07194   112.79917  112.79917  112.79917  -0.32819   1.26638   
1360       98.43642   94.43642   102.43642  132.98453  132.98453  132.98453  -0.10598   1.35097   
1360.5     105.37208  101.37208  109.37208  158.13853  158.13853  158.13853  0.10073    1.50076   
1361       109.62848  105.62848  113.62848  177.1116   177.1116   177.1116   0.18945    1.61556   
1361.5     112.41103  108.41103  116.41103  203.03073  203.03073  203.03073  0.27897    1.80615   
1362       116.36341  112.36341  120.36341  218.6373   218.6373   218.6373   0.3024     1.87892   
1362.5     114.93398  110.93398  118.93398  237.29498  237.29498  237.29498  0.34675    2.06462   
1363       116.86533  107.42316  126.3075   246.54208  246.54208  246.54208  0.35509    2.10963   
1363.5     118.90548  104.3142   133.49677  252.74272  252.74272  252.74272  0.35788    2.12558   
1364       121.70342  110.68009  132.72675  256.8143   256.8143   256.8143   0.35519    2.11016   
1364.5     121.46156  108.29422  134.62891  257.73065  257.73065  257.73065  0.35725    2.12191   
1365       122.45363  112.20065  132.7066   259.38757  259.38757  259.38757  0.35661    2.11825   
1365.5     127.42572  118.67448  136.17697  262.54462  262.54462  262.54462  0.34592    2.06037   
1366       126.75986  118.11655  135.40317  266.97537  266.97537  266.97537  0.35448    2.10615   
1366.5     128.43312  121.57079  135.29546  270.12646  270.12646  270.12646  0.35396    2.10325   
1367       130.09483  126.09483  134.09483  271.28583  271.28583  271.28583  0.35068    2.08529   
1367.5     123.01509  113.93248  132.0977   269.4115   269.4115   269.4115   0.3683     2.19007   
1368       126.88697  118.36217  135.41177  266.44092  266.44092  266.44092  0.35334    2.09983   
