~Version
 VERS              .         3.0                           : CWLS LOG ASCII STANDARD - VERSION 3.0
 WRAP              .         NO                            : ONE LINE PER DEPTH STEP
 DLM               .         SPACE                         : DELIMITING CHARACTER(SPACE TAB OR COMMA)
~Well Information
#_______________________________________________________________________________
#
#PARAMETER_NAME    .UNIT     VALUE                         : DESCRIPTION
#_______________________________________________________________________________
STRT               .ft       113.5                         : First reference value
STOP               .ft       4251                          : Last reference value
STEP               .ft       0.5                           : Step increment
NULL               .         -9999                         : Missing value
COMP               .         ConocoPhillips Alaska,Inc.    : Company
WELL               .         Tinmiaq-6                     : Well name
FLD                .         NPRA ASP4                     : Field
LOC                .                                       : Location
SRVC               .                                       : Service Company
CTRY               .                                       : Country
DATE               .                                       : Service Date
X                  .                                       : X or East-West coordinate
Y                  .                                       : Y or North South coordinate
GDAT               .                                       : Geodetic Datum
HZCS               .                                       : Horizontal Co-ordinate System
API                .         50-103-20731-00-00            : API NUMBER
CNTY               .                                       : COUNTY
COUNTRY            .                                       : COUNTRY
LIC                .         Y_ N 5,941,085.96 ft US       : LICENSE NUMBER
ORIGINALWELLNAME   .         Tinmiaq6_Surface              : 
PROV               .                                       : PROVINCE
STAT               .                                       : STATE
UWI                .         Tinmiaq6_Surface              : UNIQUE WELL UWI
~Parameter Information Block
#_______________________________________________________________________________
#
#PARAMETER_NAME    .UNIT     VALUE                         : DESCRIPTION
#_______________________________________________________________________________
SET                .         SonicScope                    : 
TLFamily_DTCO      .         Compressional Slowness        : 
TLFamily_DTCO_MINUS_ERR_TOTAL .         Compressional Slowness        : 
TLFamily_DTCO_PLUS_ERR_TOTAL .         Compressional Slowness        : 
TLFamily_DTSM      .         Shear Slowness                : 
TLFamily_DTSM_MINUS_ERR_TOTAL .         Shear Slowness                : 
TLFamily_DTSM_PLUS_ERR_TOTAL .         Shear Slowness                : 
TLFamily_MD        .         Measured Depth                : 
TLFamily_PR        .         Poisson Ratio (Dynamic)       : 
TLFamily_VPVS      .         VpVs (Compressional To Shear) Ratio: 
~Curve Information
#_______________________________________________________________________________
#
#LOGNAME           .UNIT     LOG_ID                        : DESCRIPTION
#_______________________________________________________________________________
MD                 .ft                                     :  {F}
DTCO               .US/F                                   :   Delta-T Compressional {F}
DTCO_MINUS_ERR_TOTAL .US/F                                   : Compressional Delta-T Minus Total Compressional Delta-T Error {F}
DTCO_PLUS_ERR_TOTAL .US/F                                   : Compressional Delta-T Plus Total Compressional Delta-T Error {F}
DTSM               .US/F                                   :  Delta-T Shear {F}
DTSM_MINUS_ERR_TOTAL .US/F                                   :    Shear Delta-T Minus Total Shear Delta-T Error {F}
DTSM_PLUS_ERR_TOTAL .US/F                                   : Shear Delta-T Plus Total Shear Delta-T Error {F}
PR                 .                                       : Poisson's Ratio {F}
VPVS               .                                       :  Compressional to Shear Velocity Ratio {F}
~Ascii
# ...
2340.5     127.3241   120.40736  134.24086  310.34204  310.34204  310.34204  0.39881    2.43742   
2341       126.22019  119.5638   132.87659  309.69003  309.69003  309.69003  0.4004     2.45357   
2341.5     126.29114  119.758    132.82428  309.49503  309.49503  309.49503  0.40011    2.45065   
2342       125.8111   119.2607   132.36151  308.19424  308.19424  308.19424  0.40002    2.44966   
2342.5     125.49644  119.10619  131.8867   303.69974  303.69974  303.69974  0.39704    2.41999   
2343       124.62461  118.27528  130.97394  299.63333  299.63333  299.63333  0.39541    2.40429   
2343.5     124.06858  117.6552   130.48196  298.18677  298.18677  298.18677  0.39532    2.4034    
2344       122.80752  116.39777  129.21727  296.08026  296.08026  296.08026  0.39611    2.41093   
2344.5     122.62886  116.21717  129.04054  296.29309  296.29309  296.29309  0.39665    2.41618   
2345       123.4465   116.97675  129.91623  297.95663  297.95663  297.95663  0.39639    2.41365   
2345.5     123.37723  116.62727  130.12718  298.94974  298.94974  298.94974  0.39736    2.42305   
2346       126.38489  119.35257  133.41721  304.0809   304.0809   304.0809   0.39559    2.40599   
2346.5     131.16788  127.16788  135.16788  324.47281  324.47281  324.47281  0.40233    2.47372   
2347       132.44286  128.44286  136.44286  345.0842   345.0842   345.0842   0.41363    2.60553   
2347.5     131.37955  127.37955  135.37955  363.46442  363.46442  363.46442  0.42485    2.76652   
2348       126.39735  122.39735  130.39735  356.72986  356.72986  356.72986  0.42822    2.82229   
2348.5     122.6032   118.6032   126.6032   342.07666  342.07666  342.07666  0.42631    2.79011   
2349       120.65305  116.65305  124.65305  326.91846  326.91846  326.91846  0.42116    2.70957   
2349.5     118.95252  114.95252  122.95252  291.83859  291.83859  291.83859  0.40038    2.4534    
2350       116.15862  108.94494  123.37231  279.10699  279.10699  279.10699  0.39525    2.40281   
2350.5     117.20537  109.74005  124.67068  271.47873  271.47873  271.47873  0.38545    2.31627   
2351       116.58047  109.12411  124.03683  269.61365  269.61365  269.61365  0.38502    2.31268   
2351.5     117.81355  110.46275  125.16435  274.77286  274.77286  274.77286  0.38737    2.33227   
2352       118.19611  110.94953  125.4427   277.13733  277.13733  277.13733  0.38883    2.34472   
2352.5     118.47448  111.05109  125.89787  281.17615  281.17615  281.17615  0.39207    2.37331   
2353       119.2962   111.91338  126.67902  286.78284  286.78284  286.78284  0.39538    2.40396   
2353.5     119.00562  111.65344  126.35779  293.18854  293.18854  293.18854  0.40137    2.46365   
2354       118.64629  111.327    125.96559  293.04352  293.04352  293.04352  0.40197    2.46989   
2354.5     118.03526  110.75267  125.31784  290.44806  290.44806  290.44806  0.40109    2.46069   
2355       116.57801  109.0331   124.12292  284.67941  284.67941  284.67941  0.39926    2.44196   
2355.5     116.68271  109.44769  123.91772  277.39484  277.39484  277.39484  0.39251    2.37734   
2356       115.47749  108.37667  122.5783   267.68335  267.68335  267.68335  0.38567    2.31806   
2356.5     114.0397   106.88454  121.19485  257.54416  257.54416  257.54416  0.37806    2.25837   
2357       112.45397  105.18851  119.71943  250.55991  250.55991  250.55991  0.37388    2.22811   
2357.5     110.94795  103.38799  118.50792  248.38426  248.38426  248.38426  0.37537    2.23875   
2358       111.46763  103.81023  119.12503  250.36964  250.36964  250.36964  0.37639    2.24612   
2358.5     111.5298   104.00441  119.05519  249.73209  249.73209  249.73209  0.37543    2.23915   
2359       111.45625  104.03754  118.87497  249.26297  249.26297  249.26297  0.37505    2.23642   
2359.5     112.34871  104.74895  119.94846  251.49899  251.49899  251.49899  0.37535    2.23856   
2360       113.01189  105.25156  120.77222  254.60832  254.60832  254.60832  0.37732    2.25293   
2360.5     114.08736  106.48322  121.69151  257.20078  257.20078  257.20078  0.37752    2.25442   
2361       114.32655  106.64391  122.00919  260.95071  260.95071  260.95071  0.38123    2.2825    
2361.5     114.63375  106.81593  122.45158  262.25262  262.25262  262.25262  0.3819     2.28774   
2362       117.01328  109.22891  124.79764  267.1311   267.1311   267.1311   0.38128    2.28291   
2362.5     118.53542  111.04053  126.0303   269.78674  269.78674  269.78674  0.38039    2.276     
2363       117.64147  110.21264  125.0703   267.74908  267.74908  267.74908  0.38038    2.27598   
2363.5     115.39804  108.12804  122.66804  263.25415  263.25415  263.25415  0.38107    2.28127   
2364       114.92919  107.60625  122.25214  261.42789  261.42789  261.42789  0.38022    2.27469   
2364.5     115.62758  108.29699  122.95817  256.88705  256.88705  256.88705  0.37296    2.22168   
2365       116.23711  108.70541  123.76882  254.23741  254.23741  254.23741  0.36786    2.18723   
2365.5     115.62276  108.23415  123.01138  254.88956  254.88956  254.88956  0.37046    2.20449   
2366       115.38749  107.85291  122.92207  258.71948  258.71948  258.71948  0.37585    2.24218   
2366.5     115.39152  108.04193  122.7411   260.02786  260.02786  260.02786  0.37739    2.25344   
2367       115.29886  108.05283  122.54488  260.03925  260.03925  260.03925  0.37765    2.25535   
2367.5     115.05066  107.85895  122.24237  258.82706  258.82706  258.82706  0.37688    2.24968   
2368       114.91373  107.81664  122.01081  257.07617  257.07617  257.07617  0.37515    2.23712   
2368.5     115.47578  108.21064  122.74091  256.68991  256.68991  256.68991  0.37314    2.22289   
2369       115.23983  107.96079  122.51887  257.32764  257.32764  257.32764  0.37457    2.23297   
2369.5     114.33517  106.9884   121.68194  257.34592  257.34592  257.34592  0.37703    2.2508    
2370       115.66982  108.39924  122.94041  255.01765  255.01765  255.01765  0.37049    2.2047    
2370.5     116.73137  109.53806  123.92468  255.25291  255.25291  255.25291  0.36778    2.18667   
2371       115.71127  108.43854  122.98399  255.1837   255.1837   255.1837   0.37059    2.20535   
2371.5     115.56493  108.26399  122.86586  252.43787  252.43787  252.43787  0.36743    2.18438   
2372       114.94349  107.69277  122.19421  251.78386  251.78386  251.78386  0.36836    2.1905    
2372.5     114.98147  107.60236  122.36057  252.21864  252.21864  252.21864  0.36882    2.19356   
2373       115.81717  108.34261  123.29173  256.22324  256.22324  256.22324  0.37161    2.21231   
2373.5     116.0899   109.84132  122.33849  257.64444  257.64444  257.64444  0.37263    2.21935   
2374       115.86227  109.66241  122.06213  258.4306   258.4306   258.4306   0.37422    2.2305    
2374.5     116.7219   110.56564  122.87817  260.19724  260.19724  260.19724  0.37404    2.22921   
2375       116.08521  110.06623  122.10418  258.31671  258.31671  258.31671  0.37347    2.22523   
2375.5     115.04111  109.12492  120.95729  254.88353  254.88353  254.88353  0.37208    2.21559   
2376       114.0905   108.21008  119.97092  252.46358  252.46358  252.46358  0.37168    2.21284   
2376.5     113.78642  107.78143  119.79141  249.92165  249.92165  249.92165  0.36925    2.19641   
2377       112.59032  106.71146  118.46918  247.6685   247.6685   247.6685   0.36975    2.19973   
2377.5     110.92918  104.9512   116.90715  245.4875   245.4875   245.4875   0.37171    2.21301   
2378       110.31358  104.08367  116.5435   242.68304  242.68304  242.68304  0.36978    2.19994   
2378.5     110.00422  103.8149   116.19353  240.90311  240.90311  240.90311  0.36828    2.18994   
2379       109.87896  103.53411  116.22381  241.68709  241.68709  241.68709  0.36973    2.19958   
2379.5     110.62064  104.22177  117.0195   244.14211  244.14211  244.14211  0.37083    2.20702   
2380       111.75571  105.31064  118.20078  251.87819  251.87819  251.87819  0.37744    2.25383   
2380.5     113.15472  106.74576  119.56367  254.96986  254.96986  254.96986  0.37737    2.25329   
