~Version
 VERS              .         3.0                           : CWLS LOG ASCII STANDARD - VERSION 3.0
 WRAP              .         NO                            : ONE LINE PER DEPTH STEP
 DLM               .         SPACE                         : DELIMITING CHARACTER(SPACE TAB OR COMMA)
~Well Information
#_______________________________________________________________________________
#
#PARAMETER_NAME    .UNIT     VALUE                         : DESCRIPTION
#_______________________________________________________________________________
STRT               .ft       113.5                         : First reference value
STOP               .ft       4251                          : Last reference value
STEP               .ft       0.5                           : Step increment
NULL               .         -9999                         : Missing value
COMP               .         ConocoPhillips Alaska,Inc.    : Company
WELL               .         Tinmiaq-6                     : Well name
FLD                .         NPRA ASP4                     : Field
LOC                .                                       : Location
SRVC               .                                       : Service Company
CTRY               .                                       : Country
DATE               .                                       : Service Date
X                  .                                       : X or East-West coordinate
Y                  .                                       : Y or North South coordinate
GDAT               .                                       : Geodetic Datum
HZCS               .                                       : Horizontal Co-ordinate System
API                .         50-103-20731-00-00            : API NUMBER
CNTY               .                                       : COUNTY
COUNTRY            .                                       : COUNTRY
LIC                .         Y_ N 5,941,085.96 ft US       : LICENSE NUMBER
ORIGINALWELLNAME   .         Tinmiaq6_Surface              : 
PROV               .                                       : PROVINCE
STAT               .                                       : STATE
UWI                .         Tinmiaq6_Surface              : UNIQUE WELL UWI
~Parameter Information Block
#_______________________________________________________________________________
#
#PARAMETER_NAME    .UNIT     VALUE                         : DESCRIPTION
#_______________________________________________________________________________
SET                .         SonicScope                    : 
TLFamily_DTCO      .         Compressional Slowness        : 
TLFamily_DTCO_MINUS_ERR_TOTAL .         Compressional Slowness        : 
TLFamily_DTCO_PLUS_ERR_TOTAL .         Compressional Slowness        : 
TLFamily_DTSM      .         Shear Slowness                : 
TLFamily_DTSM_MINUS_ERR_TOTAL .         Shear Slowness                : 
TLFamily_DTSM_PLUS_ERR_TOTAL .         Shear Slowness                : 
TLFamily_MD        .         Measured Depth                : 
TLFamily_PR        .         Poisson Ratio (Dynamic)       : 
TLFamily_VPVS      .         VpVs (Compressional To Shear) Ratio: 
~Curve Information
#_______________________________________________________________________________
#
#LOGNAME           .UNIT     LOG_ID                        : DESCRIPTION
#_______________________________________________________________________________
MD                 .ft                                     :  {F}
DTCO               .US/F                                   :   Delta-T Compressional {F}
DTCO_MINUS_ERR_TOTAL .US/F                                   : Compressional Delta-T Minus Total Compressional Delta-T Error {F}
DTCO_PLUS_ERR_TOTAL .US/F                                   : Compressional Delta-T Plus Total Compressional Delta-T Error {F}
DTSM               .US/F                                   :  Delta-T Shear {F}
DTSM_MINUS_ERR_TOTAL .US/F                                   :    Shear Delta-T Minus Total Shear Delta-T Error {F}
DTSM_PLUS_ERR_TOTAL .US/F                                   : Shear Delta-T Plus Total Shear Delta-T Error {F}
PR                 .                                       : Poisson's Ratio {F}
VPVS               .                                       :  Compressional to Shear Velocity Ratio {F}
~Ascii
# ...
3719       105.29123  99.60108   110.98138  224.68752  224.68752  224.68752  0.3593100011348724 2.133960008621216
3719.5     104.20396  98.43284   109.97507  220.97723  220.97723  220.97723  0.3570199906826019 2.120620012283325
3720       103.73581  97.85381   109.61781  218.39174  218.39174  218.39174  0.3543199896812439 2.105269908905029
3720.5     103.71323  97.7614    109.66507  218.19611  218.19611  218.19611  0.3540599942207336 2.103840112686157
3721       103.71908  97.63982   109.79833  218.52036  218.52036  218.52036  0.3546000123023987 2.106849908828735
3721.5     103.99162  97.89355000000001 110.08969  222.53127  222.53127  222.53127  0.3603000044822693 2.139899969100952
3722       104.56011  98.3561    110.76412  228.03796  228.03796  228.03796  0.3668999969959259 2.180929899215698
3722.5     105.41649  99.27122   111.56175  230.91006  230.91006  230.91006  0.3683499991893768 2.190449953079224
3723       106.25477  100.14312  112.36642  233.55554  233.55554  233.55554  0.3695000112056732 2.198070049285889
3723.5     106.93209  100.8242   113.03998  236.79596  236.79596  236.79596  0.3719199895858765 2.214449882507324
3724       107.48022  101.54568  113.41476  237.9633   237.9633   237.9633   0.37185999751091 2.214020013809204
3724.5     107.44642  101.62178  113.27106  236.909    236.909    236.909    0.3705199956893921 2.204900026321411
3725       106.84046  101.10458  112.57635  233.76866  233.76866  233.76866  0.3679800033569336 2.188019990921021
3725.5     105.70048  99.85004000000001 111.55091  233.24881  233.24881  233.24881  0.3707799911499023 2.206700086593628
3726       104.88262  98.79125999999999 110.97398  229.05811  229.05811  229.05811  0.36735999584198 2.183949947357178
3726.5     104.91124  98.7171    111.10538  228.71323  228.71323  228.71323  0.3667599856853485 2.180059909820557
3727       105.42885  98.88381   111.97388  229.59338  229.59338  229.59338  0.3664000034332275 2.177710056304932
3727.5     106.09032  99.43702999999999 112.7436   233.46027  233.46027  233.46027  0.3698799908161163 2.200579881668091
3728       107.38785  100.74875  114.02695  236.17032  236.17032  236.17032  0.3696799874305725 2.199229955673218
3728.5     108.95415  102.60161  115.30669  237.41483  237.41483  237.41483  0.3666000068187714 2.179029941558838
3729       109.54201  103.34341  115.7406   240.7466   240.7466   240.7466   0.3694599866867065 2.197760105133057
3729.5     109.67915  103.65154  115.70676  241.34145  241.34145  241.34145  0.3698599934577942 2.200429916381836
3730       109.46401  103.53417  115.39385  239.5755   239.5755   239.5755   0.3680799901485443 2.188620090484619
3730.5     108.4136   102.51452  114.31268  234.84006  234.84006  234.84006  0.3645800054073334 2.166150093078613
3731       107.95472  102.1957   113.71374  229.73409  229.73409  229.73409  0.3583000004291534 2.128060102462769
3731.5     107.7552   102.1016   113.40879  226.6217   226.6217   226.6217   0.3539299964904785 2.103120088577271
3732       107.99883  102.48235  113.51532  220.79195  220.79195  220.79195  0.342739999294281 2.044389963150024
3732.5     107.39841  101.82573  112.97108  220.57179  220.57179  220.57179  0.3446199893951416 2.053770065307617
3733       106.17159  100.49584  111.84734  214.20703  214.20703  214.20703  0.3371599912643433 2.017549991607666
3733.5     103.57693  97.73763   109.41623  208.1246   208.1246   208.1246   0.3353999853134155 2.009370088577271
3734       100.09606  94.27871   105.91341  199.83536  199.83536  199.83536  0.3325400054454804 1.996440052986145
3734.5     97.31529000000001 91.63486   102.99573  190.67711  190.67711  190.67711  0.3238900005817413 1.959370017051697
3735       94.80654   89.45669   100.15639  183.52817  183.52817  183.52817  0.3180100023746491 1.935819983482361
3735.5     92.46431   87.21576   97.71286000000001 176.09543  176.09543  176.09543  0.3096700012683868 1.904469966888428
3736       91.79721000000001 86.23157999999999 97.36285   170.35715  170.35715  170.35715  0.2954199910163879 1.855800032615662
3736.5     83.17362   76.48702   89.86022   158.38445  158.38445  158.38445  0.3096100091934204 1.904260039329529
3737       77.57437   70.59944   84.5493    150.33885  150.33885  150.33885  0.3185699880123138 1.937999963760376
3737.5     73.57463   66.58093   80.56833   141.24855  141.24855  141.24855  0.3138200044631958 1.919800043106079
3738       71.39852000000001 64.89509   77.90195   131.72581  131.72581  131.72581  0.2919999957084656 1.844939947128296
3738.5     72.1771    64.70328000000001 79.65092   128.95067  128.95067  128.95067  0.2718900144100189 1.786589980125427
3739       74.60492000000001 66.16930000000001 83.04053999999999 139.40297  139.40297  139.40297  0.2993200123310089 1.868549942970276
3739.5     85.96519000000001 77.03642000000001 94.89397   158.33434  158.33434  158.33434  0.2910000085830689 1.841840028762817
3740       101.50404  93.53155   109.47654  172.1665   172.1665   172.1665   0.2336100041866303 1.696149945259094
3740.5     102.93689  95.68092   110.19286  195.26289  195.26289  195.26289  0.3075700104236603 1.896919965744019
3741       105.81957  99.56432   112.07483  202.20743  202.20743  202.20743  0.3114199936389923 1.910869956016541
3741.5     106.06242  100.17528  111.94957  199.4528   199.4528   199.4528   0.3028700053691864 1.880519986152649
3742       104.54278  98.77142000000001 110.31413  194.08563  194.08563  194.08563  0.2956399917602539 1.856520056724548
3742.5     101.96284  96.17468   107.75101  190.52837  190.52837  190.52837  0.2993299961090088 1.86861002445221
3743       100.12997  94.49773999999999 105.76221  185.05066  185.05066  185.05066  0.2930000126361847 1.848099946975708
3743.5     97.3064    91.71429999999999 102.89849  184.15575  184.15575  184.15575  0.3063299953937531 1.892529964447022
3744       96.07814999999999 90.62692   101.52937  182.66425  182.66425  182.66425  0.3087599873542786 1.90120005607605
3744.5     94.3412    88.58586   100.09654  186.41721  186.41721  186.41721  0.3278599977493286 1.975990056991577
3745       94.79196   89.05479   100.52914  185.35614  185.35614  185.35614  0.3229199945926666 1.955399990081787
3745.5     95.40684   89.83896   100.97472  177.50615  177.50615  177.50615  0.2968699932098389 1.860520005226135
3746       94.44904   88.86633000000001 100.03176  174.24646  174.24646  174.24646  0.2919700145721436 1.84486997127533
3746.5     94.64437   89.05083000000001 100.23791  176.67693  176.67693  176.67693  0.298770010471344 1.866750001907349
3747       94.00006000000001 88.35513   99.64499000000001 176.51276  176.51276  176.51276  0.3020699918270111 1.877789974212647
3747.5     93.33710000000001 87.71404   98.96017000000001 178.78447  178.78447  178.78447  0.3126699924468994 1.915470004081726
3748       92.66534   86.95304   98.37765   181.82219  181.82219  181.82219  0.3245599865913391 1.962139964103699
3748.5     92.08583   86.47404   97.69762   183.64497  183.64497  183.64497  0.3320499956607819 1.994279980659485
3749       91.27567000000001 85.72787   96.82346   184.34     184.34     184.34     0.3375999927520752 2.019599914550781
3749.5     90.47377   85.06876   95.87878000000001 179.92542  179.92542  179.92542  0.3307900130748749 1.988700032234192
3750       89.43938   84.09548   94.78327   175.76353  175.76353  175.76353  0.3252899944782257 1.965170025825501
3750.5     88.21001   82.9042    93.51582999999999 172.04504  172.04504  172.04504  0.3216899931430817 1.950399994850159
3751       87.02904   81.75052   92.30756   168.31447  168.31447  168.31447  0.3175399899482727 1.934000015258789
3751.5     86.40944   81.16811   91.65076000000001 167.66696  167.66696  167.66696  0.3191699981689453 1.940379977226257
3752       86.28288000000001 81.00104   91.56473   166.7251   166.7251   166.7251   0.317110002040863 1.932309985160828
3752.5     86.24736   80.87067   91.62405   166.98561  166.98561  166.98561  0.3180899918079376 1.93612003326416
3753       87.03774   81.51534   92.56014999999999 166.20833  166.20833  166.20833  0.3110800087451935 1.909610033035278
