~Version
 VERS              .         3.0                           : CWLS LOG ASCII STANDARD - VERSION 3.0
 WRAP              .         NO                            : ONE LINE PER DEPTH STEP
 DLM               .         SPACE                         : DELIMITING CHARACTER(SPACE TAB OR COMMA)
~Well Information
#_______________________________________________________________________________
#
#PARAMETER_NAME    .UNIT     VALUE                         : DESCRIPTION
#_______________________________________________________________________________
STRT               .ft       113.5                         : First reference value
STOP               .ft       4251                          : Last reference value
STEP               .ft       0.5                           : Step increment
NULL               .         -9999                         : Missing value
COMP               .         ConocoPhillips Alaska,Inc.    : Company
WELL               .         Tinmiaq-6                     : Well name
FLD                .         NPRA ASP4                     : Field
LOC                .                                       : Location
SRVC               .                                       : Service Company
CTRY               .                                       : Country
DATE               .                                       : Service Date
X                  .                                       : X or East-West coordinate
Y                  .                                       : Y or North South coordinate
GDAT               .                                       : Geodetic Datum
HZCS               .                                       : Horizontal Co-ordinate System
API                .         50-103-20731-00-00            : API NUMBER
CNTY               .                                       : COUNTY
COUNTRY            .                                       : COUNTRY
LIC                .         Y_ N 5,941,085.96 ft US       : LICENSE NUMBER
ORIGINALWELLNAME   .         Tinmiaq6_Surface              : 
PROV               .                                       : PROVINCE
STAT               .                                       : STATE
UWI                .         Tinmiaq6_Surface              : UNIQUE WELL UWI
~Parameter Information Block
#_______________________________________________________________________________
#
#PARAMETER_NAME    .UNIT     VALUE                         : DESCRIPTION
#_______________________________________________________________________________
SET                .         SonicScope                    : 
TLFamily_DTCO      .         Compressional Slowness        : 
TLFamily_DTCO_MINUS_ERR_TOTAL .         Compressional Slowness        : 
TLFamily_DTCO_PLUS_ERR_TOTAL .         Compressional Slowness        : 
TLFamily_DTSM      .         Shear Slowness                : 
TLFamily_DTSM_MINUS_ERR_TOTAL .         Shear Slowness                : 
TLFamily_DTSM_PLUS_ERR_TOTAL .         Shear Slowness                : 
TLFamily_MD        .         Measured Depth                : 
TLFamily_PR        .         Poisson Ratio (Dynamic)       : 
TLFamily_VPVS      .         VpVs (Compressional To Shear) Ratio: 
~Curve Information
#_______________________________________________________________________________
#
#LOGNAME           .UNIT     LOG_ID                        : DESCRIPTION
#_______________________________________________________________________________
MD                 .ft                                     :  {F}
DTCO               .US/F                                   :   Delta-T Compressional {F}
DTCO_MINUS_ERR_TOTAL .US/F                                   : Compressional Delta-T Minus Total Compressional Delta-T Error {F}
DTCO_PLUS_ERR_TOTAL .US/F                                   : Compressional Delta-T Plus Total Compressional Delta-T Error {F}
DTSM               .US/F                                   :  Delta-T Shear {F}
DTSM_MINUS_ERR_TOTAL .US/F                                   :    Shear Delta-T Minus Total Shear Delta-T Error {F}
DTSM_PLUS_ERR_TOTAL .US/F                                   : Shear Delta-T Plus Total Shear Delta-T Error {F}
PR                 .                                       : Poisson's Ratio {F}
VPVS               .                                       :  Compressional to Shear Velocity Ratio {F}
~Ascii
# ...
397        140.01613  136.01613  144.01613  341.52737  341.52737  341.52737  0.39898    2.4392    
397.5      141.8405   137.03015  146.65085  352.70041  352.70041  352.70041  0.40353    2.4866    
398        142.75322  137.77309  147.73335  345.19318  345.19318  345.19318  0.39685    2.41811   
398.5      145.32446  140.25482  150.3941   368.4296   368.4296   368.4296   0.40787    2.53522   
399        148.05225  142.95042  153.15407  381.23471  381.23471  381.23471  0.4112     2.575     
399.5      150.18633  145.25488  155.11777  389.47247  389.47247  389.47247  0.41266    2.59326   
400        150.00931  145.4315   154.58711  383.71344  383.71344  383.71344  0.4098     2.55793   
400.5      147.7075   143.2101   152.20491  375.319    375.319    375.319    0.40837    2.54096   
401        145.02322  140.48557  149.56088  356.56064  356.56064  356.56064  0.40089    2.45865   
401.5      142.67072  138.07845  147.26299  326.27347  326.27347  326.27347  0.38179    2.2869    
402        141.46851  136.59712  146.33989  305.59656  305.59656  305.59656  0.36362    2.16017   
402.5      143.04251  138.1319   147.95312  320.27811  320.27811  320.27811  0.37541    2.23904   
403        147.14162  142.16792  152.11531  346.62164  346.62164  346.62164  0.39009    2.3557    
403.5      150.86333  146.00285  155.7238   354.28656  354.28656  354.28656  0.38926    2.34839   
404        153.5029   148.97997  158.02583  382.47369  382.47369  382.47369  0.404      2.49164   
404.5      154.4012   149.93901  158.86339  399.39536  399.39536  399.39536  0.41215    2.58674   
405        153.16489  148.7039   157.62587  393.77582  393.77582  393.77582  0.41087    2.57093   
405.5      152.92368  148.92368  156.92368  389.37781  389.37781  389.37781  0.40881    2.54622   
406        152.68248  148.24794  157.11702  399.99957  399.99957  399.99957  0.41473    2.61981   
406.5      152.78922  148.1843   157.39413  408.55151  408.55151  408.55151  0.4187     2.67396   
407        152.73064  148.13914  157.32213  405.61597  405.61597  405.61597  0.4174     2.65576   
407.5      153.19005  148.54958  157.83052  401.41571  401.41571  401.41571  0.41477    2.62038   
408        154.40059  149.73875  159.06242  418.95456  418.95456  418.95456  0.42142    2.71343   
408.5      155.07245  150.52206  159.62283  424.93555  424.93555  424.93555  0.42318    2.74024   
409        156.07329  151.57318  160.57339  427.84445  427.84445  427.84445  0.42325    2.7413    
409.5      155.18495  150.69444  159.67546  426.80859  426.80859  426.80859  0.42383    2.75032   
410        152.73518  148.29198  157.17839  434.50778  434.50778  434.50778  0.42951    2.84484   
410.5      151.72098  147.22328  156.21867  414.74579  414.74579  414.74579  0.42275    2.73361   
411        148.99881  144.52472  153.4729   379.01682  379.01682  379.01682  0.4086     2.54376   
411.5      150.33574  145.79225  154.87923  370.64355  370.64355  370.64355  0.40154    2.46544   
412        150.65993  146.65993  154.65993  403.39905  403.39905  403.39905  0.41895    2.67755   
412.5      150.50574  146.50574  154.50574  420.41922  420.41922  420.41922  0.4265     2.79338   
413        150.35156  145.74948  154.95364  411.99759  411.99759  411.99759  0.42318    2.74023   
413.5      150.07982  145.56926  154.59038  407.91989  407.91989  407.91989  0.42172    2.71802   
414        149.48578  145.48578  153.48578  405.19009  405.19009  405.19009  0.42122    2.71056   
414.5      146.61566  142.0293   151.20203  372.65143  372.65143  372.65143  0.40843    2.54169   
415        144.68283  140.06488  149.30078  350.31171  350.31171  350.31171  0.39717    2.42124   
415.5      143.244    138.75374  147.73427  339.77533  339.77533  339.77533  0.39192    2.372     
416        143.78795  139.31122  148.26468  357.87738  357.87738  357.87738  0.40375    2.48892   
416.5      144.83823  140.24879  149.42766  376.00146  376.00146  376.00146  0.41288    2.59601   
417        145.69812  141.69812  149.69812  370.67368  370.67368  370.67368  0.40863    2.54412   
417.5      146.55801  142.09114  151.02489  373.45462  373.45462  373.45462  0.40898    2.54817   
418        144.58777  140.19223  148.98331  363.09067  363.09067  363.09067  0.40577    2.51121   
418.5      141.69954  137.22372  146.17535  340.18442  340.18442  340.18442  0.39504    2.40074   
419        141.1147   136.62221  145.60719  328.67606  328.67606  328.67606  0.387      2.32914   
419.5      140.25911  135.78189  144.73633  323.35938  323.35938  323.35938  0.38413    2.30544   
420        138.23943  133.84299  142.63586  318.08362  318.08362  318.08362  0.38357    2.30096   
420.5      135.97597  131.532    140.41994  308.57736  308.57736  308.57736  0.37952    2.26935   
421        135.08234  130.65295  139.51172  300.82724  300.82724  300.82724  0.37372    2.22699   
421.5      136.75893  132.23288  141.28497  297.67633  297.67633  297.67633  0.36623    2.17665   
422        134.89619  130.06976  139.72263  294.20578  294.20578  294.20578  0.3669     2.18098   
422.5      134.36018  129.76349  138.95688  288.02823  288.02823  288.02823  0.36094    2.1437    
423        128.20154  124.20154  132.20154  283.11151  283.11151  283.11151  0.37103    2.20833   
423.5      122.04288  117.14282  126.94293  267.19977  267.19977  267.19977  0.36819    2.18939   
424        120.86636  115.75127  125.98146  237.22693  237.22693  237.22693  0.3247     1.96272   
424.5      116.73136  111.32382  122.1389   233.42885  233.42885  233.42885  0.33327    1.99971   
425        113.97769  108.36686  119.58852  225.95692  225.95692  225.95692  0.32936    1.98247   
425.5      115.86714  110.12534  121.60895  229.15961  229.15961  229.15961  0.32827    1.97778   
426        123.03804  117.47023  128.60585  238.70105  238.70105  238.70105  0.31909    1.94006   
426.5      132.63518  127.21386  138.0565   275.95596  275.95596  275.95596  0.34979    2.08056   
427        137.78484  132.61946  142.95021  291.50238  291.50238  291.50238  0.35615    2.11563   
427.5      137.2267   132.08171  142.37169  306.09259  306.09259  306.09259  0.37423    2.23056   
428        135.26414  130.1284   140.39989  302.14258  302.14258  302.14258  0.37467    2.23372   
428.5      133.54301  128.52835  138.55768  288.60791  288.60791  288.60791  0.36378    2.16116   
429        132.41649  127.22298  137.61     293.48465  293.48465  293.48465  0.3722     2.21638   
429.5      134.30997  128.87762  139.74231  298.67093  298.67093  298.67093  0.37326    2.22374   
430        134.95558  129.34016  140.571    312.19928  312.19928  312.19928  0.3851     2.31335   
430.5      134.17635  128.35393  139.99876  329.1301   329.1301   329.1301   0.40034    2.45297   
431        137.42795  131.86298  142.99292  328.13013  328.13013  328.13013  0.39364    2.38765   
431.5      137.02127  131.63602  142.40652  -9999      -9999      -9999      -9999      -9999     
432        140.79138  136.79138  144.79138  -9999      -9999      -9999      -9999      -9999     
432.5      143.37151  139.37151  147.37151  -9999      -9999      -9999      -9999      -9999     
433        146.18878  142.18878  150.18878  -9999      -9999      -9999      -9999      -9999     
433.5      149.48268  145.48268  153.48268  -9999      -9999      -9999      -9999      -9999     
434        150.81598  146.81598  154.81598  -9999      -9999      -9999      -9999      -9999     
434.5      151.81412  147.81412  155.81412  -9999      -9999      -9999      -9999      -9999     
435        153.10361  148.56427  157.64294  -9999      -9999      -9999      -9999      -9999     
435.5      152.49004  147.96512  157.01495  -9999      -9999      -9999      -9999      -9999     
436        152.72209  148.23854  157.20564  -9999      -9999      -9999      -9999      -9999     
436.5      154.13931  150.13931  158.13931  -9999      -9999      -9999      -9999      -9999     
437        153.94182  149.55896  158.32468  -9999      -9999      -9999      -9999      -9999     
