~Version Information
VERS  .          2.0                              :CWLS Log Ascii Standard - Version 2.0
WRAP  .          NO                               :One line per depth step
~Well Information Block
#MNEM.UNIT       Data Type                        Information
#---------       ---------                        -------------------------------
STRT  .F         2077.00000                       :START DEPTH
STOP  .F         4158.00000                       :STOP DEPTH
STEP  .F          0.50000                         :INCREMENT
NULL  .          -999.25                          :NULL DATA VALUE
COMP  .          ConocoPhillips Alaska Inc.       :COMPANY
WELL  .          Tinmiaq-2                        :WELL
FLD   .          Exploration                      :FIELD
LOC   .                                           :LOCATION
PROV  .          Alaska                           :PROVINCE
STAT  .          Alaska                           :STATE
CNTY  .          North Slope                      :COUNTY
CTRY  .          U.S.A.                           :COUNTRY
DATE  .                                           :DATE
UWI   .                                           :UNIQUE WELL UWI
LIC   .                                           :LICENSE NUMBER
API   .          50-103-20730-00-00               :API NUMBER
SRVC  .          SLB                              :SERVICE COMPANY
~Parameter Information Block
#MNEM.UNIT       Value                            Description
#---------       ---------                        -------------
PDAT  .          MSL                              :Permanent Datum               
EPD   .ft        0.00                             :Elevation of Permanent Datum (PDAT) above Mean Sea Level
LMF   .          DF                               :Logging Measured From (Name of Working Datum)
APD   .ft        89.47                            :Elevation of Working Datum (LMF) Above Permanent Datum
EKB   .ft        0.00                             :Elevation of Kelly Bushing Above Mean Sea Level
EGL   .ft        62.00                            :Elevation of Ground Level Above Mean Sea Level
EDF   .ft        89.47                            :Elevation of Derrick Floor Above Mean Sea Level
~Curve Information Block
#MNEM.UNIT       API Code            Curve    Description
#--------        --------------      -----    -------------------
DEPT  .F                             :0       Index
BS    .IN                            :1       Bit Size                      
DTCO  .US/F                          :2       Delta-T Compressional         
DTRS  .US/F                          :3       Delta-T Shear, Receiver Array - Monopole P&S
DT_XD_R.US/F                          :4       Delta-T Shear, Receiver Array - X Dipole
DT_YD_R.US/F                          :5       Delta-T Shear, Receiver Array - Y Dipole
GR_EDTC.GAPI                          :6       Gamma Ray                     
HCAL  .IN                            :7       HRCC Caliper Calibrated       
HD1_PPC1.IN                            :8       PPC1 Hole Diameter 1          
HD2_PPC1.IN                            :9       PPC1 Hole Diameter 2          
PR    .                              :10      Poisson's Ratio               
TICO  .US                            :11      Compressional Integrated Transit Time Channel
TISH  .US                            :12      Shear Integrated Transit Time Channel
TISH  .US                            :13      Shear Integrated Transit Time Channel
TISH  .US                            :14      Shear Integrated Transit Time Channel
VPVS  .                              :15      Compressional to Shear Velocity Ratio
~Ascii Data Section
# ...
   4003.00000       8.50000      97.85017    -999.25000     208.96283     203.64980      97.26569    -999.25000       8.83698       8.47201       0.35965    1452.61975   -2899.25000    4689.43799    4543.25928       2.13600 
   4003.50000       8.50000      96.94533    -999.25000     207.54509     202.51508      96.16637    -999.25000       8.91916       8.52864       0.36040    1450.05750   -2899.25000    4687.71143    4541.37158       2.14052 
   4004.00000       8.50000      96.21844    -999.25000     206.35953     201.77376      95.42649    -999.25000       8.93741       8.52562       0.36103    1449.33740   -2899.25000    4685.04492    4537.37842       2.14429 
   4004.50000       8.50000      95.91083    -999.25000     205.17751     201.18292      96.74836    -999.25000       8.88965       8.49668       0.36025    1450.40088   -2899.25000    4681.45654    4533.16016       2.13960 
   4005.00000       8.50000      96.03851    -999.25000     204.06126     201.03773      99.20023    -999.25000       8.85431       8.54564       0.35798    1450.87598   -2899.25000    4678.86865    4529.05078       2.12628 
   4005.50000       8.50000      96.57689    -999.25000     203.71858     201.63799      98.89489    -999.25000       8.89071       8.56430       0.35540    1450.13403   -2899.25000    4677.22998    4523.60205       2.11137 
   4006.00000       8.50000      97.46973    -999.25000     204.56021     202.60254      96.29964    -999.25000       8.86820       8.50166       0.35336    1448.80176   -2899.25000    4676.39697    4517.19189       2.09995 
   4006.50000       8.50000      98.25123    -999.25000     205.66853     202.97992      94.71250    -999.25000       8.75254       8.53877       0.35226    1446.27563   -2899.25000    4676.58057    4511.26660       2.09385 
   4007.00000       8.50000      98.42831    -999.25000     206.18979     201.89578      95.85416    -999.25000       8.87386       8.52002       0.35242    1446.39685   -2899.25000    4674.28955    4508.96680       2.09475 
   4007.50000       8.50000      97.54778    -999.25000     205.01306     200.32690     100.17173    -999.25000       8.89537       8.56902       0.35356    1444.33655   -2899.25000    4674.50000    4504.77441       2.10103 
   4008.00000       8.50000      96.40122    -999.25000     203.81624     199.45279      99.27750    -999.25000       8.93434       8.62197       0.35574    1444.93628   -2899.25000    4672.64014    4503.24170       2.11334 
   4008.50000       8.50000      95.36706    -999.25000     203.10808     199.05220      97.35765    -999.25000       8.93830       8.63084       0.35827    1445.01440   -2899.25000    4670.06836    4502.05322       2.12802 
   4009.00000       8.50000      94.44529    -999.25000     202.88855     199.12512      94.41218    -999.25000       8.90725       8.59561       0.36116    1444.57080   -2899.25000    4666.78516    4501.20898       2.14508 
   4009.50000       8.50000      94.73802    -999.25000     203.37070     200.47006      95.69562    -999.25000       8.80609       8.57778       0.36134    1441.95740   -2899.25000    4660.22266    4498.78906       2.14617 
   4010.00000       8.50000      96.03572    -999.25000     203.86295     201.77467      98.49493    -999.25000       8.80671       8.49593       0.35762    1440.64673   -2899.25000    4656.45312    4494.64893       2.12426 
   4010.50000       8.50000      96.95872    -999.25000     203.81470     202.76001     100.10184    -999.25000       8.76201       8.41874       0.35411    1441.16919   -2899.25000    4651.19336    4491.14258       2.10414 
   4011.00000       8.50000      96.44161    -999.25000     204.74321     204.07880     100.52503    -999.25000       8.88851       8.54563       0.35721    1441.06860   -2899.25000    4647.22607    4488.35303       2.12192 
   4011.50000       8.50000      95.86070    -999.25000     206.50423     205.35214     100.88976    -999.25000       8.88502       8.55456       0.36217    1439.82764   -2899.25000    4644.99609    4489.09912       2.15136 
   4012.00000       8.50000      96.05165    -999.25000     207.04820     204.37517      98.89153    -999.25000       8.82848       8.46025       0.36284    1437.69910   -2899.25000    4643.37695    4489.24805       2.15532 
   4012.50000       8.50000      96.53689    -999.25000     206.31255     200.50047      97.65856    -999.25000       8.85251       8.47658       0.36010    1434.50806   -2899.25000    4638.96240    4487.40332       2.13871 
   4013.00000       8.50000      96.28920    -999.25000     204.63527     197.26608      95.64399    -999.25000       8.88251       8.48947       0.35813    1433.29822   -2899.25000    4632.54883    4484.62158       2.12705 
   4013.50000       8.50000      95.60800    -999.25000     204.78033     197.32419      92.22055    -999.25000       8.87970       8.55839       0.36042    1432.82971   -2899.25000    4627.99219    4480.51611       2.14060 
   4014.00000       8.50000      95.31011    -999.25000     205.56053     199.58043      91.05151    -999.25000       8.98001       8.42819       0.36287    1432.03918   -2899.25000    4625.03516    4473.79883       2.15556 
   4014.50000       8.50000      95.51063    -999.25000     206.99286     200.70685      93.03593    -999.25000       8.86010       8.62875       0.36450    1429.66248   -2899.25000    4619.55127    4470.56689       2.16565 
   4015.00000       8.50000      96.42413    -999.25000     207.20992     200.17267      96.03111    -999.25000       8.83164       8.61145       0.36193    1427.08984   -2899.25000    4615.04443    4466.08447       2.14991 
   4015.50000       8.50000      97.16822    -999.25000     204.97182     198.47104      96.26463    -999.25000       8.86585       8.57379       0.35562    1425.62354   -2899.25000    4612.20264    4462.33398       2.11295 
   4016.00000       8.50000      96.62643    -999.25000     200.97241     195.58527      95.09478    -999.25000       8.91415       8.50270       0.35022    1425.85693   -2899.25000    4611.71045    4460.46582       2.08296 
   4016.50000       8.50000      94.59708    -999.25000     197.64018     193.02036      92.21289    -999.25000       8.94251       8.59887       0.35138    1426.90588   -2899.25000    4610.45020    4461.03711       2.08913 
   4017.00000       8.50000      92.82362    -999.25000     196.98645     192.80243      89.00513    -999.25000       8.92161       8.55361       0.35666    1428.78015   -2899.25000    4611.82715    4461.04492       2.11860 
   4017.50000       8.50000      92.95181    -999.25000     197.23921     194.61732      84.93325    -999.25000       8.75659       8.42808       0.35715    1430.67432   -2899.25000    4610.93359    4466.36279       2.12138 
   4018.00000       8.50000      94.19659    -999.25000     196.90710     194.79543      86.95729    -999.25000       8.84946       8.03641       0.35199    1427.48193   -2899.25000    4612.11719    4468.62500       2.09246 
   4018.50000       8.50000      94.56750    -999.25000     196.50073     193.89043      92.82851    -999.25000       8.92115       8.58592       0.34963    1425.71387   -2899.25000    4608.10986    4468.68701       2.07974 
   4019.00000       8.50000      94.18047    -999.25000     198.68459     194.23927      94.87397    -999.25000       8.87209       8.50301       0.35471    1423.93762   -2899.25000    4600.14893    4465.52100       2.10783 
   4019.50000       8.50000      94.08297    -999.25000     202.23228     196.17955      93.97363    -999.25000       8.84327       8.58941       0.36135    1423.23389   -2899.25000    4592.95117    4462.02588       2.14644 
   4020.00000       8.50000      94.83533    -999.25000     205.40794     198.48396      93.46517    -999.25000       8.88081       8.57200       0.36431    1422.45886   -2899.25000    4588.17676    4458.07666       2.16448 
   4020.50000       8.50000      96.21928    -999.25000     207.75757     200.77083      93.85684    -999.25000       8.81150       8.55674       0.36349    1421.39575   -2899.25000    4584.53760    4453.85156       2.15934 
