~Version Information
VERS  .          2.0                              :CWLS Log Ascii Standard - Version 2.0
WRAP  .          NO                               :One line per depth step
~Well Information Block
#MNEM.UNIT       Data Type                        Information
#---------       ---------                        -------------------------------
STRT  .F         2077.00000                       :START DEPTH
STOP  .F         4158.00000                       :STOP DEPTH
STEP  .F          0.50000                         :INCREMENT
NULL  .          -999.25                          :NULL DATA VALUE
COMP  .          ConocoPhillips Alaska Inc.       :COMPANY
WELL  .          Tinmiaq-2                        :WELL
FLD   .          Exploration                      :FIELD
LOC   .                                           :LOCATION
PROV  .          Alaska                           :PROVINCE
STAT  .          Alaska                           :STATE
CNTY  .          North Slope                      :COUNTY
CTRY  .          U.S.A.                           :COUNTRY
DATE  .                                           :DATE
UWI   .                                           :UNIQUE WELL UWI
LIC   .                                           :LICENSE NUMBER
API   .          50-103-20730-00-00               :API NUMBER
SRVC  .          SLB                              :SERVICE COMPANY
~Parameter Information Block
#MNEM.UNIT       Value                            Description
#---------       ---------                        -------------
PDAT  .          MSL                              :Permanent Datum               
EPD   .ft        0.00                             :Elevation of Permanent Datum (PDAT) above Mean Sea Level
LMF   .          DF                               :Logging Measured From (Name of Working Datum)
APD   .ft        89.47                            :Elevation of Working Datum (LMF) Above Permanent Datum
EKB   .ft        0.00                             :Elevation of Kelly Bushing Above Mean Sea Level
EGL   .ft        62.00                            :Elevation of Ground Level Above Mean Sea Level
EDF   .ft        89.47                            :Elevation of Derrick Floor Above Mean Sea Level
~Curve Information Block
#MNEM.UNIT       API Code            Curve    Description
#--------        --------------      -----    -------------------
DEPT  .F                             :0       Index
BS    .IN                            :1       Bit Size                      
DTCO  .US/F                          :2       Delta-T Compressional         
DTRS  .US/F                          :3       Delta-T Shear, Receiver Array - Monopole P&S
DT_XD_R.US/F                          :4       Delta-T Shear, Receiver Array - X Dipole
DT_YD_R.US/F                          :5       Delta-T Shear, Receiver Array - Y Dipole
GR_EDTC.GAPI                          :6       Gamma Ray                     
HCAL  .IN                            :7       HRCC Caliper Calibrated       
HD1_PPC1.IN                            :8       PPC1 Hole Diameter 1          
HD2_PPC1.IN                            :9       PPC1 Hole Diameter 2          
PR    .                              :10      Poisson's Ratio               
TICO  .US                            :11      Compressional Integrated Transit Time Channel
TISH  .US                            :12      Shear Integrated Transit Time Channel
TISH  .US                            :13      Shear Integrated Transit Time Channel
TISH  .US                            :14      Shear Integrated Transit Time Channel
VPVS  .                              :15      Compressional to Shear Velocity Ratio
~Ascii Data Section
# ...
   3463.00000       8.50000     108.53458    -999.25000     241.18712     229.34489     102.80799    -999.25000       8.87063       9.26172       0.37308    1611.73035   -2899.25000    5030.59717    4864.72510       2.22252 
   3463.50000       8.50000     109.09765    -999.25000     238.05142     229.37054     101.70982    -999.25000       8.88094       9.85269       0.36758    1611.87427   -2899.25000    5029.43945    4862.63379       2.18557 
   3464.00000       8.50000     109.50904    -999.25000     235.27293     230.73839     101.64088    -999.25000       8.83634      10.78135       0.36254    1611.97363   -2899.25000    5033.65869    4863.46338       2.15364 
   3464.50000       8.50000     109.13034    -999.25000     235.23160     231.42348     103.65582    -999.25000       8.76386       9.50672       0.36320    1613.53308   -2899.25000    5036.20654    4865.47461       2.15756 
   3465.00000       8.50000     108.14037    -999.25000     239.00682     232.37709     104.07742    -999.25000       8.80781       8.99905       0.37054    1615.92383   -2899.25000    5035.45215    4868.42383       2.20592 
   3465.50000       8.50000     107.47240    -999.25000     242.52574     233.32095     102.17238    -999.25000       8.92473       8.97444       0.37685    1616.56360   -2899.25000    5034.59424    4872.48926       2.24977 
   3466.00000       8.50000     107.79684    -999.25000     241.98941     234.20891     100.23071    -999.25000       9.08224       9.52048       0.37595    1616.00049   -2899.25000    5033.19141    4872.34717       2.24323 
   3466.50000       8.50000     108.87737    -999.25000     238.07144     234.86905     100.73000    -999.25000       9.44143       9.73948       0.36837    1615.21143   -2899.25000    5031.30615    4868.89209       2.19176 
   3467.00000       8.50000     109.81594    -999.25000     234.39001     234.54544     103.60934    -999.25000       9.37405       9.32055       0.36039    1613.56409   -2899.25000    5028.43994    4866.54053       2.14075 
   3467.50000       8.50000     109.95127    -999.25000     234.23439     233.31789     105.53603    -999.25000       8.92620       8.92324       0.35902    1611.92517   -2899.25000    5024.54834    4866.23584       2.13249 
   3468.00000       8.50000     109.34594    -999.25000     237.61136     232.50555     105.36293    -999.25000       8.84939       8.68903       0.36497    1611.59314   -2899.25000    5022.34082    4867.23145       2.16930 
   3468.50000       8.50000     108.50282    -999.25000     240.79153     232.66228     105.68392    -999.25000       8.75221       8.69483       0.37172    1611.66528   -2899.25000    5022.02832    4869.54346       2.21324 
   3469.00000       8.50000     107.95226    -999.25000     240.67781     232.89401     105.21223    -999.25000       8.87284       8.79620       0.37379    1612.62048   -2899.25000    5020.73633    4871.45508       2.22753 
   3469.50000       8.50000     107.76082    -999.25000     237.51390     232.75662     106.51575    -999.25000       8.70085       8.83158       0.37064    1610.83765   -2899.25000    5022.57275    4867.79736       2.20593 
   3470.00000       8.50000     107.94170    -999.25000     233.59068     231.19395     104.61867    -999.25000       8.89623       9.01963       0.36496    1608.55945   -2899.25000    5021.77832    4866.52393       2.16866 
   3470.50000       8.50000     108.45608    -999.25000     231.26457     230.15645     104.65143    -999.25000       8.90712       9.25281       0.35968    1607.27271   -2899.25000    5023.04590    4862.97998       2.13618 
   3471.00000       8.50000     108.76414    -999.25000     230.90253     228.39664     100.96672    -999.25000       8.81969       9.52181       0.35777    1607.28259   -2899.25000    5019.37988    4860.18799       2.12497 
   3471.50000       8.50000     108.47054    -999.25000     232.81889     226.85844      98.97133    -999.25000       9.06907      10.30625       0.36130    1606.27258   -2899.25000    5020.17822    4856.80273       2.14601 
   3472.00000       8.50000     107.76689    -999.25000     236.92809     226.04024      94.27791    -999.25000       8.99172      10.21758       0.36876    1603.50720   -2899.25000    5019.30908    4857.51660       2.19363 
   3472.50000       8.50000     107.23026    -999.25000     240.51367     226.63869      95.16079    -999.25000       9.00151      10.62224       0.37523    1600.58435   -2899.25000    5018.22021    4856.53857       2.23806 
   3473.00000       8.50000     107.41991    -999.25000     241.76181     228.50386      96.56271    -999.25000       9.04476      10.26221       0.37667    1601.74097   -2899.25000    5014.67090    4855.37500       2.24819 
   3473.50000       8.50000     108.34963    -999.25000     240.12892     230.51953     101.48907    -999.25000       8.97954       9.78196       0.37246    1602.26160   -2899.25000    5010.22412    4851.28564       2.21870 
   3474.00000       8.50000     109.37070    -999.25000     237.68044     232.02878     104.29877    -999.25000       8.89841      10.14513       0.36635    1602.21130   -2899.25000    5010.25732    4843.69287       2.17782 
   3474.50000       8.50000     109.73825    -999.25000     236.57735     232.53967     105.97031    -999.25000       8.87231      10.20948       0.36334    1602.13989   -2899.25000    5011.24219    4840.70020       2.15843 
   3475.00000       8.50000     109.10831    -999.25000     237.01117     232.38306     105.82264    -999.25000       8.91302       9.54548       0.36533    1601.92017   -2899.25000    5010.83350    4838.36426       2.17112 
   3475.50000       8.50000     107.82856    -999.25000     237.38948     231.73703     102.94329    -999.25000       8.85587       9.11633       0.36950    1602.97058   -2899.25000    5006.14453    4834.06201       2.19818 
   3476.00000       8.50000     106.55494    -999.25000     236.29459     230.67046     102.09064    -999.25000       8.72082       9.09990       0.37205    1601.74597   -2899.25000    4996.96240    4833.74512       2.21538 
   3476.50000       8.50000     105.52750    -999.25000     234.04761     229.41679     102.04034    -999.25000       8.79023       9.12767       0.37239    1595.23950   -2899.25000    4992.70068    4832.40674       2.21770 
   3477.00000       8.50000     104.75219    -999.25000     231.66315     226.46835     101.10710    -999.25000       8.71777       9.24538       0.37152    1595.84875   -2899.25000    4988.33350    4831.74219       2.21176 
   3477.50000       8.50000     104.52943    -999.25000     229.64438     224.70718     101.63039    -999.25000       8.86332       9.16209       0.36940    1597.13049   -2899.25000    4986.39258    4827.65674       2.19755 
   3478.00000       8.50000     105.44319    -999.25000     227.75038     224.77298      98.56471    -999.25000       8.86930       9.17631       0.36415    1599.75806   -2899.25000    4984.95996    4826.71826       2.16362 
   3478.50000       8.50000     107.34351    -999.25000     226.16785     226.90289     100.73792    -999.25000       8.65127       9.21656       0.35565    1597.01477   -2899.25000    4988.61133    4827.85693       2.11277 
   3479.00000       8.50000     109.09551    -999.25000     227.76814     228.99919      99.38078    -999.25000       9.06596       9.51877       0.35198    1598.13684   -2899.25000    4990.07471    4831.48682       2.09235 
   3479.50000       8.50000     109.25388    -999.25000     231.96611     228.38205      98.84636    -999.25000       9.09392      10.22740       0.35715    1596.86499   -2899.25000    4990.34424    4837.57812       2.12153 
   3480.00000       8.50000     107.82307    -999.25000     237.26665     227.10039      97.65623    -999.25000       9.01803       9.59116       0.36853    1598.80994   -2899.25000    4994.47754    4838.69580       2.19263 
   3480.50000       8.50000     106.29047    -999.25000     239.86467     226.09889      99.39313    -999.25000       8.89642       9.31680       0.37678    1598.08301   -2899.25000    4997.48682    4839.23535       2.24946 
