~Version Information
VERS  .          2.0                              :CWLS Log Ascii Standard - Version 2.0
WRAP  .          NO                               :One line per depth step
~Well Information Block
#MNEM.UNIT       Data Type                        Information
#---------       ---------                        -------------------------------
STRT  .F         2077.00000                       :START DEPTH
STOP  .F         4158.00000                       :STOP DEPTH
STEP  .F          0.50000                         :INCREMENT
NULL  .          -999.25                          :NULL DATA VALUE
COMP  .          ConocoPhillips Alaska Inc.       :COMPANY
WELL  .          Tinmiaq-2                        :WELL
FLD   .          Exploration                      :FIELD
LOC   .                                           :LOCATION
PROV  .          Alaska                           :PROVINCE
STAT  .          Alaska                           :STATE
CNTY  .          North Slope                      :COUNTY
CTRY  .          U.S.A.                           :COUNTRY
DATE  .                                           :DATE
UWI   .                                           :UNIQUE WELL UWI
LIC   .                                           :LICENSE NUMBER
API   .          50-103-20730-00-00               :API NUMBER
SRVC  .          SLB                              :SERVICE COMPANY
~Parameter Information Block
#MNEM.UNIT       Value                            Description
#---------       ---------                        -------------
PDAT  .          MSL                              :Permanent Datum               
EPD   .ft        0.00                             :Elevation of Permanent Datum (PDAT) above Mean Sea Level
LMF   .          DF                               :Logging Measured From (Name of Working Datum)
APD   .ft        89.47                            :Elevation of Working Datum (LMF) Above Permanent Datum
EKB   .ft        0.00                             :Elevation of Kelly Bushing Above Mean Sea Level
EGL   .ft        62.00                            :Elevation of Ground Level Above Mean Sea Level
EDF   .ft        89.47                            :Elevation of Derrick Floor Above Mean Sea Level
~Curve Information Block
#MNEM.UNIT       API Code            Curve    Description
#--------        --------------      -----    -------------------
DEPT  .F                             :0       Index
BS    .IN                            :1       Bit Size                      
DTCO  .US/F                          :2       Delta-T Compressional         
DTRS  .US/F                          :3       Delta-T Shear, Receiver Array - Monopole P&S
DT_XD_R.US/F                          :4       Delta-T Shear, Receiver Array - X Dipole
DT_YD_R.US/F                          :5       Delta-T Shear, Receiver Array - Y Dipole
GR_EDTC.GAPI                          :6       Gamma Ray                     
HCAL  .IN                            :7       HRCC Caliper Calibrated       
HD1_PPC1.IN                            :8       PPC1 Hole Diameter 1          
HD2_PPC1.IN                            :9       PPC1 Hole Diameter 2          
PR    .                              :10      Poisson's Ratio               
TICO  .US                            :11      Compressional Integrated Transit Time Channel
TISH  .US                            :12      Shear Integrated Transit Time Channel
TISH  .US                            :13      Shear Integrated Transit Time Channel
TISH  .US                            :14      Shear Integrated Transit Time Channel
VPVS  .                              :15      Compressional to Shear Velocity Ratio
~Ascii Data Section
# ...
   3049.00000       8.50000     101.00201    -999.25000     201.94188     206.41354      80.59163    -999.25000       8.75634       8.35422       0.33345    1485.75830   -2899.25000    4676.44727    4419.27246       2.00099 
   3049.50000       8.50000     106.10067    -999.25000     205.46613     211.49396      86.48267    -999.25000       9.19256       8.45101       0.31943    1477.51550   -2899.25000    4658.09912    4405.83447       1.94199 
   3050.00000       8.50000     107.44452    -999.25000     205.21709     211.60567      87.88071    -999.25000       8.93200       8.49434       0.31136    1470.13745   -2899.25000    4639.98535    4396.53174       1.91066 
   3050.50000       8.50000     105.26240    -999.25000     202.54633     208.39693      83.28190    -999.25000       8.74496       8.45471       0.31457    1469.21216   -2899.25000    4631.61523    4390.22754       1.92263 
   3051.00000       8.50000     101.62561    -999.25000     198.91541     203.06635      76.26527    -999.25000       8.85011       8.54722       0.32253    1471.86243   -2899.25000    4629.53809    4390.71973       1.95384 
   3051.50000       8.50000      98.90415    -999.25000     195.49010     198.84949      67.96311    -999.25000       8.64971       8.33064       0.32783    1471.75134   -2899.25000    4635.56836    4395.66650       1.97591 
   3052.00000       8.50000      97.20425    -999.25000     195.10901     197.33302      65.45498    -999.25000       8.66293       8.34871       0.33456    1470.60510   -2899.25000    4641.22949    4400.77539       2.00557 
   3052.50000       8.50000      96.56482    -999.25000     196.89217     199.35815      65.03848    -999.25000       8.66293       8.33537       0.34100    1469.00647   -2899.25000    4643.16504    4406.51660       2.03586 
   3053.00000       8.50000      97.01834    -999.25000     198.87134     200.71397      67.34372    -999.25000       8.67317       8.34400       0.34359    1465.97302   -2899.25000    4644.04492    4412.66309       2.04859 
   3053.50000       8.50000      96.79789    -999.25000     199.18634     200.57451      69.58176    -999.25000       8.66138       8.43679       0.34525    1463.06396   -2899.25000    4647.47266    4417.03467       2.05692 
   3054.00000       8.50000      96.42979    -999.25000     199.14302     200.38557      70.66808    -999.25000       8.67317       8.37055       0.34692    1464.63000   -2899.25000    4651.22461    4421.07861       2.06552 
   3054.50000       8.50000      96.40585    -999.25000     201.69124     203.18518      73.46603    -999.25000       8.66305       8.38841       0.35139    1466.49158   -2899.25000    4650.23242    4423.85010       2.08915 
   3055.00000       8.50000      98.12155    -999.25000     205.53468     207.45192      77.20237    -999.25000       8.62782       8.34856       0.35211    1468.44336   -2899.25000    4650.33301    4422.08984       2.09307 
   3055.50000       8.50000     101.15909    -999.25000     208.66530     210.70882      85.69718    -999.25000       8.67317       8.42360       0.34637    1471.52661   -2899.25000    4651.23145    4420.08203       2.06269 
   3056.00000       8.50000     103.52423    -999.25000     207.20131     211.09541      90.50484    -999.25000       8.81373       8.59561       0.33470    1473.44629   -2899.25000    4651.56006    4416.27930       2.00620 
   3056.50000       8.50000     103.62907    -999.25000     204.02180     209.01958      89.46338    -999.25000       8.85011       8.62631       0.32718    1473.89050   -2899.25000    4650.29688    4411.66406       1.97310 
   3057.00000       8.50000     101.38390    -999.25000     200.44609     204.95215      82.47889    -999.25000       8.83699       8.42345       0.32817    1472.74939   -2899.25000    4645.38770    4410.83496       1.97735 
   3057.50000       8.50000      98.71876    -999.25000     198.08577     201.70326      74.43384    -999.25000       8.67471       8.41491       0.33411    1470.09961   -2899.25000    4638.93750    4401.15820       2.00351 
   3058.00000       8.50000      96.79935    -999.25000     194.52966     197.64507      72.95213    -999.25000       8.66138       8.43679       0.33521    1467.30444   -2899.25000    4622.06445    4392.37695       2.00853 
   3058.50000       8.50000      95.69082    -999.25000     189.63048     193.78087      69.22704    -999.25000       8.75514       8.34385       0.32980    1458.07043   -2899.25000    4608.24512    4387.37549       1.98441 
   3059.00000       8.50000      95.14565    -999.25000     186.12146     189.88251      70.70724    -999.25000       8.58018       8.36190       0.32417    1445.47717   -2899.25000    4598.76855    4382.08691       1.96052 
   3059.50000       8.50000      95.30527    -999.25000     186.40208     188.90898      63.41925    -999.25000       8.63948       8.37508       0.32327    1440.25415   -2899.25000    4592.52588    4378.97852       1.95682 
   3060.00000       8.50000      96.06522    -999.25000     189.91968     191.09007      64.09996    -999.25000       8.66138       8.34385       0.32757    1432.68469   -2899.25000    4583.20703    4377.36621       1.97479 
   3060.50000       8.50000      97.07887    -999.25000     193.10762     193.92743      67.43047    -999.25000       8.64047       8.36672       0.33048    1428.68970   -2899.25000    4572.59277    4364.65332       1.98736 
   3061.00000       8.50000      97.00463    -999.25000     193.22462     194.15489      74.35619    -999.25000       8.69801       8.37877       0.33136    1427.35376   -2899.25000    4559.64795    4352.93945       1.99119 
   3061.50000       8.50000      95.63801    -999.25000     191.36296     190.99599      73.50214    -999.25000       8.67160       8.36661       0.33342    1427.90881   -2899.25000    4549.89648    4341.93213       2.00045 
   3062.00000       8.50000      93.75225    -999.25000     189.70580     187.22859      69.44588    -999.25000       8.61554       8.33193       0.33806    1428.57019   -2899.25000    4545.31494    4332.00879       2.02189 
   3062.50000       8.50000      92.25921    -999.25000     188.43463     185.68451      70.21582    -999.25000       8.63613       8.30962       0.34204    1431.84082   -2899.25000    4541.68896    4324.80664       2.04095 
   3063.00000       8.50000      91.56050    -999.25000     186.63962     185.39583      72.26016    -999.25000       8.65862       8.38234       0.34149    1434.98242   -2899.25000    4536.77393    4320.74707       2.03827 
   3063.50000       8.50000      91.01343    -999.25000     183.43016     183.49854      72.93238    -999.25000       8.87437       8.41850       0.33708    1436.12915   -2899.25000    4536.58740    4320.01953       2.01724 
   3064.00000       8.50000      90.32458    -999.25000     180.78564     181.02072      70.58422    -999.25000       8.63247       8.31994       0.33397    1436.29150   -2899.25000    4538.42627    4325.36475       2.00288 
   3064.50000       8.50000      89.89536    -999.25000     180.42043     180.18922      67.50760    -999.25000       8.60815       8.32584       0.33501    1436.95837   -2899.25000    4543.01562    4333.52246       2.00762 
   3065.00000       8.50000      90.04623    -999.25000     183.40811     182.75702      65.79337    -999.25000       8.60195       8.35622       0.34082    1436.18787   -2899.25000    4551.60303    4347.45557       2.03512 
   3065.50000       8.50000      92.89762    -999.25000     189.64888     189.12932      66.59823    -999.25000       8.72006       8.35720       0.34228    1438.77600   -2899.25000    4564.81543    4364.99512       2.04210 
   3066.00000       8.50000      95.99815    -999.25000     196.41492     195.42207      74.22198    -999.25000       8.90380       8.59408       0.34284    1441.40955   -2899.25000    4574.43799    4381.95898       2.04489 
   3066.50000       8.50000      99.72324    -999.25000     202.29201     201.28513      81.60847    -999.25000       8.91846       8.48265       0.33990    1443.00317   -2899.25000    4588.16895    4394.91895       2.03056 
