~Version Information
VERS  .          2.0                              :CWLS Log Ascii Standard - Version 2.0
WRAP  .          NO                               :One line per depth step
~Well Information Block
#MNEM.UNIT       Data Type                        Information
#---------       ---------                        -------------------------------
STRT  .F         2077.00000                       :START DEPTH
STOP  .F         4158.00000                       :STOP DEPTH
STEP  .F          0.50000                         :INCREMENT
NULL  .          -999.25                          :NULL DATA VALUE
COMP  .          ConocoPhillips Alaska Inc.       :COMPANY
WELL  .          Tinmiaq-2                        :WELL
FLD   .          Exploration                      :FIELD
LOC   .                                           :LOCATION
PROV  .          Alaska                           :PROVINCE
STAT  .          Alaska                           :STATE
CNTY  .          North Slope                      :COUNTY
CTRY  .          U.S.A.                           :COUNTRY
DATE  .                                           :DATE
UWI   .                                           :UNIQUE WELL UWI
LIC   .                                           :LICENSE NUMBER
API   .          50-103-20730-00-00               :API NUMBER
SRVC  .          SLB                              :SERVICE COMPANY
~Parameter Information Block
#MNEM.UNIT       Value                            Description
#---------       ---------                        -------------
PDAT  .          MSL                              :Permanent Datum               
EPD   .ft        0.00                             :Elevation of Permanent Datum (PDAT) above Mean Sea Level
LMF   .          DF                               :Logging Measured From (Name of Working Datum)
APD   .ft        89.47                            :Elevation of Working Datum (LMF) Above Permanent Datum
EKB   .ft        0.00                             :Elevation of Kelly Bushing Above Mean Sea Level
EGL   .ft        62.00                            :Elevation of Ground Level Above Mean Sea Level
EDF   .ft        89.47                            :Elevation of Derrick Floor Above Mean Sea Level
~Curve Information Block
#MNEM.UNIT       API Code            Curve    Description
#--------        --------------      -----    -------------------
DEPT  .F                             :0       Index
BS    .IN                            :1       Bit Size                      
DTCO  .US/F                          :2       Delta-T Compressional         
DTRS  .US/F                          :3       Delta-T Shear, Receiver Array - Monopole P&S
DT_XD_R.US/F                          :4       Delta-T Shear, Receiver Array - X Dipole
DT_YD_R.US/F                          :5       Delta-T Shear, Receiver Array - Y Dipole
GR_EDTC.GAPI                          :6       Gamma Ray                     
HCAL  .IN                            :7       HRCC Caliper Calibrated       
HD1_PPC1.IN                            :8       PPC1 Hole Diameter 1          
HD2_PPC1.IN                            :9       PPC1 Hole Diameter 2          
PR    .                              :10      Poisson's Ratio               
TICO  .US                            :11      Compressional Integrated Transit Time Channel
TISH  .US                            :12      Shear Integrated Transit Time Channel
TISH  .US                            :13      Shear Integrated Transit Time Channel
TISH  .US                            :14      Shear Integrated Transit Time Channel
VPVS  .                              :15      Compressional to Shear Velocity Ratio
~Ascii Data Section
# ...
   3589.00000       8.50000     108.40182    -999.25000     242.05516     235.06361     105.06249    -999.25000       9.02017       9.81970       0.37467    1631.65332   -2899.25000    5108.92432    4930.56348       2.23384 
   3589.50000       8.50000     108.38911    -999.25000     238.22279     231.70029     102.50560    -999.25000       9.37598       9.64486       0.36997    1630.76489   -2899.25000    5091.95898    4922.66943       2.20149 
   3590.00000       8.50000     108.62083    -999.25000     236.66559     229.25278     100.17182    -999.25000       9.47189      10.67114       0.36697    1620.91040   -2899.25000    5085.69336    4916.52295       2.18143 
   3590.50000       8.50000     108.58028    -999.25000     237.20520     228.53685     101.38039    -999.25000       9.66651      11.83981       0.36739    1622.37292   -2899.25000    5080.27002    4908.84766       2.18418 
   3591.00000       8.50000     108.40125    -999.25000     237.80843     229.35027     101.70262    -999.25000       9.45313      12.35698       0.36868    1622.39795   -2899.25000    5069.25732    4902.08203       2.19258 
   3591.50000       8.50000     107.52470    -999.25000     237.53596     230.50993     101.05959    -999.25000       9.11934      12.38282       0.37091    1615.12292   -2899.25000    5062.46924    4895.72559       2.20767 
   3592.00000       8.50000     106.63589    -999.25000     237.21892     231.23431     100.49728    -999.25000       8.94834      12.03958       0.37323    1612.73914   -2899.25000    5060.65527    4883.27881       2.22359 
   3592.50000       8.50000     106.02689    -999.25000     237.83665     231.71912     100.21172    -999.25000       9.22922      11.47422       0.37571    1615.54065   -2899.25000    5049.49023    4870.45361       2.24132 
   3593.00000       8.50000     106.02696    -999.25000     238.31303     232.15532     101.92282    -999.25000       9.35335      11.63793       0.37640    1612.29993   -2899.25000    5041.66943    4859.15381       2.24621 
   3593.50000       8.50000     106.46992    -999.25000     236.81860     232.36757     102.94263    -999.25000       9.29754      11.27446       0.37347    1610.46094   -2899.25000    5041.79102    4852.99609       2.22548 
   3594.00000       8.50000     106.96158    -999.25000     233.33290     232.19429     103.30164    -999.25000       9.36332      11.13645       0.36751    1607.96387   -2899.25000    5043.71045    4849.98242       2.18551 
   3594.50000       8.50000     107.47353    -999.25000     230.06935     231.67856     104.31330    -999.25000       9.42710      11.72382       0.36123    1605.07800   -2899.25000    5047.54102    4850.88086       2.14575 
   3595.00000       8.50000     107.55048    -999.25000     229.30327     230.52774     104.90317    -999.25000       9.60795      11.42694       0.35930    1610.77271   -2899.25000    5046.49951    4856.79248       2.13396 
   3595.50000       8.50000     107.03439    -999.25000     230.88521     228.86510     105.23007    -999.25000       9.59656      11.05115       0.36268    1616.83594   -2899.25000    5042.89014    4854.64014       2.15464 
   3596.00000       8.50000     106.38079    -999.25000     232.32422     228.07520     104.52605    -999.25000       9.60313      11.65864       0.36674    1616.08716   -2899.25000    5045.10449    4848.67725       2.17995 
   3596.50000       8.50000     106.39348    -999.25000     231.57465     228.93648     103.92178    -999.25000       9.81494      13.11764       0.36613    1609.16345   -2899.25000    5050.62158    4847.08496       2.17619 
   3597.00000       8.50000     107.25363    -999.25000     229.39792     230.81491     103.53664    -999.25000       9.46242      12.60095       0.36070    1610.28491   -2899.25000    5047.61621    4850.87061       2.14268 
   3597.50000       8.50000     108.33207    -999.25000     228.14328     232.20183     104.29515    -999.25000       9.10096      11.60637       0.35531    1608.59106   -2899.25000    5045.19580    4856.49121       2.11087 
   3598.00000       8.50000     108.85914    -999.25000     230.66705     232.59520     104.17514    -999.25000       9.23541      12.50121       0.35687    1609.09241   -2899.25000    5053.73926    4856.58301       2.12032 
   3598.50000       8.50000     108.38303    -999.25000     236.53006     233.30629     105.05827    -999.25000       9.20771      12.66114       0.36611    1608.01831   -2899.25000    5057.96875    4862.78467       2.17678 
   3599.00000       8.50000     107.80410    -999.25000     242.04085     235.12363     107.25285    -999.25000       9.59011      12.43259       0.37532    1611.48926   -2899.25000    5063.24463    4862.49561       2.23864 
   3599.50000       8.50000     107.62017    -999.25000     244.27690     237.37749     108.83907    -999.25000       9.72434      12.19157       0.37889    1613.26562   -2899.25000    5053.60693    4865.90967       2.26478 
   3600.00000       8.50000     108.64876    -999.25000     242.19374     238.76035     109.29741    -999.25000       8.74294       9.79806       0.37445    1601.69751   -2899.25000    5054.78467    4860.90771       2.23246 
   3600.50000       8.50000     110.07795    -999.25000     240.57112     238.83946     102.65833    -999.25000       9.08261       9.13950       0.36829    1601.48083   -2899.25000    5053.63037    4867.37256       2.19010 
   3601.00000       8.50000     110.76845    -999.25000     241.16798     239.34352     100.26460    -999.25000       9.83747       8.97649       0.36661    1599.82507   -2899.25000    5048.61768    4863.91748       2.17920 
   3601.50000       8.50000     110.45567    -999.25000     244.46152     240.52664      99.39412    -999.25000       9.92744       9.42164       0.37127    1605.59814   -2899.25000    5048.11084    4856.26660       2.21014 
   3602.00000       8.50000     109.44430    -999.25000     246.50684     241.27478     103.02358    -999.25000       9.12586      11.27908       0.37660    1604.17749   -2899.25000    5048.03320    4861.32178       2.24766 
   3602.50000       8.50000     108.80226    -999.25000     246.08664     238.80928     103.59041    -999.25000       9.22814      11.10949       0.37833    1610.96741   -2899.25000    5049.93262    4868.12207       2.26039 
   3603.00000       8.50000     107.80509    -999.25000     243.68581     234.28590     101.20660    -999.25000       9.14591      11.22271       0.37824    1614.75854   -2899.25000    5054.52100    4878.00781       2.25978 
   3603.50000       8.50000     106.97607    -999.25000     239.73865     229.76918      98.65316    -999.25000       9.81160      11.00296       0.37588    1620.31934   -2899.25000    5064.20117    4881.78223       2.24243 
   3604.00000       8.50000     106.21944    -999.25000     235.08470     226.96712      98.49229    -999.25000       8.99221      11.79834       0.37218    1614.59583   -2899.25000    5071.34961    4896.20947       2.21626 
   3604.50000       8.50000     106.41042    -999.25000     232.43175     226.08540      98.80074    -999.25000       9.64192      11.90762       0.36792    1615.60278   -2899.25000    5084.59375    4904.32764       2.18760 
   3605.00000       8.50000     106.93190    -999.25000     233.79398     227.22476     101.79463    -999.25000       9.91908      11.61094       0.36788    1623.16235   -2899.25000    5079.92480    4909.00342       2.18737 
   3605.50000       8.50000     107.27335    -999.25000     237.51395     229.83348     104.43664    -999.25000       9.03567      11.38748       0.37154    1619.46301   -2899.25000    5078.67090    4908.17236       2.21204 
   3606.00000       8.50000     107.44449    -999.25000     241.65463     232.76509     106.84084    -999.25000       9.21764      11.87584       0.37631    1613.12207   -2899.25000    5080.77979    4907.58301       2.24560 
   3606.50000       8.50000     107.91098    -999.25000     244.33624     235.73747     108.15331    -999.25000       9.03269      12.07538       0.37856    1610.14697   -2899.25000    5075.73145    4906.28955       2.26217 
