~Version Information
VERS  .          2.0                              :CWLS Log Ascii Standard - Version 2.0
WRAP  .          NO                               :One line per depth step
~Well Information Block
#MNEM.UNIT       Data Type                        Information
#---------       ---------                        -------------------------------
STRT  .F         2077.00000                       :START DEPTH
STOP  .F         4158.00000                       :STOP DEPTH
STEP  .F          0.50000                         :INCREMENT
NULL  .          -999.25                          :NULL DATA VALUE
COMP  .          ConocoPhillips Alaska Inc.       :COMPANY
WELL  .          Tinmiaq-2                        :WELL
FLD   .          Exploration                      :FIELD
LOC   .                                           :LOCATION
PROV  .          Alaska                           :PROVINCE
STAT  .          Alaska                           :STATE
CNTY  .          North Slope                      :COUNTY
CTRY  .          U.S.A.                           :COUNTRY
DATE  .                                           :DATE
UWI   .                                           :UNIQUE WELL UWI
LIC   .                                           :LICENSE NUMBER
API   .          50-103-20730-00-00               :API NUMBER
SRVC  .          SLB                              :SERVICE COMPANY
~Parameter Information Block
#MNEM.UNIT       Value                            Description
#---------       ---------                        -------------
PDAT  .          MSL                              :Permanent Datum               
EPD   .ft        0.00                             :Elevation of Permanent Datum (PDAT) above Mean Sea Level
LMF   .          DF                               :Logging Measured From (Name of Working Datum)
APD   .ft        89.47                            :Elevation of Working Datum (LMF) Above Permanent Datum
EKB   .ft        0.00                             :Elevation of Kelly Bushing Above Mean Sea Level
EGL   .ft        62.00                            :Elevation of Ground Level Above Mean Sea Level
EDF   .ft        89.47                            :Elevation of Derrick Floor Above Mean Sea Level
~Curve Information Block
#MNEM.UNIT       API Code            Curve    Description
#--------        --------------      -----    -------------------
DEPT  .F                             :0       Index
BS    .IN                            :1       Bit Size                      
DTCO  .US/F                          :2       Delta-T Compressional         
DTRS  .US/F                          :3       Delta-T Shear, Receiver Array - Monopole P&S
DT_XD_R.US/F                          :4       Delta-T Shear, Receiver Array - X Dipole
DT_YD_R.US/F                          :5       Delta-T Shear, Receiver Array - Y Dipole
GR_EDTC.GAPI                          :6       Gamma Ray                     
HCAL  .IN                            :7       HRCC Caliper Calibrated       
HD1_PPC1.IN                            :8       PPC1 Hole Diameter 1          
HD2_PPC1.IN                            :9       PPC1 Hole Diameter 2          
PR    .                              :10      Poisson's Ratio               
TICO  .US                            :11      Compressional Integrated Transit Time Channel
TISH  .US                            :12      Shear Integrated Transit Time Channel
TISH  .US                            :13      Shear Integrated Transit Time Channel
TISH  .US                            :14      Shear Integrated Transit Time Channel
VPVS  .                              :15      Compressional to Shear Velocity Ratio
~Ascii Data Section
# ...
   2347.00000       8.50000     106.65167    -999.25000     225.03212     228.41956      91.13692       8.27960    -999.25000    -999.25000       0.35501    1614.66199   -1059.25000    3254.13281    2970.60547       2.10916 
   2347.50000       8.50000     107.24632    -999.25000     225.86946     231.21587      89.41898       8.36750    -999.25000    -999.25000       0.35456    1612.39417   -1059.25000    3244.71729    2962.06689       2.10663 
   2348.00000       8.50000     107.76598    -999.25000     227.49036     233.10071      92.60091       8.38950    -999.25000    -999.25000       0.35521    1609.91858   -1059.25000    3233.08984    2948.34644       2.11028 
   2348.50000       8.50000     107.89782    -999.25000     228.94366     232.53670      88.72770       8.43350    -999.25000    -999.25000       0.35697    1607.14331   -1059.25000    3213.21484    2926.36377       2.12032 
   2349.00000       8.50000     107.77033    -999.25000     230.76668     232.00356      90.81905       8.45550    -999.25000    -999.25000       0.36007    1603.17188   -1059.25000    3183.11548    2896.68506       2.13855 
   2349.50000       8.50000     108.75870    -999.25000     234.37927     234.54156      92.51418       8.58750    -999.25000    -999.25000       0.36248    1597.14124   -1059.25000    3144.60400    2857.91162       2.15310 
   2350.00000       8.50000     111.36328    -999.25000     244.48494     242.42366      97.94858       8.60950    -999.25000    -999.25000       0.36821    1586.89990   -1059.25000    3100.12793    2813.83838       2.18971 
   2350.50000       8.50000     115.22306    -999.25000     255.85876     250.17023     101.17319       8.60950    -999.25000    -999.25000       0.37228    1571.80042   -1059.25000    3055.78467    2774.03247       2.21701 
   2351.00000       8.50000     118.42722    -999.25000     264.54663     257.95157     100.80227       8.58750    -999.25000    -999.25000       0.37442    1555.58289   -1059.25000    3016.31836    2746.37402       2.23197 
   2351.50000       8.50000     119.73067    -999.25000     263.87430     261.73654      96.70078       8.63150    -999.25000    -999.25000       0.37098    1542.39026   -1059.25000    2985.96509    2729.88501       2.20811 
   2352.00000       8.50000     119.14976    -999.25000     259.43860     262.30774      94.33292       8.49950    -999.25000    -999.25000       0.36692    1535.46350   -1059.25000    2968.41113    2719.86792       2.18114 
   2352.50000       8.50000     117.24180    -999.25000     252.63928     255.08308      98.03378       8.49950    -999.25000    -999.25000       0.36327    1533.13416   -1059.25000    2958.68750    2712.92505       2.15803 
   2353.00000       8.50000     114.65449    -999.25000     244.20935     246.74565     100.36240       8.49950    -999.25000    -999.25000       0.35921    1532.47839   -1059.25000    2951.40967    2707.85815       2.13346 
   2353.50000       8.50000     111.33714    -999.25000     235.74171     238.67635      95.91592       8.43350    -999.25000    -999.25000       0.35676    1532.53772   -1059.25000    2948.15698    2707.45288       2.11914 
   2354.00000       8.50000     108.13065    -999.25000     229.61394     234.08662      86.02685       8.45550    -999.25000    -999.25000       0.35737    1533.59656   -1059.25000    2948.96118    2711.47998       2.12263 
   2354.50000       8.50000     106.26708    -999.25000     229.44989     231.54268      82.15170       8.43350    -999.25000    -999.25000       0.36263    1535.30286   -1059.25000    2951.93701    2716.67944       2.15416 
   2355.00000       8.50000     105.79758    -999.25000     228.73232     229.10439      86.47668       8.45263    -999.25000    -999.25000       0.36374    1537.20715   -1059.25000    2954.47681    2719.68237       2.16093 
   2355.50000       8.50000     105.75430    -999.25000     226.98764     227.27544      88.86179       8.41484    -999.25000    -999.25000       0.36171    1538.85815   -1059.25000    2956.33936    2720.48730       2.14851 
   2356.00000       8.50000     105.61228    -999.25000     224.25143     225.46928      88.65128       8.35363    -999.25000    -999.25000       0.35807    1540.54700   -1059.25000    2957.66577    2719.80664       2.12697 
   2356.50000       8.50000     105.49654    -999.25000     222.56500     224.00018      83.93256       8.40765    -999.25000    -999.25000       0.35553    1542.16492   -1059.25000    2958.96191    2719.22900       2.11213 
   2357.00000       8.50000     105.78114    -999.25000     223.10773     223.48128      78.47517       8.53776    -999.25000    -999.25000       0.35504    1543.78699   -1059.25000    2961.03979    2719.65576       2.10931 
   2357.50000       8.50000     106.68493    -999.25000     225.81387     224.31555      76.60665       8.59754    -999.25000    -999.25000       0.35611    1545.56567   -1059.25000    2964.20190    2720.35254       2.11544 
   2358.00000       8.50000     108.00841    -999.25000     230.01811     226.36992      75.93948       8.55737    -999.25000    -999.25000       0.35820    1547.37305   -1059.25000    2967.28857    2718.91309       2.12750 
   2358.50000       8.50000     109.26863    -999.25000     233.27216     228.98280      76.80766       8.58607    -999.25000    -999.25000       0.35930    1548.90540   -1059.25000    2967.16553    2712.65259       2.13394 
   2359.00000       8.50000     110.17699    -999.25000     233.18787     231.15138      79.49116       8.59659    -999.25000    -999.25000       0.35672    1549.18323   -1059.25000    2963.21460    2700.34180       2.11898 
   2359.50000       8.50000     110.92033    -999.25000     230.91408     232.05643      79.79675       8.54494    -999.25000    -999.25000       0.35092    1548.39539   -1059.25000    2957.02344    2686.38623       2.08715 
   2360.00000       8.50000     111.46201    -999.25000     228.18402     232.89020      78.65798       8.44690    -999.25000    -999.25000       0.34434    1545.83093   -1059.25000    2948.18359    2673.92773       2.05291 
   2360.50000       8.50000     111.61972    -999.25000     227.51047     233.90173      76.38068       8.32258    -999.25000    -999.25000       0.34187    1541.63354   -1059.25000    2937.01514    2664.00903       2.04022 
   2361.00000       8.50000     111.29552    -999.25000     229.26921     235.12096      73.14404       8.24900    -999.25000    -999.25000       0.34513    1536.47900   -1059.25000    2924.94336    2656.05835       2.05669 
   2361.50000       8.50000     110.68571    -999.25000     231.78322     236.60110      70.16186       8.29107    -999.25000    -999.25000       0.35121    1531.18152   -1059.25000    2913.87427    2649.44849       2.08856 
   2362.00000       8.50000     110.35773    -999.25000     234.25742     237.90358      70.01740       8.35503    -999.25000    -999.25000       0.35655    1526.44373   -1059.25000    2904.98462    2645.26196       2.11805 
   2362.50000       8.50000     110.74618    -999.25000     235.23126     238.39331      67.06477       8.54635    -999.25000    -999.25000       0.35751    1522.53918   -1059.25000    2900.01538    2643.66797       2.12344 
   2363.00000       8.50000     111.44041    -999.25000     234.69231     238.01686      66.52536       8.41055    -999.25000    -999.25000       0.35488    1520.42786   -1059.25000    2897.39600    2642.54419       2.10853 
   2363.50000       8.50000     111.85948    -999.25000     234.69209     237.82832      65.47895       8.28147    -999.25000    -999.25000       0.35330    1519.53735   -1059.25000    2896.34253    2640.69385       2.09964 
   2364.00000       8.50000     111.72292    -999.25000     234.89636     237.92856      65.28013       8.21264    -999.25000    -999.25000       0.35372    1519.79858   -1059.25000    2896.67798    2638.73145       2.10196 
   2364.50000       8.50000     111.22804    -999.25000     235.44508     238.04233      67.13335       8.21312    -999.25000    -999.25000       0.35595    1520.87781   -1059.25000    2898.70581    2638.64307       2.11459 
