~Version Information
VERS  .          2.0                              :CWLS Log Ascii Standard - Version 2.0
WRAP  .          NO                               :One line per depth step
~Well Information Block
#MNEM.UNIT       Data Type                        Information
#---------       ---------                        -------------------------------
STRT  .F         2077.00000                       :START DEPTH
STOP  .F         4158.00000                       :STOP DEPTH
STEP  .F          0.50000                         :INCREMENT
NULL  .          -999.25                          :NULL DATA VALUE
COMP  .          ConocoPhillips Alaska Inc.       :COMPANY
WELL  .          Tinmiaq-2                        :WELL
FLD   .          Exploration                      :FIELD
LOC   .                                           :LOCATION
PROV  .          Alaska                           :PROVINCE
STAT  .          Alaska                           :STATE
CNTY  .          North Slope                      :COUNTY
CTRY  .          U.S.A.                           :COUNTRY
DATE  .                                           :DATE
UWI   .                                           :UNIQUE WELL UWI
LIC   .                                           :LICENSE NUMBER
API   .          50-103-20730-00-00               :API NUMBER
SRVC  .          SLB                              :SERVICE COMPANY
~Parameter Information Block
#MNEM.UNIT       Value                            Description
#---------       ---------                        -------------
PDAT  .          MSL                              :Permanent Datum               
EPD   .ft        0.00                             :Elevation of Permanent Datum (PDAT) above Mean Sea Level
LMF   .          DF                               :Logging Measured From (Name of Working Datum)
APD   .ft        89.47                            :Elevation of Working Datum (LMF) Above Permanent Datum
EKB   .ft        0.00                             :Elevation of Kelly Bushing Above Mean Sea Level
EGL   .ft        62.00                            :Elevation of Ground Level Above Mean Sea Level
EDF   .ft        89.47                            :Elevation of Derrick Floor Above Mean Sea Level
~Curve Information Block
#MNEM.UNIT       API Code            Curve    Description
#--------        --------------      -----    -------------------
DEPT  .F                             :0       Index
BS    .IN                            :1       Bit Size                      
DTCO  .US/F                          :2       Delta-T Compressional         
DTRS  .US/F                          :3       Delta-T Shear, Receiver Array - Monopole P&S
DT_XD_R.US/F                          :4       Delta-T Shear, Receiver Array - X Dipole
DT_YD_R.US/F                          :5       Delta-T Shear, Receiver Array - Y Dipole
GR_EDTC.GAPI                          :6       Gamma Ray                     
HCAL  .IN                            :7       HRCC Caliper Calibrated       
HD1_PPC1.IN                            :8       PPC1 Hole Diameter 1          
HD2_PPC1.IN                            :9       PPC1 Hole Diameter 2          
PR    .                              :10      Poisson's Ratio               
TICO  .US                            :11      Compressional Integrated Transit Time Channel
TISH  .US                            :12      Shear Integrated Transit Time Channel
TISH  .US                            :13      Shear Integrated Transit Time Channel
TISH  .US                            :14      Shear Integrated Transit Time Channel
VPVS  .                              :15      Compressional to Shear Velocity Ratio
~Ascii Data Section
# ...
   4147.00000       8.50000      96.05200    -999.25000     210.37292     203.71587      98.31281    -999.25000       8.82747       3.39790       0.36783    1430.67334   -2899.25000    4659.44434    4500.22754       2.18703 
   4147.50000       8.50000      96.19403    -999.25000     210.28285     202.62175      98.31281    -999.25000       8.88638       3.39784       0.36765    1430.81946   -2899.25000    4653.34082    4499.02441       2.18583 
   4148.00000       8.50000      96.56268    -999.25000     208.60400     202.50200      98.31281    -999.25000       8.78091       3.38329       0.36402    1428.75037   -2899.25000    4649.67920    4495.37793       2.16267 
   4148.50000       8.50000      96.96521    -999.25000     207.30554     203.55733      98.31281    -999.25000       8.85089       3.38329       0.36041    1430.01196   -2899.25000    4646.18750    4493.53418       2.14055 
   4149.00000       8.50000      96.69489    -999.25000     206.22862     203.05963      98.31281    -999.25000       8.86288       3.39784       0.35920    1430.48633   -2899.25000    4644.01318    4490.87109       2.13337 
   4149.50000       8.50000      96.33627    -999.25000     205.41966     200.82104      98.31281    -999.25000       8.87454       3.41245       0.35907    1433.14478   -2899.25000    4643.03809    4489.78613       2.13258 
   4150.00000       8.50000      94.98641    -999.25000     204.32262     197.42824      98.31281    -999.25000       8.92161       3.38322       0.36200    1432.86755   -2899.25000    4645.43359    4490.75000       2.15015 
   4150.50000       8.50000      93.61639    -999.25000     204.37401     195.04822      98.31281    -999.25000       8.86306       3.38329       0.36681    1433.42773   -2899.25000    4647.40576    4490.93652       2.18039 
   4151.00000       8.50000      92.86728    -999.25000     204.98744     194.56958      98.31281    -999.25000       8.92161       3.39784       0.37051    1434.35388   -2899.25000    4648.54492    4491.87305       2.20484 
   4151.50000       8.50000      92.81896    -999.25000     204.55040     195.21803      98.31281    -999.25000       8.89821       3.39784       0.37024    1432.98181   -2899.25000    4649.71777    4496.06348       2.20301 
   4152.00000       8.50000      93.63184    -999.25000     203.10219     196.50963      98.31281    -999.25000       8.82804       3.39784       0.36564    1434.14221   -2899.25000    4653.84424    4499.45312       2.17288 
   4152.50000       8.50000      94.34198    -999.25000     202.77368     198.30760      98.31281    -999.25000       8.79285       3.39784       0.36231    1436.05103   -2899.25000    4654.92578    4502.03125       2.15203 
   4153.00000       8.50000      95.79754    -999.25000     204.42058     200.23088      98.31281    -999.25000       8.92168       3.39784       0.35952    1438.56055   -2899.25000    4656.69727    4497.42432       2.13522 
   4153.50000       8.50000      97.41851    -999.25000     206.50073     203.22791      98.31281    -999.25000       8.85139       3.39784       0.35703    1439.61853   -2899.25000    4652.71533    4500.91504       2.12070 
   4154.00000       8.50000      98.48856    -999.25000     207.21741     204.54787      98.31281    -999.25000       8.92180       3.39790       0.35428    1436.85229   -2899.25000    4656.05176    4495.88916       2.10508 
   4154.50000       8.50000      98.31928    -999.25000     206.51128     205.67300      98.31281    -999.25000       9.00339       3.39784       0.35351    1439.38696   -2899.25000    4651.69141    4497.93555       2.10078 
   4155.00000       8.50000      97.89603    -999.25000     205.95284     204.83945      98.31281    -999.25000       9.01518       3.36867    -999.25000    1435.62463   -2899.25000    4655.74365    4495.24609    -999.25000 
   4155.50000       8.50000      97.16628    -999.25000     205.43546    -999.25000      98.31281    -999.25000       8.99166       3.39784    -999.25000    1438.66052   -2899.25000    4656.85840    4492.58008    -999.25000 
   4156.00000       8.50000    -999.25000    -999.25000    -999.25000    -999.25000      98.31281    -999.25000       8.98031       3.38329    -999.25000    1441.22620   -2899.25000    4656.99316    4491.92236    -999.25000 
   4156.50000       8.50000    -999.25000    -999.25000    -999.25000    -999.25000      98.31281    -999.25000       9.06198       3.39784    -999.25000    1439.81909   -2899.25000    4657.21143    4491.16504    -999.25000 
   4157.00000    -999.25000    -999.25000    -999.25000    -999.25000    -999.25000    -999.25000    -999.25000    -999.25000    -999.25000    -999.25000    -999.25000    -999.25000    -999.25000    -999.25000    -999.25000 
   4157.50000    -999.25000    -999.25000    -999.25000    -999.25000    -999.25000    -999.25000    -999.25000    -999.25000    -999.25000    -999.25000    -999.25000    -999.25000    -999.25000    -999.25000    -999.25000 
   4158.00000    -999.25000    -999.25000    -999.25000    -999.25000    -999.25000    -999.25000    -999.25000    -999.25000    -999.25000    -999.25000    -999.25000    -999.25000    -999.25000    -999.25000    -999.25000 
