~Version Information
VERS  .          2.0                              :CWLS Log Ascii Standard - Version 2.0
WRAP  .          NO                               :One line per depth step
~Well Information Block
#MNEM.UNIT       Data Type                        Information
#---------       ---------                        -------------------------------
STRT  .F         2077.00000                       :START DEPTH
STOP  .F         4158.00000                       :STOP DEPTH
STEP  .F          0.50000                         :INCREMENT
NULL  .          -999.25                          :NULL DATA VALUE
COMP  .          ConocoPhillips Alaska Inc.       :COMPANY
WELL  .          Tinmiaq-2                        :WELL
FLD   .          Exploration                      :FIELD
LOC   .                                           :LOCATION
PROV  .          Alaska                           :PROVINCE
STAT  .          Alaska                           :STATE
CNTY  .          North Slope                      :COUNTY
CTRY  .          U.S.A.                           :COUNTRY
DATE  .                                           :DATE
UWI   .                                           :UNIQUE WELL UWI
LIC   .                                           :LICENSE NUMBER
API   .          50-103-20730-00-00               :API NUMBER
SRVC  .          SLB                              :SERVICE COMPANY
~Parameter Information Block
#MNEM.UNIT       Value                            Description
#---------       ---------                        -------------
PDAT  .          MSL                              :Permanent Datum               
EPD   .ft        0.00                             :Elevation of Permanent Datum (PDAT) above Mean Sea Level
LMF   .          DF                               :Logging Measured From (Name of Working Datum)
APD   .ft        89.47                            :Elevation of Working Datum (LMF) Above Permanent Datum
EKB   .ft        0.00                             :Elevation of Kelly Bushing Above Mean Sea Level
EGL   .ft        62.00                            :Elevation of Ground Level Above Mean Sea Level
EDF   .ft        89.47                            :Elevation of Derrick Floor Above Mean Sea Level
~Curve Information Block
#MNEM.UNIT       API Code            Curve    Description
#--------        --------------      -----    -------------------
DEPT  .F                             :0       Index
BS    .IN                            :1       Bit Size                      
DTCO  .US/F                          :2       Delta-T Compressional         
DTRS  .US/F                          :3       Delta-T Shear, Receiver Array - Monopole P&S
DT_XD_R.US/F                          :4       Delta-T Shear, Receiver Array - X Dipole
DT_YD_R.US/F                          :5       Delta-T Shear, Receiver Array - Y Dipole
GR_EDTC.GAPI                          :6       Gamma Ray                     
HCAL  .IN                            :7       HRCC Caliper Calibrated       
HD1_PPC1.IN                            :8       PPC1 Hole Diameter 1          
HD2_PPC1.IN                            :9       PPC1 Hole Diameter 2          
PR    .                              :10      Poisson's Ratio               
TICO  .US                            :11      Compressional Integrated Transit Time Channel
TISH  .US                            :12      Shear Integrated Transit Time Channel
TISH  .US                            :13      Shear Integrated Transit Time Channel
TISH  .US                            :14      Shear Integrated Transit Time Channel
VPVS  .                              :15      Compressional to Shear Velocity Ratio
~Ascii Data Section
# ...
   3733.00000       8.50000      80.50504    -999.25000     164.79662     158.74748      70.90582    -999.25000       8.90725       8.58247       0.34480    1292.50806   -2899.25000    4247.66016    4124.42480       2.05483 
   3733.50000       8.50000      86.44845    -999.25000     170.16129     165.37241      76.44549    -999.25000       8.90725       8.59575       0.32760    1289.70703   -2899.25000    4244.37646    4126.92285       1.97504 
   3734.00000       8.50000      91.22831    -999.25000     175.06795     169.26027      77.65208    -999.25000       8.93047       8.62204       0.31473    1288.49622   -2899.25000    4244.00781    4129.11816       1.92327 
   3734.50000       8.50000      93.07905    -999.25000     180.08636     173.23848      79.93969    -999.25000       8.87226       8.64845       0.31764    1290.68530   -2899.25000    4244.87793    4132.66895       1.93439 
   3735.00000       8.50000      93.47427    -999.25000     186.29185     179.29292      79.43555    -999.25000       8.79033       8.46313       0.33068    1292.50842   -2899.25000    4248.99707    4135.11230       1.98829 
   3735.50000       8.50000      94.18752    -999.25000     193.30811     187.75110      82.77599    -999.25000       8.75514       8.42345       0.34272    1294.56177   -2899.25000    4254.39551    4139.16406       2.04429 
   3736.00000       8.50000      94.85770    -999.25000     195.46263     192.31004      86.58285    -999.25000       8.89550       8.56917       0.34541    1298.35913   -2899.25000    4261.22070    4145.84082       2.05774 
   3736.50000       8.50000      93.73599    -999.25000     190.82689     188.17561      85.60439    -999.25000       8.88823       8.64607       0.34155    1302.07410   -2899.25000    4267.92773    4154.96045       2.03851 
   3737.00000       8.50000      90.78220    -999.25000     184.77954     180.76001      81.99568    -999.25000       8.77886       8.42078       0.34133    1308.99341   -2899.25000    4279.49805    4168.39941       2.03757 
   3737.50000       8.50000      87.77177    -999.25000     181.80324     175.81448      76.69699    -999.25000       8.78667       8.47449       0.34771    1312.94507   -2899.25000    4298.53613    4188.88086       2.06970 
   3738.00000       8.50000      87.01204    -999.25000     181.74268     174.78078      74.17874    -999.25000       8.82938       8.43031       0.35089    1320.61084   -2899.25000    4325.22852    4212.36572       2.08649 
   3738.50000       8.50000      88.79926    -999.25000     182.82079     176.13011      73.42842    -999.25000       8.87943       8.56013       0.34590    1331.48389   -2899.25000    4350.86719    4237.24561       2.06078 
   3739.00000       8.50000      92.01128    -999.25000     184.85315     179.23238      73.64201    -999.25000       8.89600       8.53612       0.33625    1345.20508   -2899.25000    4375.12939    4258.66504       2.01372 
   3739.50000       8.50000      94.48277    -999.25000     187.97818     183.37003      75.79288    -999.25000       8.90138       8.52540       0.33140    1359.93762   -2899.25000    4397.82764    4278.84619       1.99140 
   3740.00000       8.50000      95.48723    -999.25000     191.45372     186.79526      79.64642    -999.25000       8.94220       8.57582       0.33421    1374.45532   -2899.25000    4420.89453    4297.17334       2.00408 
   3740.50000       8.50000      96.08090    -999.25000     195.12251     190.59238      84.25419    -999.25000       8.93122       8.57665       0.33949    1387.40479   -2899.25000    4442.94531    4313.91748       2.02871 
   3741.00000       8.50000      97.50534    -999.25000     199.04977     195.09497      86.87504    -999.25000       8.91816       8.63474       0.34193    1397.79956   -2899.25000    4461.74609    4327.98828       2.04037 
   3741.50000       8.50000      99.30365    -999.25000     201.88689     199.35150      87.68002    -999.25000       8.82642       8.49926       0.34060    1404.25317   -2899.25000    4475.64502    4339.66943       2.03395 
   3742.00000       8.50000      99.67854    -999.25000     202.48889     201.43994      85.28502    -999.25000       8.91881       8.53274       0.33999    1405.67920   -2899.25000    4485.20996    4348.07422       2.03095 
   3742.50000       8.50000      98.32057    -999.25000     200.38867     200.14087      83.19262    -999.25000       8.84217       8.50465       0.34134    1403.04578   -2899.25000    4491.06152    4351.35059       2.03751 
   3743.00000       8.50000      96.00250    -999.25000     198.04492     197.46420      81.11404    -999.25000       8.82402       8.57088       0.34587    1403.90356   -2899.25000    4491.89551    4350.52637       2.06017 
   3743.50000       8.50000      94.55724    -999.25000     195.99402     194.06660      80.60652    -999.25000       8.72802       8.43770       0.34828    1407.15808   -2899.25000    4490.26074    4348.05225       2.07257 
   3744.00000       8.50000      94.14350    -999.25000     196.19324     193.84076      79.47824    -999.25000       8.69649       8.37039       0.35024    1412.48682   -2899.25000    4494.19482    4348.70215       2.08297 
   3744.50000       8.50000      94.45606    -999.25000     196.42924     193.53596      76.85909    -999.25000       8.69649       8.37054       0.34968    1415.50989   -2899.25000    4502.45117    4358.68799       2.07999 
   3745.00000       8.50000      94.94991    -999.25000     197.07962     193.34412      81.88851    -999.25000       8.73867       8.38242       0.34891    1415.96631   -2899.25000    4514.94434    4368.50977       2.07587 
   3745.50000       8.50000      95.16211    -999.25000     196.99968     192.17163      85.67110    -999.25000       8.83296       8.50758       0.34786    1417.54578   -2899.25000    4526.69287    4376.64746       2.07040 
   3746.00000       8.50000      94.73406    -999.25000     195.98363     189.79836      92.02266    -999.25000       8.83934       8.48716       0.34748    1422.71545   -2899.25000    4536.60205    4384.41553       2.06841 
   3746.50000       8.50000      93.29134    -999.25000     193.78876     187.10208      90.41296    -999.25000       8.84581       8.59553       0.34906    1428.75647   -2899.25000    4545.31787    4390.69971       2.07672 
   3747.00000       8.50000      91.41915    -999.25000     191.79953     184.98584      85.74281    -999.25000       8.87325       8.57977       0.35278    1433.33777   -2899.25000    4553.89648    4395.13818       2.09689 
   3747.50000       8.50000      90.17076    -999.25000     191.70444     186.16139      80.99256    -999.25000       8.89139       8.51297       0.35772    1435.24683   -2899.25000    4560.53271    4400.34033       2.12493 
   3748.00000       8.50000      91.12088    -999.25000     194.27353     190.63693      81.78247    -999.25000       8.82541       8.51356       0.35895    1435.10693   -2899.25000    4564.88086    4403.96729       2.13190 
   3748.50000       8.50000      94.42087    -999.25000     197.35951     196.81236      90.05368    -999.25000       8.92062       8.61182       0.35205    1434.95593   -2899.25000    4566.80615    4404.92285       2.09383 
   3749.00000       8.50000      98.46071    -999.25000     198.69748     201.17145      96.74374    -999.25000       9.07106       8.71661       0.33847    1433.87585   -2899.25000    4566.87939    4402.66895       2.02550 
   3749.50000       8.50000     100.85811    -999.25000     198.47424     201.48680      97.56264    -999.25000       9.11062       8.80144       0.32720    1432.22095   -2899.25000    4564.81055    4399.64404       1.97348 
   3750.00000       8.50000     100.52956    -999.25000     198.11185     199.23686      93.18922    -999.25000       9.13574       8.79623       0.32662    1430.45654   -2899.25000    4561.41748    4397.48145       1.97104 
   3750.50000       8.50000      98.62118    -999.25000     198.61646     196.96350      86.63318    -999.25000       9.12299       8.71969       0.33534    1428.25610   -2899.25000    4557.90869    4395.54102       2.00991 
