~Version Information
VERS  .          2.0                              :CWLS Log Ascii Standard - Version 2.0
WRAP  .          NO                               :One line per depth step
~Well Information Block
#MNEM.UNIT       Data Type                        Information
#---------       ---------                        -------------------------------
STRT  .F         2077.00000                       :START DEPTH
STOP  .F         4158.00000                       :STOP DEPTH
STEP  .F          0.50000                         :INCREMENT
NULL  .          -999.25                          :NULL DATA VALUE
COMP  .          ConocoPhillips Alaska Inc.       :COMPANY
WELL  .          Tinmiaq-2                        :WELL
FLD   .          Exploration                      :FIELD
LOC   .                                           :LOCATION
PROV  .          Alaska                           :PROVINCE
STAT  .          Alaska                           :STATE
CNTY  .          North Slope                      :COUNTY
CTRY  .          U.S.A.                           :COUNTRY
DATE  .                                           :DATE
UWI   .                                           :UNIQUE WELL UWI
LIC   .                                           :LICENSE NUMBER
API   .          50-103-20730-00-00               :API NUMBER
SRVC  .          SLB                              :SERVICE COMPANY
~Parameter Information Block
#MNEM.UNIT       Value                            Description
#---------       ---------                        -------------
PDAT  .          MSL                              :Permanent Datum               
EPD   .ft        0.00                             :Elevation of Permanent Datum (PDAT) above Mean Sea Level
LMF   .          DF                               :Logging Measured From (Name of Working Datum)
APD   .ft        89.47                            :Elevation of Working Datum (LMF) Above Permanent Datum
EKB   .ft        0.00                             :Elevation of Kelly Bushing Above Mean Sea Level
EGL   .ft        62.00                            :Elevation of Ground Level Above Mean Sea Level
EDF   .ft        89.47                            :Elevation of Derrick Floor Above Mean Sea Level
~Curve Information Block
#MNEM.UNIT       API Code            Curve    Description
#--------        --------------      -----    -------------------
DEPT  .F                             :0       Index
BS    .IN                            :1       Bit Size                      
DTCO  .US/F                          :2       Delta-T Compressional         
DTRS  .US/F                          :3       Delta-T Shear, Receiver Array - Monopole P&S
DT_XD_R.US/F                          :4       Delta-T Shear, Receiver Array - X Dipole
DT_YD_R.US/F                          :5       Delta-T Shear, Receiver Array - Y Dipole
GR_EDTC.GAPI                          :6       Gamma Ray                     
HCAL  .IN                            :7       HRCC Caliper Calibrated       
HD1_PPC1.IN                            :8       PPC1 Hole Diameter 1          
HD2_PPC1.IN                            :9       PPC1 Hole Diameter 2          
PR    .                              :10      Poisson's Ratio               
TICO  .US                            :11      Compressional Integrated Transit Time Channel
TISH  .US                            :12      Shear Integrated Transit Time Channel
TISH  .US                            :13      Shear Integrated Transit Time Channel
TISH  .US                            :14      Shear Integrated Transit Time Channel
VPVS  .                              :15      Compressional to Shear Velocity Ratio
~Ascii Data Section
# ...
   3319.00000       8.50000      94.51823     185.72159     200.78111     193.51889      81.04502    -999.25000       8.86573       8.57360       0.35757    1425.35010     795.26953    4550.43555    4430.83447       2.12381 
   3319.50000       8.50000      94.76334     186.10559     200.09795     193.53073      82.38555    -999.25000       8.86573       8.57797       0.35561    1424.95898     794.66089    4551.85645    4430.67236       2.11266 
   3320.00000       8.50000      94.93198     185.39458     198.80424     193.15837      84.08508    -999.25000       8.89695       8.61319       0.35282    1425.32312     793.73608    4554.32324    4430.22363       2.09694 
   3320.50000       8.50000      94.53578     182.91318     197.16112     193.17203      83.11298    -999.25000       9.00183       8.75241       0.35089    1426.30652     789.93622    4551.90186    4429.06934       2.08644 
   3321.00000       8.50000      94.51611     183.53696     196.47659     193.66197      80.87984    -999.25000       8.98886       8.70264       0.34956    1424.86853     783.28882    4544.63330    4424.52881       2.07935 
   3321.50000       8.50000      95.20860     187.82683     197.65894     194.05469      79.90247    -999.25000       8.94731       8.67033       0.34891    1422.70056     776.55316    4536.54102    4414.91016       2.07589 
   3322.00000       8.50000      96.31258     190.82457     198.66232     193.24004      79.68214    -999.25000       8.92390       8.63810       0.34655    1421.63342     771.11591    4527.75244    4404.53857       2.06364 
   3322.50000       8.50000      96.77597     189.81383     199.42822     192.53796      78.15491    -999.25000       8.91030       8.57703       0.34601    1418.73230     763.59448    4517.31104    4398.59912       2.06085 
   3323.00000       8.50000      96.54250     187.29701     199.96442     193.31665      74.30992    -999.25000       8.89237       8.50169       0.34781    1414.01038     755.52301    4508.39697    4391.67188       2.07011 
   3323.50000       8.50000      96.46708     186.14597     200.01758     194.87025      74.87818    -999.25000       8.82797       8.57656       0.34817    1411.61890     751.26904    4499.40186    4382.30957       2.07201 
   3324.00000       8.50000      96.52556     185.53732     196.92410     193.38850      76.49673    -999.25000       8.91877       8.72890       0.34237    1407.59619     744.21344    4490.13965    4373.29395       2.04267 
   3324.50000       8.50000      95.87573     182.86926     190.90187     188.07899      78.26215    -999.25000       8.92003       8.74518       0.33272    1406.54565     737.85669    4480.59277    4364.82520       1.99729 
   3325.00000       8.50000      94.87769     180.33720     188.83289     185.16042      76.13785    -999.25000       8.90456       8.73625       0.33192    1405.41565     732.75531    4474.27441    4358.52832       1.99370 
   3325.50000       8.50000      93.88785     178.31509     187.87874     183.10846      74.08206    -999.25000       8.86567       8.66588       0.33366    1404.70911     728.15521    4468.17725    4352.35205       2.00167 
   3326.00000       8.50000      92.90622     176.80293     188.03943     181.92314      72.09480    -999.25000       8.80337       8.53408       0.33793    1404.42603     724.05640    4462.30176    4346.29688       2.02118 
   3326.50000       8.50000      92.54559     177.00327     189.27452     181.84280      74.88440    -999.25000       8.82383       8.54558       0.34217    1402.75330     718.52136    4457.73340    4339.21338       2.04163 
   3327.00000       8.50000      92.64577     177.96532     188.42618     180.63751      76.10254    -999.25000       8.81803       8.53737       0.34048    1402.31689     715.02045    4455.48389    4331.56299       2.03338 
   3327.50000       8.50000      92.84568     177.84435     186.16794     178.81174      78.86858    -999.25000       8.81513       8.47616       0.33502    1402.16321     711.65363    4453.30762    4327.57959       2.00796 
   3328.00000       8.50000      92.88104     176.71858     184.42133     177.44083      80.48857    -999.25000       8.80931       8.46787       0.33070    1400.88269     706.18481    4451.63818    4326.93262       1.98837 
   3328.50000       8.50000      92.56078     175.61594     183.81921     176.93774      79.68533    -999.25000       8.82098       8.49434       0.33024    1400.11816     700.00983    4451.23535    4327.69580       1.98634 
   3329.00000       8.50000      91.86658     175.03473     183.58365     176.69632      76.38507    -999.25000       8.83552       8.48110       0.33264    1401.23901     694.99164    4452.21826    4329.03467       1.99691 
   3329.50000       8.50000      90.97201     174.49490     182.68097     175.67630      70.50845    -999.25000       8.79158       8.44416       0.33482    1403.13550     690.89142    4454.61475    4331.92871       2.00676 
   3330.00000       8.50000      89.98158     174.65640     181.11266     173.99138      66.24442    -999.25000       8.79044       8.46343       0.33611    1409.06982     691.12207    4460.52344    4336.19678       2.01265 
   3330.50000       8.50000      89.83260    -999.25000     180.70522     174.35146      68.36562    -999.25000       8.74008       8.49457       0.33607    1409.02283     680.85358    4469.79102    4342.49463       2.01255 
   3331.00000       8.50000      90.82175    -999.25000     185.24199     178.92482      76.35330    -999.25000       8.83944       8.54123       0.34139    1414.80896     671.22284    4484.99170    4350.20020       2.03788 
   3331.50000       8.50000      92.25040    -999.25000     191.31728     184.66388      85.71149    -999.25000       8.83669       8.58693       0.34795    1425.21802    -978.79980    4498.48926    4359.32520       2.07116 
   3332.00000       8.50000      92.98815    -999.25000     196.34694     188.54596      91.90750    -999.25000       8.89780       8.65993       0.35499    1432.63977   -2899.25000    4515.96143    4367.58301       2.10929 
   3332.50000       8.50000      92.54073    -999.25000     200.53174     190.99055      90.31420    -999.25000       8.90234       8.62444       0.36395    1439.99487   -2899.25000    4533.69629    4384.63818       2.16280 
   3333.00000       8.50000      92.14835    -999.25000     205.35609     195.89311      86.54091    -999.25000       8.89695       8.89164       0.37318    1440.26843   -2899.25000    4547.78125    4403.42627       2.22343 
   3333.50000       8.50000      93.39825    -999.25000     208.78481     202.51913      87.14302    -999.25000       8.82365       8.66973       0.37467    1438.75562   -2899.25000    4568.83301    4418.63623       2.23384 
   3334.00000       8.50000      96.32888    -999.25000     210.43837     208.81671      91.74628    -999.25000       8.92375       8.86203       0.36812    1438.89868   -2899.25000    4581.55664    4435.70752       2.18914 
   3334.50000       8.50000      98.61130    -999.25000     212.63731     213.62323      90.53799    -999.25000       9.06304       9.02471       0.36340    1439.53821   -2899.25000    4592.63330    4444.39453       2.15886 
   3335.00000       8.50000     100.88763    -999.25000     216.01160     217.90674      88.26569    -999.25000       9.19039       8.78026       0.36048    1441.32935   -2899.25000    4602.22363    4453.18896       2.14106 
   3335.50000       8.50000     104.99311    -999.25000     219.01048     221.03398      91.79300    -999.25000       8.97617       8.80150       0.35135    1444.48303   -2899.25000    4613.17822    4460.24463       2.08983 
   3336.00000       8.50000     110.34848    -999.25000     220.56947     222.70125      96.72352    -999.25000       9.32795       9.01834       0.33423    1450.84644   -2899.25000    4625.96533    4466.36084       2.00493 
   3336.50000       8.50000     113.51044    -999.25000     220.73430     222.57072      97.11190    -999.25000       9.36192       9.09902       0.32168    1459.63196   -2899.25000    4641.70117    4477.10010       1.95036 
