~Version Information
VERS  .          2.0                              :CWLS Log Ascii Standard - Version 2.0
WRAP  .          NO                               :One line per depth step
~Well Information Block
#MNEM.UNIT       Data Type                        Information
#---------       ---------                        -------------------------------
STRT  .F         2077.00000                       :START DEPTH
STOP  .F         4158.00000                       :STOP DEPTH
STEP  .F          0.50000                         :INCREMENT
NULL  .          -999.25                          :NULL DATA VALUE
COMP  .          ConocoPhillips Alaska Inc.       :COMPANY
WELL  .          Tinmiaq-2                        :WELL
FLD   .          Exploration                      :FIELD
LOC   .                                           :LOCATION
PROV  .          Alaska                           :PROVINCE
STAT  .          Alaska                           :STATE
CNTY  .          North Slope                      :COUNTY
CTRY  .          U.S.A.                           :COUNTRY
DATE  .                                           :DATE
UWI   .                                           :UNIQUE WELL UWI
LIC   .                                           :LICENSE NUMBER
API   .          50-103-20730-00-00               :API NUMBER
SRVC  .          SLB                              :SERVICE COMPANY
~Parameter Information Block
#MNEM.UNIT       Value                            Description
#---------       ---------                        -------------
PDAT  .          MSL                              :Permanent Datum               
EPD   .ft        0.00                             :Elevation of Permanent Datum (PDAT) above Mean Sea Level
LMF   .          DF                               :Logging Measured From (Name of Working Datum)
APD   .ft        89.47                            :Elevation of Working Datum (LMF) Above Permanent Datum
EKB   .ft        0.00                             :Elevation of Kelly Bushing Above Mean Sea Level
EGL   .ft        62.00                            :Elevation of Ground Level Above Mean Sea Level
EDF   .ft        89.47                            :Elevation of Derrick Floor Above Mean Sea Level
~Curve Information Block
#MNEM.UNIT       API Code            Curve    Description
#--------        --------------      -----    -------------------
DEPT  .F                             :0       Index
BS    .IN                            :1       Bit Size                      
DTCO  .US/F                          :2       Delta-T Compressional         
DTRS  .US/F                          :3       Delta-T Shear, Receiver Array - Monopole P&S
DT_XD_R.US/F                          :4       Delta-T Shear, Receiver Array - X Dipole
DT_YD_R.US/F                          :5       Delta-T Shear, Receiver Array - Y Dipole
GR_EDTC.GAPI                          :6       Gamma Ray                     
HCAL  .IN                            :7       HRCC Caliper Calibrated       
HD1_PPC1.IN                            :8       PPC1 Hole Diameter 1          
HD2_PPC1.IN                            :9       PPC1 Hole Diameter 2          
PR    .                              :10      Poisson's Ratio               
TICO  .US                            :11      Compressional Integrated Transit Time Channel
TISH  .US                            :12      Shear Integrated Transit Time Channel
TISH  .US                            :13      Shear Integrated Transit Time Channel
TISH  .US                            :14      Shear Integrated Transit Time Channel
VPVS  .                              :15      Compressional to Shear Velocity Ratio
~Ascii Data Section
# ...
   3175.00000       8.50000      89.37804     174.05103     181.13309     179.74883      63.61316    -999.25000       8.67017       8.38243       0.33852    1409.84985     761.01385    4484.55664    4319.88770       2.02398 
   3175.50000       8.50000      87.91669     171.17532     178.56277     177.28654      63.34506    -999.25000       8.77045       8.45605       0.33977    1399.49988     741.82867    4469.87549    4297.99658       2.02993 
   3176.00000       8.50000      87.62560     169.67119     175.39944     175.06171      67.06027    -999.25000       8.86690       8.62458       0.33416    1394.69202     725.83380    4449.69531    4279.95557       2.00388 
   3176.50000       8.50000      88.03089     169.66356     173.08696     173.18236      70.88605    -999.25000       8.91806       8.71205       0.32624    1387.73340     705.93372    4432.15283    4260.09033       1.96928 
   3177.00000       8.50000      88.29469     169.75854     171.42882     171.53096      72.69077    -999.25000       8.95369       8.69496       0.32001    1382.78955     688.26221    4413.44629    4242.49756       1.94373 
   3177.50000       8.50000      88.20444     169.53326     170.61354     169.93910      70.38699    -999.25000       8.92311       8.68508       0.31790    1376.10657     669.61865    4395.17578    4223.39990       1.93539 
   3178.00000       8.50000      87.96885     169.36942     170.62201     169.53679      66.86721    -999.25000       8.91628       8.70125       0.31901    1369.17920     652.53406    4376.62061    4205.74316       1.93977 
   3178.50000       8.50000      87.83965     169.40921     171.83524     170.11224      65.85106    -999.25000       8.90149       8.68325       0.32277    1361.20483     637.12378    4361.00000    4188.67969       1.95486 
   3179.00000       8.50000      87.90227     169.28542     172.95618     170.95296      66.74541    -999.25000       8.93344       8.66997       0.32552    1357.48096     629.13715    4346.31250    4174.60010       1.96614 
   3179.50000       8.50000      88.06136     169.21819     172.94833     171.58063      66.78756    -999.25000       8.99794       8.69148       0.32502    1355.57642     626.06024    4334.16211    4164.83398       1.96407 
   3180.00000       8.50000      88.27416     169.50514     172.50197     171.61041      67.06881    -999.25000       8.93453       8.69497       0.32288    1354.49243     625.32550    4325.06494    4155.15527       1.95524 
   3180.50000       8.50000      88.57179     169.74750     172.86015     171.58676      67.79297    -999.25000       8.90496       8.68906       0.32206    1353.20667     624.44275    4317.06006    4148.89062       1.95189 
   3181.00000       8.50000      88.97767     170.10985     173.66286     171.79486      68.90538    -999.25000       8.90725       8.66564       0.32203    1352.51721     622.04694    4310.86523    4144.80713       1.95178 
   3181.50000       8.50000      89.02635     169.96936     174.14732     172.30870      70.36384    -999.25000       8.87473       8.60050       0.32302    1352.40906     619.07617    4306.25391    4142.38037       1.95582 
   3182.00000       8.50000      88.39971     169.21857     174.73799     172.55896      67.41119    -999.25000       8.82687       8.54722       0.32768    1351.21667     616.99072    4307.82617    4143.32031       1.97523 
   3182.50000       8.50000      87.67798     168.48967     175.22182     172.77284      67.32639    -999.25000       8.76434       8.49416       0.33237    1349.80896     615.78271    4311.22314    4147.80420       1.99587 
   3183.00000       8.50000      87.23683     168.72665     175.66586     173.02805      64.95995    -999.25000       8.73252       8.48540       0.33575    1350.97522     616.98022    4315.44531    4153.40430       2.01110 
   3183.50000       8.50000      87.48308     170.13165     176.13493     173.44057      62.75057    -999.25000       8.73290       8.48987       0.33608    1353.94324     619.96149    4319.72607    4159.78711       2.01267 
   3184.00000       8.50000      88.82253     172.90511     176.69389     174.12622      63.13675    -999.25000       8.76691       8.47646       0.33162    1357.93823     624.10229    4323.29688    4166.61963       1.99236 
   3184.50000       8.50000      90.63946     175.40744     177.88705     174.83508      65.06433    -999.25000       8.71773       8.45265       0.32541    1358.31152     625.18378    4327.53711    4170.56689       1.96621 
   3185.00000       8.50000      92.48880     177.83841     179.09030     175.68433      68.05188    -999.25000       8.70135       8.43679       0.31904    1359.28357     626.85455    4331.98193    4174.79785       1.94023 
   3185.50000       8.50000      94.40293     180.12672     180.31372     176.81412      73.15781    -999.25000       8.75052       8.43679       0.31233    1361.45203     629.70306    4336.83643    4179.59619       1.91458 
   3186.00000       8.50000      95.58543     182.03874     181.28720     178.06883      75.91724    -999.25000       8.80435       8.47915       0.30836    1363.35339     632.03424    4339.77734    4185.09277       1.89983 
   3186.50000       8.50000      96.40183     183.76245     182.13562     179.38603      77.50256    -999.25000       8.86051       8.54272       0.30576    1365.12122     634.10645    4341.76074    4190.93945       1.89053 
   3187.00000       8.50000      96.09878     185.36569     184.32101     182.37674      76.17621    -999.25000       8.73119       8.41657       0.31281    1365.82202     636.47455    4351.70068    4196.51807       1.91633 
   3187.50000       8.50000      95.22282     182.92572     187.74039     185.27740      71.53918    -999.25000       8.70625       8.40246       0.32566    1369.22961     646.14716    4361.02393    4204.39355       1.96718 
   3188.00000       8.50000      94.52054     180.03429     189.83575     187.04489      70.05637    -999.25000       8.79170       8.46485       0.33438    1374.41028     659.21021    4370.27588    4210.80664       2.00488 
   3188.50000       8.50000      94.31660     179.48602     189.50374     187.73257      69.45345    -999.25000       8.90533       8.53033       0.33531    1380.27820     672.74280    4382.40625    4216.83789       2.00900 
   3189.00000       8.50000      94.42336     179.86594     187.79564     187.06052      70.07257    -999.25000       8.72557       8.44979       0.33139    1389.74365     690.69513    4394.48730    4226.52930       1.99139 
   3189.50000       8.50000      93.63979     178.64215     186.50110     185.54419      71.59135    -999.25000       8.75714       8.45872       0.33130    1391.26978     700.22552    4408.74463    4237.40186       1.99096 
   3190.00000       8.50000      92.77879     177.30672     184.77448     183.99059      69.45913    -999.25000       8.90652       8.70406       0.33144    1397.45691     714.32562    4425.33740    4249.16602       1.99159 
   3190.50000       8.50000      91.97805     175.79240     183.86116     184.09212      67.24949    -999.25000       8.72195       8.40272       0.33297    1401.28491     726.33069    4437.56494    4260.49463       1.99839 
   3191.00000       8.50000      91.98589     175.20721     183.70509     185.20979      69.89687    -999.25000       8.84581       8.54294       0.33278    1403.16980     735.55896    4452.47852    4269.85449       1.99753 
   3191.50000       8.50000      92.56429     179.15469     184.56738     187.17401      73.76290    -999.25000       8.77643       8.49445       0.33205    1408.17102     746.69928    4462.61963    4282.74365       1.99426 
   3192.00000       8.50000      94.56216     186.02959     187.65810     189.91441      76.83306    -999.25000       8.70078       8.49252       0.33001    1410.68250     754.27118    4473.37598    4288.33740       1.98529 
   3192.50000       8.50000      96.72537     191.66370     191.24867     193.75343      77.84010    -999.25000       8.78073       8.48722       0.32820    1413.81836     761.21094    4481.93701    4295.33008       1.97745 
