~Version Information
VERS  .          2.0                              :CWLS Log Ascii Standard - Version 2.0
WRAP  .          NO                               :One line per depth step
~Well Information Block
#MNEM.UNIT       Data Type                        Information
#---------       ---------                        -------------------------------
STRT  .F         2077.00000                       :START DEPTH
STOP  .F         4158.00000                       :STOP DEPTH
STEP  .F          0.50000                         :INCREMENT
NULL  .          -999.25                          :NULL DATA VALUE
COMP  .          ConocoPhillips Alaska Inc.       :COMPANY
WELL  .          Tinmiaq-2                        :WELL
FLD   .          Exploration                      :FIELD
LOC   .                                           :LOCATION
PROV  .          Alaska                           :PROVINCE
STAT  .          Alaska                           :STATE
CNTY  .          North Slope                      :COUNTY
CTRY  .          U.S.A.                           :COUNTRY
DATE  .                                           :DATE
UWI   .                                           :UNIQUE WELL UWI
LIC   .                                           :LICENSE NUMBER
API   .          50-103-20730-00-00               :API NUMBER
SRVC  .          SLB                              :SERVICE COMPANY
~Parameter Information Block
#MNEM.UNIT       Value                            Description
#---------       ---------                        -------------
PDAT  .          MSL                              :Permanent Datum               
EPD   .ft        0.00                             :Elevation of Permanent Datum (PDAT) above Mean Sea Level
LMF   .          DF                               :Logging Measured From (Name of Working Datum)
APD   .ft        89.47                            :Elevation of Working Datum (LMF) Above Permanent Datum
EKB   .ft        0.00                             :Elevation of Kelly Bushing Above Mean Sea Level
EGL   .ft        62.00                            :Elevation of Ground Level Above Mean Sea Level
EDF   .ft        89.47                            :Elevation of Derrick Floor Above Mean Sea Level
~Curve Information Block
#MNEM.UNIT       API Code            Curve    Description
#--------        --------------      -----    -------------------
DEPT  .F                             :0       Index
BS    .IN                            :1       Bit Size                      
DTCO  .US/F                          :2       Delta-T Compressional         
DTRS  .US/F                          :3       Delta-T Shear, Receiver Array - Monopole P&S
DT_XD_R.US/F                          :4       Delta-T Shear, Receiver Array - X Dipole
DT_YD_R.US/F                          :5       Delta-T Shear, Receiver Array - Y Dipole
GR_EDTC.GAPI                          :6       Gamma Ray                     
HCAL  .IN                            :7       HRCC Caliper Calibrated       
HD1_PPC1.IN                            :8       PPC1 Hole Diameter 1          
HD2_PPC1.IN                            :9       PPC1 Hole Diameter 2          
PR    .                              :10      Poisson's Ratio               
TICO  .US                            :11      Compressional Integrated Transit Time Channel
TISH  .US                            :12      Shear Integrated Transit Time Channel
TISH  .US                            :13      Shear Integrated Transit Time Channel
TISH  .US                            :14      Shear Integrated Transit Time Channel
VPVS  .                              :15      Compressional to Shear Velocity Ratio
~Ascii Data Section
# ...
   2761.00000       8.50000     116.70903    -999.25000     279.33664     274.29190     102.21662       8.93500    -999.25000    -999.25000       0.39456    1593.82422   -1059.25000    3332.43848    3088.02148       2.39645 
   2761.50000       8.50000     116.66051    -999.25000     277.18137     272.63782     100.80439       8.96432    -999.25000    -999.25000       0.39271    1596.18286   -1059.25000    3339.87842    3098.44604       2.37924 
   2762.00000       8.50000     116.80177    -999.25000     276.86221     273.71381      97.42861       8.96286    -999.25000    -999.25000       0.39187    1598.18335   -1059.25000    3348.03345    3112.01001       2.37156 
   2762.50000       8.50000     116.79472    -999.25000     278.36462     277.03186      96.68063       8.67550    -999.25000    -999.25000       0.39292    1599.90332   -1059.25000    3358.54858    3128.14038       2.38108 
   2763.00000       8.50000     115.33931    -999.25000     276.16116     277.75574      95.82301       8.61863    -999.25000    -999.25000       0.39422    1602.06067   -1059.25000    3376.65479    3151.98364       2.39310 
   2763.50000       8.50000     113.92548    -999.25000     270.35220     271.28119     102.38793       8.43597    -999.25000    -999.25000       0.39231    1602.19678   -1059.25000    3388.52832    3170.57227       2.37560 
   2764.00000       8.50000     113.75721    -999.25000     268.96692     267.69153     104.79483       8.52150    -999.25000    -999.25000       0.39116    1599.27515   -1059.25000    3391.11182    3180.65454       2.36517 
   2764.50000       8.50000     114.47388    -999.25000     275.88773     273.21857     104.43737       8.66570    -999.25000    -999.25000       0.39527    1595.52588   -1059.25000    3381.91577    3180.47241       2.40373 
   2765.00000       8.50000     115.71925    -999.25000     284.74356     281.10587     103.75031       8.71391    -999.25000    -999.25000       0.40050    1593.59326   -1059.25000    3364.86743    3173.38916       2.45495 
   2765.50000       8.50000     117.26379    -999.25000     290.48767     282.93420     102.02068       8.67550    -999.25000    -999.25000       0.40252    1593.74658   -1059.25000    3351.22754    3162.06519       2.47571 
   2766.00000       8.50000     118.96654    -999.25000     291.04868     282.26303     103.84100       8.71458    -999.25000    -999.25000       0.40005    1594.05688   -1059.25000    3343.92798    3149.05664       2.45011 
   2766.50000       8.50000     119.03970    -999.25000     290.08429     279.19681     105.78107       8.76340    -999.25000    -999.25000       0.39886    1590.94006   -1059.25000    3340.09570    3134.50757       2.43803 
   2767.00000       8.50000     117.50580    -999.25000     283.88513     274.66272     109.72447       8.76710    -999.25000    -999.25000       0.39687    1584.29602   -1059.25000    3333.92285    3114.56616       2.41853 
   2767.50000       8.50000     114.29301    -999.25000     270.99490     266.74887     107.01048       8.84407    -999.25000    -999.25000       0.39236    1576.07849   -1059.25000    3314.09082    3088.60864       2.37641 
   2768.00000       8.50000     109.54518    -999.25000     256.03058     253.14037      98.54904       9.48848    -999.25000    -999.25000       0.38835    1569.19653   -1059.25000    3279.81201    3057.12573       2.34075 
   2768.50000       8.50000     105.69775    -999.25000     245.28014     238.25136      92.71872       9.45260    -999.25000    -999.25000       0.38619    1564.27344   -1059.25000    3244.81763    3021.31030       2.32238 
   2769.00000       8.50000     105.44773    -999.25000     243.32422     233.29822      90.64603       9.26200    -999.25000    -999.25000       0.38461    1561.81775   -1059.25000    3221.19336    2991.29492       2.30937 
   2769.50000       8.50000     108.59509    -999.25000     245.16280     237.40015      93.17719       9.45260    -999.25000    -999.25000       0.37886    1559.03003   -1059.25000    3202.23340    2966.62817       2.26461 
   2770.00000       8.50000     112.25339    -999.25000     248.07701     245.91185      96.73518       9.64320    -999.25000    -999.25000       0.37221    1555.85779   -1059.25000    3184.62183    2949.36572       2.21667 
   2770.50000       8.50000     113.40359    -999.25000     247.12321     253.57387      96.45722       9.59190    -999.25000    -999.25000       0.36727    1551.87207   -1059.25000    3167.40723    2938.70435       2.18348 
   2771.00000       8.50000     110.75122    -999.25000     240.61287     256.21567      95.77551       9.91450    -999.25000    -999.25000       0.36574    1547.46875   -1059.25000    3152.24072    2928.31128       2.17348 
   2771.50000       8.50000     105.46448    -999.25000     229.50885     244.62146      85.89323       8.36020    -999.25000    -999.25000       0.36608    1542.25720   -1059.25000    3135.55005    2913.28027       2.17566 
   2772.00000       8.50000     101.34283    -999.25000     218.73189     228.28784      84.78492       8.27220    -999.25000    -999.25000       0.36373    1536.34070   -1059.25000    3112.74243    2890.70898       2.16084 
   2772.50000       8.50000     101.47507    -999.25000     216.27681     216.22205      83.01040       8.37850    -999.25000    -999.25000       0.35949    1530.08533   -1059.25000    3084.18433    2863.86060       2.13513 
   2773.00000       8.50000     104.12308    -999.25000     223.67853     219.29028      83.94735       9.13945    -999.25000    -999.25000       0.36131    1524.88403   -1059.25000    3057.22021    2835.45190       2.14599 
   2773.50000       8.50000     107.88885    -999.25000     234.49010     228.72313      85.12483       9.41497    -999.25000    -999.25000       0.36512    1520.19800   -1059.25000    3032.43164    2804.77612       2.16972 
   2774.00000       8.50000     109.97079    -999.25000     242.11725     238.68661      88.14813       8.86408    -999.25000    -999.25000       0.36938    1515.13013   -1059.25000    3010.42944    2773.62769       2.19746 
   2774.50000       8.50000     110.91393    -999.25000     244.95758     243.37402      94.10188       9.12942    -999.25000    -999.25000       0.37088    1510.20215   -1059.25000    2993.44653    2747.73560       2.20738 
   2775.00000       8.50000     110.85487    -999.25000     244.32053     241.57512      95.29272       9.07703    -999.25000    -999.25000       0.37047    1506.75842   -1059.25000    2981.16675    2731.54395       2.20458 
   2775.50000       8.50000     109.75918    -999.25000     241.66742     235.89960      92.41235       8.80906    -999.25000    -999.25000       0.37011    1504.95630   -1059.25000    2972.54712    2724.67627       2.20214 
   2776.00000       8.50000     108.01614    -999.25000     238.70555     229.91487      91.00578       8.80838    -999.25000    -999.25000       0.37109    1504.54651   -1059.25000    2971.38354    2725.64917       2.20881 
   2776.50000       8.50000     105.51261    -999.25000     234.96170     226.33456      93.75137       8.73417    -999.25000    -999.25000       0.37335    1504.71619   -1059.25000    2982.54639    2733.37280       2.22452 
   2777.00000       8.50000     103.21306    -999.25000     231.06796     226.07123      94.43806       8.62194    -999.25000    -999.25000       0.37512    1506.28369   -1059.25000    3003.83130    2746.72510       2.23700 
   2777.50000       8.50000     102.13869    -999.25000     227.90538     227.72992      93.00732       8.53364    -999.25000    -999.25000       0.37446    1509.29175   -1059.25000    3025.36084    2763.24414       2.23232 
   2778.00000       8.50000     102.71494    -999.25000     229.08554     231.67393      90.44147       8.41566    -999.25000    -999.25000       0.37421    1512.58215   -1059.25000    3040.18018    2779.06689       2.23052 
   2778.50000       8.50000     104.35437    -999.25000     234.83264     237.69193      90.76009       8.37707    -999.25000    -999.25000       0.37653    1514.83240   -1059.25000    3048.85254    2792.73877       2.24732 
