~Version Information
VERS  .          2.0                              :CWLS Log Ascii Standard - Version 2.0
WRAP  .          NO                               :One line per depth step
~Well Information Block
#MNEM.UNIT       Data Type                        Information
#---------       ---------                        -------------------------------
STRT  .F         2077.00000                       :START DEPTH
STOP  .F         4158.00000                       :STOP DEPTH
STEP  .F          0.50000                         :INCREMENT
NULL  .          -999.25                          :NULL DATA VALUE
COMP  .          ConocoPhillips Alaska Inc.       :COMPANY
WELL  .          Tinmiaq-2                        :WELL
FLD   .          Exploration                      :FIELD
LOC   .                                           :LOCATION
PROV  .          Alaska                           :PROVINCE
STAT  .          Alaska                           :STATE
CNTY  .          North Slope                      :COUNTY
CTRY  .          U.S.A.                           :COUNTRY
DATE  .                                           :DATE
UWI   .                                           :UNIQUE WELL UWI
LIC   .                                           :LICENSE NUMBER
API   .          50-103-20730-00-00               :API NUMBER
SRVC  .          SLB                              :SERVICE COMPANY
~Parameter Information Block
#MNEM.UNIT       Value                            Description
#---------       ---------                        -------------
PDAT  .          MSL                              :Permanent Datum               
EPD   .ft        0.00                             :Elevation of Permanent Datum (PDAT) above Mean Sea Level
LMF   .          DF                               :Logging Measured From (Name of Working Datum)
APD   .ft        89.47                            :Elevation of Working Datum (LMF) Above Permanent Datum
EKB   .ft        0.00                             :Elevation of Kelly Bushing Above Mean Sea Level
EGL   .ft        62.00                            :Elevation of Ground Level Above Mean Sea Level
EDF   .ft        89.47                            :Elevation of Derrick Floor Above Mean Sea Level
~Curve Information Block
#MNEM.UNIT       API Code            Curve    Description
#--------        --------------      -----    -------------------
DEPT  .F                             :0       Index
BS    .IN                            :1       Bit Size                      
DTCO  .US/F                          :2       Delta-T Compressional         
DTRS  .US/F                          :3       Delta-T Shear, Receiver Array - Monopole P&S
DT_XD_R.US/F                          :4       Delta-T Shear, Receiver Array - X Dipole
DT_YD_R.US/F                          :5       Delta-T Shear, Receiver Array - Y Dipole
GR_EDTC.GAPI                          :6       Gamma Ray                     
HCAL  .IN                            :7       HRCC Caliper Calibrated       
HD1_PPC1.IN                            :8       PPC1 Hole Diameter 1          
HD2_PPC1.IN                            :9       PPC1 Hole Diameter 2          
PR    .                              :10      Poisson's Ratio               
TICO  .US                            :11      Compressional Integrated Transit Time Channel
TISH  .US                            :12      Shear Integrated Transit Time Channel
TISH  .US                            :13      Shear Integrated Transit Time Channel
TISH  .US                            :14      Shear Integrated Transit Time Channel
VPVS  .                              :15      Compressional to Shear Velocity Ratio
~Ascii Data Section
   2077.00000       8.50000      98.77942    -999.25000     248.98029     252.10515      66.48476    -999.25000    -999.25000    -999.25000    -999.25000    1531.67371   -1059.25000    3032.10522    2792.57886    -999.25000 
   2077.50000       8.50000      99.52905    -999.25000     252.73271     259.67780      70.96903    -999.25000    -999.25000    -999.25000       0.40799    1529.98608   -1059.25000    3039.19409    2804.78711       2.53665 
   2078.00000       8.50000     103.01053    -999.25000     263.45819     266.54294      69.59234    -999.25000    -999.25000    -999.25000       0.40955    1526.66150   -1059.25000    3045.19287    2819.77539       2.55501 
   2078.50000       8.50000     108.23141    -999.25000     275.01221     271.61914      67.96627    -999.25000    -999.25000    -999.25000       0.40856    1522.38086   -1059.25000    3051.97583    2836.15332       2.54330 
   2079.00000       8.50000     110.35852    -999.25000     281.67252     271.32535      67.78069    -999.25000    -999.25000    -999.25000       0.40919    1519.86975   -1059.25000    3059.03003    2847.75659       2.55074 
   2079.50000       8.50000     111.78950    -999.25000     281.97778     270.97583      70.63201    -999.25000    -999.25000    -999.25000       0.40712    1519.91858   -1059.25000    3065.59985    2854.47314       2.52661 
   2080.00000       8.50000     112.18986    -999.25000     277.45151     268.67789      74.49109    -999.25000    -999.25000    -999.25000       0.40290    1521.49500   -1059.25000    3074.94995    2863.66260       2.47999 
   2080.50000       8.50000     112.62237    -999.25000     270.57364     267.28625      73.56904    -999.25000    -999.25000    -999.25000       0.39621    1523.75659   -1059.25000    3090.00146    2878.67700       2.41241 
   2081.00000       8.50000     113.15726    -999.25000     266.49112     262.44888      71.05701    -999.25000    -999.25000    -999.25000       0.39075    1528.09241   -1059.25000    3114.39624    2903.55444       2.36172 
   2081.50000       8.50000     113.81168    -999.25000     265.85092     256.41235      65.74983    -999.25000    -999.25000    -999.25000       0.38811    1538.06702   -1059.25000    3151.48975    2937.37378       2.33858 
   2082.00000       8.50000     114.19378    -999.25000     267.16431     251.35689      65.98940    -999.25000    -999.25000    -999.25000       0.38817    1552.59412   -1059.25000    3192.85742    2974.87646       2.33905 
   2082.50000       8.50000     113.36141    -999.25000     262.28552     249.73357      66.23795    -999.25000    -999.25000    -999.25000       0.38558    1565.89795   -1059.25000    3232.18018    3010.01123       2.31735 
   2083.00000       8.50000     111.65357    -999.25000     257.02509     250.96243      70.05890    -999.25000    -999.25000    -999.25000       0.38400    1571.74890   -1059.25000    3255.63062    3033.93799       2.30449 
   2083.50000       8.50000     109.97459    -999.25000     253.03378     252.83060      71.65811    -999.25000    -999.25000    -999.25000       0.38364    1574.57861   -1059.25000    3274.60742    3055.08398       2.30157 
   2084.00000       8.50000     109.11386    -999.25000     251.67136     255.74919      73.77459    -999.25000    -999.25000    -999.25000       0.38413    1575.37854   -1059.25000    3289.76221    3072.95215       2.30549 
   2084.50000       8.50000     109.85956    -999.25000     254.29376     260.12778      79.14658    -999.25000    -999.25000    -999.25000       0.38508    1575.14270   -1059.25000    3301.75293    3087.05029       2.31317 
   2085.00000       8.50000     112.58432    -999.25000     259.25626     266.16205      83.57769    -999.25000    -999.25000    -999.25000       0.38396    1576.14832   -1059.25000    3307.92773    3097.89624       2.30415 
   2085.50000       8.50000     115.65355    -999.25000     263.70880     272.37341      87.61382    -999.25000    -999.25000    -999.25000       0.38141    1577.93579   -1059.25000    3312.15430    3105.39746       2.28421 
   2086.00000       8.50000     118.36110    -999.25000     267.72845     277.62128      90.71820    -999.25000    -999.25000    -999.25000       0.37904    1580.80981   -1059.25000    3314.47314    3109.48560       2.26587 
   2086.50000       8.50000     120.00134    -999.25000     271.39304     280.76639      92.35541    -999.25000    -999.25000    -999.25000       0.37850    1585.07361   -1059.25000    3314.92676    3110.09668       2.26165 
   2087.00000       8.50000     121.96769    -999.25000     277.20303     279.51907      91.27325    -999.25000    -999.25000    -999.25000       0.37976    1591.84961   -1059.25000    3309.60962    3105.36987       2.27119 
   2087.50000       8.50000     124.08478    -999.25000     284.41318     277.41388      92.20536    -999.25000    -999.25000    -999.25000       0.38210    1596.29102   -1059.25000    3299.43286    3094.65771       2.28937 
   2088.00000       8.50000     125.59861    -999.25000     290.69440     274.51920      93.83195    -999.25000    -999.25000    -999.25000       0.38485    1597.40564   -1059.25000    3285.47949    3079.14600       2.31132 
   2088.50000       8.50000     124.16913    -999.25000     291.77411     272.84616      97.28921    -999.25000    -999.25000    -999.25000       0.38883    1595.52222   -1059.25000    3271.01880    3061.35376       2.34484 
   2089.00000       8.50000     120.33722    -999.25000     282.99304     268.84842     100.26586    -999.25000    -999.25000    -999.25000       0.38960    1592.09766   -1059.25000    3255.82300    3045.29956       2.35141 
   2089.50000       8.50000     116.45563    -999.25000     271.07315     264.20200      98.26717    -999.25000    -999.25000    -999.25000       0.38722    1588.92273   -1059.25000    3239.22290    3031.65479       2.33107 
   2090.00000       8.50000     114.29067    -999.25000     261.51352     259.56470      98.81478    -999.25000    -999.25000    -999.25000       0.38264    1586.35217   -1059.25000    3222.90088    3017.45605       2.29371 
   2090.50000       8.50000     113.54179    -999.25000     259.75891     256.51282      99.04297    -999.25000    -999.25000    -999.25000       0.38191    1584.69666   -1059.25000    3210.74878    3000.16089       2.28783 
   2091.00000       8.50000     112.82675    -999.25000     259.06747     254.62152     102.71996    -999.25000    -999.25000    -999.25000       0.38282    1584.65930   -1059.25000    3206.23242    2982.41016       2.29498 
   2091.50000       8.50000     111.85087    -999.25000     255.91457     251.60423      98.67517    -999.25000    -999.25000    -999.25000       0.38208    1584.12915   -1059.25000    3207.74463    2972.54907       2.28914 
   2092.00000       8.50000     110.82590    -999.25000     249.54619     247.58514     101.05164    -999.25000    -999.25000    -999.25000       0.37783    1579.73853   -1059.25000    3209.57495    2974.23120       2.25680 
   2092.50000       8.50000     109.93781    -999.25000     244.13629     243.53223      97.20730    -999.25000    -999.25000    -999.25000       0.37343    1569.45117   -1059.25000    3207.60059    2977.94409       2.22504 
   2093.00000       8.50000     108.81881    -999.25000     240.48451     240.60437      94.72015    -999.25000    -999.25000    -999.25000       0.37148    1554.83740   -1059.25000    3196.54395    2976.25391       2.21146 
   2093.50000       8.50000     107.17459    -999.25000     237.84041     237.37553      91.10104    -999.25000    -999.25000    -999.25000       0.37242    1538.26294   -1059.25000    3168.68994    2964.79810       2.21789 
   2094.00000       8.50000     105.61629    -999.25000     234.39873     234.65967      96.16858    -999.25000    -999.25000    -999.25000       0.37262    1523.63477   -1059.25000    3124.54468    2939.56836       2.21932 
   2094.50000       8.50000     105.42846    -999.25000     232.80835     234.91090     101.46661    -999.25000    -999.25000    -999.25000       0.37124    1512.70691   -1059.25000    3070.27051    2900.39819       2.20978 
