~Version Information
VERS  .          2.0                              :CWLS Log Ascii Standard - Version 2.0
WRAP  .          NO                               :One line per depth step
~Well Information Block
#MNEM.UNIT       Data Type                        Information
#---------       ---------                        -------------------------------
STRT  .F         2077.00000                       :START DEPTH
STOP  .F         4158.00000                       :STOP DEPTH
STEP  .F          0.50000                         :INCREMENT
NULL  .          -999.25                          :NULL DATA VALUE
COMP  .          ConocoPhillips Alaska Inc.       :COMPANY
WELL  .          Tinmiaq-2                        :WELL
FLD   .          Exploration                      :FIELD
LOC   .                                           :LOCATION
PROV  .          Alaska                           :PROVINCE
STAT  .          Alaska                           :STATE
CNTY  .          North Slope                      :COUNTY
CTRY  .          U.S.A.                           :COUNTRY
DATE  .                                           :DATE
UWI   .                                           :UNIQUE WELL UWI
LIC   .                                           :LICENSE NUMBER
API   .          50-103-20730-00-00               :API NUMBER
SRVC  .          SLB                              :SERVICE COMPANY
~Parameter Information Block
#MNEM.UNIT       Value                            Description
#---------       ---------                        -------------
PDAT  .          MSL                              :Permanent Datum               
EPD   .ft        0.00                             :Elevation of Permanent Datum (PDAT) above Mean Sea Level
LMF   .          DF                               :Logging Measured From (Name of Working Datum)
APD   .ft        89.47                            :Elevation of Working Datum (LMF) Above Permanent Datum
EKB   .ft        0.00                             :Elevation of Kelly Bushing Above Mean Sea Level
EGL   .ft        62.00                            :Elevation of Ground Level Above Mean Sea Level
EDF   .ft        89.47                            :Elevation of Derrick Floor Above Mean Sea Level
~Curve Information Block
#MNEM.UNIT       API Code            Curve    Description
#--------        --------------      -----    -------------------
DEPT  .F                             :0       Index
BS    .IN                            :1       Bit Size                      
DTCO  .US/F                          :2       Delta-T Compressional         
DTRS  .US/F                          :3       Delta-T Shear, Receiver Array - Monopole P&S
DT_XD_R.US/F                          :4       Delta-T Shear, Receiver Array - X Dipole
DT_YD_R.US/F                          :5       Delta-T Shear, Receiver Array - Y Dipole
GR_EDTC.GAPI                          :6       Gamma Ray                     
HCAL  .IN                            :7       HRCC Caliper Calibrated       
HD1_PPC1.IN                            :8       PPC1 Hole Diameter 1          
HD2_PPC1.IN                            :9       PPC1 Hole Diameter 2          
PR    .                              :10      Poisson's Ratio               
TICO  .US                            :11      Compressional Integrated Transit Time Channel
TISH  .US                            :12      Shear Integrated Transit Time Channel
TISH  .US                            :13      Shear Integrated Transit Time Channel
TISH  .US                            :14      Shear Integrated Transit Time Channel
VPVS  .                              :15      Compressional to Shear Velocity Ratio
~Ascii Data Section
# ...
   2221.00000       8.50000     118.80684    -999.25000     297.13196     297.86530     105.63999       9.70605    -999.25000    -999.25000       0.40460    1647.35327   -1059.25000    3598.07495    3299.74658       2.49825 
   2221.50000       8.50000     118.00866    -999.25000     296.43283     296.88879     100.61417       9.78773    -999.25000    -999.25000       0.40580    1646.28943   -1059.25000    3600.57495    3309.20630       2.51156 
   2222.00000       8.50000     119.63406    -999.25000     299.01694     299.62506      94.11379       9.51120    -999.25000    -999.25000       0.40482    1649.87512   -1059.25000    3612.40015    3324.08447       2.50065 
   2222.50000       8.50000     120.85713    -999.25000     300.64688     302.85196      98.23090       9.56316    -999.25000    -999.25000       0.40379    1654.01685   -1059.25000    3622.50244    3333.14575       2.48936 
   2223.00000       8.50000     120.66844    -999.25000     299.43759     302.65054     103.55322       9.75198    -999.25000    -999.25000       0.40315    1658.22986   -1059.25000    3631.50562    3340.90405       2.48245 
   2223.50000       8.50000     119.80294    -999.25000     294.72202     297.98822     107.25205       9.75686    -999.25000    -999.25000       0.40131    1661.92261   -1059.25000    3640.32861    3347.60303       2.46309 
   2224.00000       8.50000     118.88225    -999.25000     288.69113     291.28445     110.85250      10.12949    -999.25000    -999.25000       0.39834    1665.06848   -1059.25000    3648.14233    3352.62061       2.43298 
   2224.50000       8.50000     118.28465    -999.25000     284.66086     287.07123     112.40591      10.45153    -999.25000    -999.25000       0.39598    1667.01990   -1059.25000    3653.53247    3354.18677       2.40990 
   2225.00000       8.50000     118.21043    -999.25000     283.80142     286.28589     113.75665      10.51200    -999.25000    -999.25000       0.39514    1667.54041   -1059.25000    3656.18433    3353.96387       2.40177 
   2225.50000       8.50000     118.46278    -999.25000     284.79495     286.74448     113.52744       9.92969    -999.25000    -999.25000       0.39534    1666.48682   -1059.25000    3655.34131    3354.04150       2.40363 
   2226.00000       8.50000     118.84107    -999.25000     286.26855     286.92914     113.68115       9.45014    -999.25000    -999.25000       0.39581    1664.01282   -1059.25000    3651.51074    3353.88428       2.40812 
   2226.50000       8.50000     119.27315    -999.25000     286.65442     286.22491     114.47054       9.74220    -999.25000    -999.25000       0.39539    1661.05261   -1059.25000    3644.59399    3351.41504       2.40409 
   2227.00000       8.50000     119.73091    -999.25000     286.56091     285.62228     113.57718       9.94137    -999.25000    -999.25000       0.39441    1658.99878   -1059.25000    3631.77930    3343.62329       2.39490 
   2227.50000       8.50000     120.16408    -999.25000     286.86969     286.35089     111.45808       9.77760    -999.25000    -999.25000       0.39370    1658.99011   -1059.25000    3611.71582    3327.71533       2.38822 
   2228.00000       8.50000     120.47674    -999.25000     287.44824     287.90921     109.68938       9.85580    -999.25000    -999.25000       0.39348    1661.16064   -1059.25000    3588.59375    3304.12671       2.38618 
   2228.50000       8.50000     120.57665    -999.25000     289.19974     289.77557     109.29105       9.55901    -999.25000    -999.25000       0.39459    1665.25439   -1059.25000    3568.72681    3278.04907       2.39663 
   2229.00000       8.50000     120.46280    -999.25000     291.35458     292.03799     111.70081       8.90029    -999.25000    -999.25000       0.39658    1671.87146   -1059.25000    3556.32983    3256.39722       2.41563 
   2229.50000       8.50000     120.15957    -999.25000     292.69867     292.77603     110.83758       8.81467    -999.25000    -999.25000       0.39839    1680.34338   -1059.25000    3554.43408    3242.93530       2.43334 
   2230.00000       8.50000     119.52456    -999.25000     291.98590     291.78168     112.80468       9.10797    -999.25000    -999.25000       0.39924    1689.06641   -1059.25000    3561.42505    3238.75562       2.44182 
   2230.50000       8.50000     118.50292    -999.25000     287.32990     287.02139     112.10420       9.44026    -999.25000    -999.25000       0.39778    1695.29431   -1059.25000    3570.33252    3241.81885       2.42733 
   2231.00000       8.50000     117.03390    -999.25000     277.70560     278.23026     112.33951      10.10510    -999.25000    -999.25000       0.39284    1696.77197   -1059.25000    3574.85693    3247.48096       2.38057 
   2231.50000       8.50000     114.64131    -999.25000     259.99866     261.89810     117.10594       9.89611    -999.25000    -999.25000       0.38070    1691.22998   -1059.25000    3565.83228    3253.65576       2.28050 
   2232.00000       8.50000     114.40487    -999.25000     247.10182     250.89531     124.10355       9.59187    -999.25000    -999.25000       0.36533    1684.04468   -1059.25000    3543.51147    3252.45361       2.17290 
   2232.50000       8.50000     117.93506    -999.25000     250.07404     253.98511     135.79559       9.35725    -999.25000    -999.25000       0.35763    1678.62061   -1059.25000    3517.09351    3236.57520       2.12438 
   2233.00000       8.50000     123.88795    -999.25000     268.78427     272.44400     145.62610      10.61823    -999.25000    -999.25000       0.36380    1675.19690   -1059.25000    3491.56763    3211.04858       2.16230 
   2233.50000       8.50000     130.01288    -999.25000     292.14847     295.43634     151.76845      10.45709    -999.25000    -999.25000       0.37502    1673.07874   -1059.25000    3469.70435    3184.90479       2.23730 
   2234.00000       8.50000     135.36168    -999.25000     309.23550     312.31259     147.63821      11.08380    -999.25000    -999.25000       0.38100    1672.53931   -1059.25000    3454.64111    3164.09692       2.28077 
   2234.50000       8.50000     136.58374    -999.25000     310.33551     312.81000     149.67651      11.36784    -999.25000    -999.25000       0.38003    1673.17212   -1059.25000    3448.49902    3153.99756       2.27326 
   2235.00000       8.50000     134.72818    -999.25000     304.33371     305.06738     144.43228       9.89243    -999.25000    -999.25000       0.37840    1674.05188   -1059.25000    3445.93701    3146.40210       2.26101 
   2235.50000       8.50000     129.97174    -999.25000     289.91177     290.19098     133.58012       8.94485    -999.25000    -999.25000       0.37468    1674.80701   -1059.25000    3446.01270    3141.60889       2.23435 
   2236.00000       8.50000     123.20952    -999.25000     271.31778     272.29895     120.35424       8.75607    -999.25000    -999.25000       0.37078    1675.23938   -1059.25000    3447.10840    3139.37085       2.20690 
   2236.50000       8.50000     116.05377    -999.25000     254.13635     256.06717     108.91240       8.74874    -999.25000    -999.25000       0.36854    1675.24316   -1059.25000    3447.79834    3138.73999       2.19172 
   2237.00000       8.50000     110.83902    -999.25000     241.07275     244.28691     103.70700       8.78540    -999.25000    -999.25000       0.36635    1674.72461   -1059.25000    3447.71143    3137.90161       2.17746 
   2237.50000       8.50000     109.14153    -999.25000     241.32698     242.77652     107.21638       8.74875    -999.25000    -999.25000       0.37069    1672.81165   -1059.25000    3445.41797    3135.38086       2.20619 
   2238.00000       8.50000     110.75223    -999.25000     248.60756     248.43250     102.19447       8.65674    -999.25000    -999.25000       0.37553    1668.94250   -1059.25000    3439.24292    3133.54932       2.24010 
   2238.50000       8.50000     112.54877    -999.25000     257.74872     257.98129      99.35490       9.06542    -999.25000    -999.25000       0.38136    1663.82251   -1059.25000    3429.86426    3133.63623       2.28386 
