~Version Information
VERS  .          2.0                              :CWLS Log Ascii Standard - Version 2.0
WRAP  .          NO                               :One line per depth step
~Well Information Block
#MNEM.UNIT       Data Type                        Information
#---------       ---------                        -------------------------------
STRT  .F         2077.00000                       :START DEPTH
STOP  .F         4158.00000                       :STOP DEPTH
STEP  .F          0.50000                         :INCREMENT
NULL  .          -999.25                          :NULL DATA VALUE
COMP  .          ConocoPhillips Alaska Inc.       :COMPANY
WELL  .          Tinmiaq-2                        :WELL
FLD   .          Exploration                      :FIELD
LOC   .                                           :LOCATION
PROV  .          Alaska                           :PROVINCE
STAT  .          Alaska                           :STATE
CNTY  .          North Slope                      :COUNTY
CTRY  .          U.S.A.                           :COUNTRY
DATE  .                                           :DATE
UWI   .                                           :UNIQUE WELL UWI
LIC   .                                           :LICENSE NUMBER
API   .          50-103-20730-00-00               :API NUMBER
SRVC  .          SLB                              :SERVICE COMPANY
~Parameter Information Block
#MNEM.UNIT       Value                            Description
#---------       ---------                        -------------
PDAT  .          MSL                              :Permanent Datum               
EPD   .ft        0.00                             :Elevation of Permanent Datum (PDAT) above Mean Sea Level
LMF   .          DF                               :Logging Measured From (Name of Working Datum)
APD   .ft        89.47                            :Elevation of Working Datum (LMF) Above Permanent Datum
EKB   .ft        0.00                             :Elevation of Kelly Bushing Above Mean Sea Level
EGL   .ft        62.00                            :Elevation of Ground Level Above Mean Sea Level
EDF   .ft        89.47                            :Elevation of Derrick Floor Above Mean Sea Level
~Curve Information Block
#MNEM.UNIT       API Code            Curve    Description
#--------        --------------      -----    -------------------
DEPT  .F                             :0       Index
BS    .IN                            :1       Bit Size                      
DTCO  .US/F                          :2       Delta-T Compressional         
DTRS  .US/F                          :3       Delta-T Shear, Receiver Array - Monopole P&S
DT_XD_R.US/F                          :4       Delta-T Shear, Receiver Array - X Dipole
DT_YD_R.US/F                          :5       Delta-T Shear, Receiver Array - Y Dipole
GR_EDTC.GAPI                          :6       Gamma Ray                     
HCAL  .IN                            :7       HRCC Caliper Calibrated       
HD1_PPC1.IN                            :8       PPC1 Hole Diameter 1          
HD2_PPC1.IN                            :9       PPC1 Hole Diameter 2          
PR    .                              :10      Poisson's Ratio               
TICO  .US                            :11      Compressional Integrated Transit Time Channel
TISH  .US                            :12      Shear Integrated Transit Time Channel
TISH  .US                            :13      Shear Integrated Transit Time Channel
TISH  .US                            :14      Shear Integrated Transit Time Channel
VPVS  .                              :15      Compressional to Shear Velocity Ratio
~Ascii Data Section
# ...
   2491.00000       8.50000     105.04403    -999.25000     217.20862     216.62219      69.12564       8.21360    -999.25000    -999.25000       0.34914    1398.91858   -1059.25000    2565.18311    2355.07056       2.07770 
   2491.50000       8.50000     105.19998    -999.25000     214.58702     216.20958      65.32102       8.23560    -999.25000    -999.25000       0.34259    1399.24500   -1059.25000    2574.42896    2365.97632       2.04374 
   2492.00000       8.50000     102.98397    -999.25000     212.58452     214.52937      62.68248       8.25760    -999.25000    -999.25000       0.34599    1399.96521   -1059.25000    2580.23242    2373.28394       2.06081 
   2492.50000       8.50000     101.74863    -999.25000     212.74248     214.46571      63.19502       8.32350    -999.25000    -999.25000       0.35100    1400.90552   -1059.25000    2585.28418    2377.04199       2.08712 
   2493.00000       8.50000     102.29214    -999.25000     216.23262     217.77028      67.37448       8.21360    -999.25000    -999.25000       0.35526    1401.57117   -1059.25000    2593.44971    2379.01855       2.11064 
   2493.50000       8.50000     104.86146    -999.25000     220.95343     221.94566      67.82902       8.30160    -999.25000    -999.25000       0.35481    1402.63501   -1059.25000    2603.81494    2381.92236       2.10805 
   2494.00000       8.50000     108.11926    -999.25000     223.65056     225.27130      69.97851       8.41150    -999.25000    -999.25000       0.34851    1406.16321   -1059.25000    2613.42725    2387.34106       2.07397 
   2494.50000       8.50000     109.66260    -999.25000     223.48238     225.32104      72.88168       8.25760    -999.25000    -999.25000       0.34228    1410.88086   -1059.25000    2622.27539    2395.32227       2.04222 
   2495.00000       8.50000     108.49276    -999.25000     220.38544     222.17075      72.95405       8.23682    -999.25000    -999.25000       0.34031    1415.73743   -1059.25000    2632.26538    2404.37012       2.03250 
   2495.50000       8.50000     106.01723    -999.25000     214.31673     217.72888      71.17671       8.34307    -999.25000    -999.25000       0.33830    1420.76099   -1059.25000    2644.25415    2414.80737       2.02294 
   2496.00000       8.50000     103.94128    -999.25000     207.53281     212.99815      68.21435       8.16405    -999.25000    -999.25000       0.33332    1425.30676   -1059.25000    2660.04150    2428.37085       2.00014 
   2496.50000       8.50000     102.61423    -999.25000     202.17560     209.99123      67.44604       8.12560    -999.25000    -999.25000       0.32736    1429.20227   -1059.25000    2679.83154    2446.02832       1.97412 
   2497.00000       8.50000     102.02401    -999.25000     200.98958     209.80919      67.57928       8.28444    -999.25000    -999.25000       0.32650    1433.58032   -1059.25000    2699.55908    2465.41870       1.97027 
   2497.50000       8.50000     101.83457    -999.25000     203.58397     211.80672      67.70425       8.27957    -999.25000    -999.25000       0.33212    1439.55554   -1059.25000    2716.22656    2479.93237       1.99501 
   2498.00000       8.50000     101.81854    -999.25000     208.32408     214.35776      68.82296       8.23988    -999.25000    -999.25000       0.34147    1446.39624   -1059.25000    2726.80054    2486.19653       2.03913 
   2498.50000       8.50000     102.10331    -999.25000     212.72003     215.75204      69.82616       8.24782    -999.25000    -999.25000       0.34915    1452.41870   -1059.25000    2729.19360    2485.41016       2.07767 
   2499.00000       8.50000     102.92406    -999.25000     216.24084     217.12695      71.20291       8.31255    -999.25000    -999.25000       0.35304    1456.56299   -1059.25000    2724.81299    2480.02417       2.09825 
   2499.50000       8.50000     104.40670    -999.25000     219.40804     219.65408      74.97383       8.36750    -999.25000    -999.25000       0.35361    1458.31653   -1059.25000    2719.01465    2472.99341       2.10136 
   2500.00000       8.50000     106.55943    -999.25000     223.53642     224.04886      79.74561       8.37605    -999.25000    -999.25000       0.35307    1458.50305   -1059.25000    2717.35034    2467.21973       2.09835 
   2500.50000       8.50000     109.00517    -999.25000     228.65202     229.80342      82.93743       8.37850    -999.25000    -999.25000       0.35294    1459.16724   -1059.25000    2720.56152    2464.45239       2.09764 
   2501.00000       8.50000     110.82130    -999.25000     231.30997     233.43446      84.25938       8.34734    -999.25000    -999.25000       0.35131    1461.40833   -1059.25000    2725.10034    2464.72900       2.08878 
   2501.50000       8.50000     111.03071    -999.25000     229.60890     232.93613      82.29570       8.30397    -999.25000    -999.25000       0.34792    1465.24988   -1059.25000    2728.79468    2465.81396       2.07080 
   2502.00000       8.50000     109.04398    -999.25000     223.26974     226.78448      77.95073       8.23560    -999.25000    -999.25000       0.34394    1470.35840   -1059.25000    2732.03735    2466.04370       2.05046 
   2502.50000       8.50000     105.61958    -999.25000     214.06862     217.31862      70.05884       8.24537    -999.25000    -999.25000       0.33975    1474.94177   -1059.25000    2736.01831    2466.59717       2.02986 
   2503.00000       8.50000     101.99534    -999.25000     206.34221     208.68018      63.92098       8.31498    -999.25000    -999.25000       0.33845    1476.94592   -1059.25000    2741.36987    2469.82324       2.02362 
   2503.50000       8.50000      98.97681    -999.25000     200.49318     202.91017      58.49416       8.16960    -999.25000    -999.25000       0.33880    1476.74133   -1059.25000    2748.66333    2478.14453       2.02527 
   2504.00000       8.50000      98.87931    -999.25000     200.94051     206.40672      62.70501       8.16960    -999.25000    -999.25000       0.34005    1475.83130   -1059.25000    2758.19238    2491.66016       2.03126 
   2504.50000       8.50000     100.87370    -999.25000     208.29021     213.62074      64.52940       8.38950    -999.25000    -999.25000       0.34588    1477.35889   -1059.25000    2767.44067    2507.42383       2.06027 
   2505.00000       8.50000     104.36855    -999.25000     216.44200     221.20428      75.36906       8.36750    -999.25000    -999.25000       0.34828    1481.08838   -1059.25000    2776.38965    2522.15942       2.07256 
   2505.50000       8.50000     106.14938    -999.25000     222.73018     223.20717      75.44049       8.32350    -999.25000    -999.25000       0.35242    1485.07483   -1059.25000    2786.33594    2533.74780       2.09483 
   2506.00000       8.50000     107.26283    -999.25000     224.51918     225.63794      80.73699       8.43350    -999.25000    -999.25000       0.35226    1488.89587   -1059.25000    2797.51685    2544.03735       2.09389 
   2506.50000       8.50000     108.48704    -999.25000     227.52580     229.33150      81.47700       8.36750    -999.25000    -999.25000       0.35277    1493.26794   -1059.25000    2809.31641    2553.93433       2.09669 
   2507.00000       8.50000     110.68857    -999.25000     232.20576     235.06189      88.11862       8.36750    -999.25000    -999.25000       0.35297    1498.18787   -1059.25000    2819.16846    2563.44141       2.09775 
   2507.50000       8.50000     112.18114    -999.25000     235.37007     238.65776      84.61327       8.34550    -999.25000    -999.25000       0.35303    1502.25220   -1059.25000    2828.26978    2570.76392       2.09808 
   2508.00000       8.50000     112.19981    -999.25000     235.17430     238.89091      79.43436       8.40050    -999.25000    -999.25000       0.35271    1505.28296   -1059.25000    2837.16187    2575.45068       2.09633 
   2508.50000       8.50000     110.44531    -999.25000     230.97179     235.62282      79.55264       8.36750    -999.25000    -999.25000       0.35191    1507.91382   -1059.25000    2843.76562    2578.00024       2.09195 
