~Version Information
VERS  .          2.0                              :CWLS Log Ascii Standard - Version 2.0
WRAP  .          NO                               :One line per depth step
~Well Information Block
#MNEM.UNIT       Data Type                        Information
#---------       ---------                        -------------------------------
STRT  .F         2077.00000                       :START DEPTH
STOP  .F         4158.00000                       :STOP DEPTH
STEP  .F          0.50000                         :INCREMENT
NULL  .          -999.25                          :NULL DATA VALUE
COMP  .          ConocoPhillips Alaska Inc.       :COMPANY
WELL  .          Tinmiaq-2                        :WELL
FLD   .          Exploration                      :FIELD
LOC   .                                           :LOCATION
PROV  .          Alaska                           :PROVINCE
STAT  .          Alaska                           :STATE
CNTY  .          North Slope                      :COUNTY
CTRY  .          U.S.A.                           :COUNTRY
DATE  .                                           :DATE
UWI   .                                           :UNIQUE WELL UWI
LIC   .                                           :LICENSE NUMBER
API   .          50-103-20730-00-00               :API NUMBER
SRVC  .          SLB                              :SERVICE COMPANY
~Parameter Information Block
#MNEM.UNIT       Value                            Description
#---------       ---------                        -------------
PDAT  .          MSL                              :Permanent Datum               
EPD   .ft        0.00                             :Elevation of Permanent Datum (PDAT) above Mean Sea Level
LMF   .          DF                               :Logging Measured From (Name of Working Datum)
APD   .ft        89.47                            :Elevation of Working Datum (LMF) Above Permanent Datum
EKB   .ft        0.00                             :Elevation of Kelly Bushing Above Mean Sea Level
EGL   .ft        62.00                            :Elevation of Ground Level Above Mean Sea Level
EDF   .ft        89.47                            :Elevation of Derrick Floor Above Mean Sea Level
~Curve Information Block
#MNEM.UNIT       API Code            Curve    Description
#--------        --------------      -----    -------------------
DEPT  .F                             :0       Index
BS    .IN                            :1       Bit Size                      
DTCO  .US/F                          :2       Delta-T Compressional         
DTRS  .US/F                          :3       Delta-T Shear, Receiver Array - Monopole P&S
DT_XD_R.US/F                          :4       Delta-T Shear, Receiver Array - X Dipole
DT_YD_R.US/F                          :5       Delta-T Shear, Receiver Array - Y Dipole
GR_EDTC.GAPI                          :6       Gamma Ray                     
HCAL  .IN                            :7       HRCC Caliper Calibrated       
HD1_PPC1.IN                            :8       PPC1 Hole Diameter 1          
HD2_PPC1.IN                            :9       PPC1 Hole Diameter 2          
PR    .                              :10      Poisson's Ratio               
TICO  .US                            :11      Compressional Integrated Transit Time Channel
TISH  .US                            :12      Shear Integrated Transit Time Channel
TISH  .US                            :13      Shear Integrated Transit Time Channel
TISH  .US                            :14      Shear Integrated Transit Time Channel
VPVS  .                              :15      Compressional to Shear Velocity Ratio
~Ascii Data Section
# ...
   3877.00000       8.50000      94.45595    -999.25000     204.92755     200.82582      96.68353    -999.25000       8.92355       8.61520       0.36480    1464.83582   -2899.25000    4687.31787    4528.26172       2.16757 
   3877.50000       8.50000      95.30492    -999.25000     205.57048     201.38919      94.87029    -999.25000       8.91509       8.63099       0.36324    1464.25684   -2899.25000    4687.05127    4527.31689       2.15791 
   3878.00000       8.50000      96.77515    -999.25000     206.31165     201.53821      94.40608    -999.25000       8.90949       8.60877       0.35932    1463.81250   -2899.25000    4687.08838    4526.29199       2.13422 
   3878.50000       8.50000      98.02754    -999.25000     207.03105     202.20743      97.15933    -999.25000       8.91045       8.57380       0.35587    1462.89929   -2899.25000    4686.37207    4525.37012       2.11411 
   3879.00000       8.50000      98.39532    -999.25000     207.37088     203.34918     100.30845    -999.25000       8.91886       8.61411       0.35490    1461.22534   -2899.25000    4684.38525    4522.78662       2.10853 
   3879.50000       8.50000      97.96251    -999.25000     207.98294     204.78169      99.53625    -999.25000       8.91041       8.60672       0.35723    1460.59399   -2899.25000    4681.25293    4517.72412       2.12191 
   3880.00000       8.50000      97.49944    -999.25000     208.83044     205.84865      97.64092    -999.25000       8.95143       8.58562       0.36028    1459.82593   -2899.25000    4676.31543    4513.40088       2.13984 
   3880.50000       8.50000      97.85941    -999.25000     209.29478     206.17696      93.70286    -999.25000       8.90939       8.59298       0.35997    1457.85779   -2899.25000    4674.47217    4508.30518       2.13794 
   3881.00000       8.50000      98.90953    -999.25000     208.42181     205.26735      95.82995    -999.25000       8.88561       8.59561       0.35500    1457.02234   -2899.25000    4672.13818    4504.47412       2.10927 
   3881.50000       8.50000      99.44084    -999.25000     206.60120     204.03156      94.34968    -999.25000       8.84260       8.44422       0.34972    1455.40369   -2899.25000    4668.09814    4500.49170       2.08028 
   3882.00000       8.50000      99.34879    -999.25000     205.84984     203.73314      93.80291    -999.25000       8.89081       8.53316       0.34835    1453.11682   -2899.25000    4663.47070    4495.16406       2.07295 
   3882.50000       8.50000      98.31135    -999.25000     204.92944     203.57976      88.03738    -999.25000       8.96275       8.54272       0.35026    1451.65979   -2899.25000    4657.85693    4489.52539       2.08304 
   3883.00000       8.50000      97.38782    -999.25000     203.43701     201.95911      85.44928    -999.25000       8.93047       8.55602       0.35129    1449.52905   -2899.25000    4653.02246    4484.57861       2.08861 
   3883.50000       8.50000      96.34476    -999.25000     202.08076     200.77475      87.24601    -999.25000       8.91983       8.49529       0.35273    1448.61084   -2899.25000    4651.81055    4484.01904       2.09645 
   3884.00000       8.50000      95.72091    -999.25000     200.48384     200.12825      93.19613    -999.25000       8.94811       8.62203       0.35253    1448.39844   -2899.25000    4653.42090    4485.13672       2.09533 
   3884.50000       8.50000      95.59133    -999.25000     200.81955     200.76987      94.94761    -999.25000       8.88388       8.56916       0.35338    1449.49805   -2899.25000    4656.40771    4485.53418       2.10003 
   3885.00000       8.50000      95.81173    -999.25000     200.96910     200.56013      97.61443    -999.25000       8.93052       8.50743       0.35296    1450.88647   -2899.25000    4659.62402    4486.69531       2.09772 
   3885.50000       8.50000      96.20053    -999.25000     201.31801     199.51350      96.44297    -999.25000       8.95921       8.56058       0.35217    1452.43909   -2899.25000    4662.57617    4488.55322       2.09339 
   3886.00000       8.50000      96.22935    -999.25000     201.34753     198.04315      94.89709    -999.25000       8.96012       8.61668       0.35206    1455.26709   -2899.25000    4665.10596    4490.72168       2.09278 
   3886.50000       8.50000      95.92432    -999.25000     201.28619     197.15401      91.67123    -999.25000       8.96556       8.64413       0.35306    1456.43433   -2899.25000    4667.96045    4492.61035       2.09828 
   3887.00000       8.50000      95.63734    -999.25000     201.88811     197.63869      87.10004    -999.25000       8.94611       8.63079       0.35515    1456.50073   -2899.25000    4671.58838    4494.33496       2.10997 
   3887.50000       8.50000      95.52959    -999.25000     202.99698     199.15485      88.87187    -999.25000       8.90143       8.50955       0.35750    1458.98352   -2899.25000    4673.88232    4497.10840       2.12340 
   3888.00000       8.50000      95.96988    -999.25000     204.54675     201.18622      94.36871    -999.25000       8.89758       8.44980       0.35867    1458.22864   -2899.25000    4673.17969    4500.02686       2.13019 
   3888.50000       8.50000      97.08024    -999.25000     206.32207     203.41710     100.86488    -999.25000       8.95875       8.62972       0.35791    1457.71948   -2899.25000    4676.87500    4497.80127       2.12580 
   3889.00000       8.50000      98.37865    -999.25000     208.16692     205.41003     100.63183    -999.25000       8.88375       8.42345       0.35633    1459.75977   -2899.25000    4676.18750    4502.07471       2.11664 
   3889.50000       8.50000      99.18729    -999.25000     209.50757     206.85844      95.62554    -999.25000       8.86051       8.50309       0.35575    1458.65112   -2899.25000    4676.79541    4503.64893       2.11335 
   3890.00000       8.50000      98.78251    -999.25000     210.72145     207.65617      92.68244    -999.25000       8.93047       8.59561       0.35889    1459.41956   -2899.25000    4679.22070    4505.88281       2.13151 
   3890.50000       8.50000      97.75061    -999.25000     211.31242     207.49396      92.67566    -999.25000       8.91886       8.41041       0.36349    1457.46973   -2899.25000    4679.34082    4509.86230       2.15937 
   3891.00000       8.50000      97.81765    -999.25000     211.96857     207.93132      95.40371    -999.25000       8.89550       8.54272       0.36461    1457.39905   -2899.25000    4681.22266    4510.87744       2.16631 
   3891.50000       8.50000      98.77808    -999.25000     212.46086     208.26237      96.63629    -999.25000       8.91886       8.42360       0.36229    1457.10693   -2899.25000    4681.64453    4515.36865       2.15193 
   3892.00000       8.50000      99.91581    -999.25000     212.76228     208.49841      99.20533    -999.25000       9.10541       8.51625       0.35892    1457.81104   -2899.25000    4684.74463    4519.46875       2.13171 
   3892.50000       8.50000     100.12267    -999.25000     213.11482     207.94576     101.19007    -999.25000       8.67317       8.37055       0.35831    1458.16101   -2899.25000    4687.85547    4524.31006       2.12811 
   3893.00000       8.50000      99.28533    -999.25000     212.22600     208.12929     103.21510    -999.25000       9.00062       8.59561       0.35979    1459.26672   -2899.25000    4690.29150    4529.19629       2.13683 
   3893.50000       8.50000      98.52634    -999.25000     211.67645     208.21526     101.94562    -999.25000       8.91886       8.62204       0.36142    1460.37549   -2899.25000    4692.40527    4533.29297       2.14665 
   3894.00000       8.50000      98.16402    -999.25000     210.22108     207.86182      99.12185    -999.25000       8.84875       8.80635       0.36077    1461.92834   -2899.25000    4694.37500    4537.33496       2.14271 
   3894.50000       8.50000      98.48397    -999.25000     209.84651     206.11992      94.83280    -999.25000       8.97716       8.55587       0.35894    1462.55115   -2899.25000    4699.21582    4541.04395       2.13178 
