~Version Information
VERS  .          2.0                              :CWLS Log Ascii Standard - Version 2.0
WRAP  .          NO                               :One line per depth step
~Well Information Block
#MNEM.UNIT       Data Type                        Information
#---------       ---------                        -------------------------------
STRT  .F         2077.00000                       :START DEPTH
STOP  .F         4158.00000                       :STOP DEPTH
STEP  .F          0.50000                         :INCREMENT
NULL  .          -999.25                          :NULL DATA VALUE
COMP  .          ConocoPhillips Alaska Inc.       :COMPANY
WELL  .          Tinmiaq-2                        :WELL
FLD   .          Exploration                      :FIELD
LOC   .                                           :LOCATION
PROV  .          Alaska                           :PROVINCE
STAT  .          Alaska                           :STATE
CNTY  .          North Slope                      :COUNTY
CTRY  .          U.S.A.                           :COUNTRY
DATE  .                                           :DATE
UWI   .                                           :UNIQUE WELL UWI
LIC   .                                           :LICENSE NUMBER
API   .          50-103-20730-00-00               :API NUMBER
SRVC  .          SLB                              :SERVICE COMPANY
~Parameter Information Block
#MNEM.UNIT       Value                            Description
#---------       ---------                        -------------
PDAT  .          MSL                              :Permanent Datum               
EPD   .ft        0.00                             :Elevation of Permanent Datum (PDAT) above Mean Sea Level
LMF   .          DF                               :Logging Measured From (Name of Working Datum)
APD   .ft        89.47                            :Elevation of Working Datum (LMF) Above Permanent Datum
EKB   .ft        0.00                             :Elevation of Kelly Bushing Above Mean Sea Level
EGL   .ft        62.00                            :Elevation of Ground Level Above Mean Sea Level
EDF   .ft        89.47                            :Elevation of Derrick Floor Above Mean Sea Level
~Curve Information Block
#MNEM.UNIT       API Code            Curve    Description
#--------        --------------      -----    -------------------
DEPT  .F                             :0       Index
BS    .IN                            :1       Bit Size                      
DTCO  .US/F                          :2       Delta-T Compressional         
DTRS  .US/F                          :3       Delta-T Shear, Receiver Array - Monopole P&S
DT_XD_R.US/F                          :4       Delta-T Shear, Receiver Array - X Dipole
DT_YD_R.US/F                          :5       Delta-T Shear, Receiver Array - Y Dipole
GR_EDTC.GAPI                          :6       Gamma Ray                     
HCAL  .IN                            :7       HRCC Caliper Calibrated       
HD1_PPC1.IN                            :8       PPC1 Hole Diameter 1          
HD2_PPC1.IN                            :9       PPC1 Hole Diameter 2          
PR    .                              :10      Poisson's Ratio               
TICO  .US                            :11      Compressional Integrated Transit Time Channel
TISH  .US                            :12      Shear Integrated Transit Time Channel
TISH  .US                            :13      Shear Integrated Transit Time Channel
TISH  .US                            :14      Shear Integrated Transit Time Channel
VPVS  .                              :15      Compressional to Shear Velocity Ratio
~Ascii Data Section
# ...
   2635.00000       8.50000     111.93169    -999.25000     259.97473     260.73999      95.79862       9.00426    -999.25000    -999.25000       0.38617    1539.73193   -1059.25000    3130.07349    2849.20557       2.32224 
   2635.50000       8.50000     117.43353    -999.25000     269.23886     271.94678      99.87843       8.65046    -999.25000    -999.25000       0.38300    1543.71594   -1059.25000    3113.78882    2836.84790       2.29706 
   2636.00000       8.50000     119.04173    -999.25000     265.93823     269.73016      98.60501       8.50315    -999.25000    -999.25000       0.37563    1549.06567   -1059.25000    3107.51807    2829.06152       2.24148 
   2636.50000       8.50000     117.33245    -999.25000     254.15523     258.22049      95.09322       8.40425    -999.25000    -999.25000       0.36568    1553.35779   -1059.25000    3113.93042    2828.92285       2.17461 
   2637.00000       8.50000     113.47134    -999.25000     240.48618     244.25708      92.12877       8.21360    -999.25000    -999.25000       0.35766    1555.55493   -1059.25000    3124.73975    2836.81567       2.12472 
   2637.50000       8.50000     108.37610    -999.25000     228.00656     230.26195      88.35217       8.37194    -999.25000    -999.25000       0.35436    1555.37085   -1059.25000    3128.86621    2841.18945       2.10557 
   2638.00000       8.50000     102.08739    -999.25000     219.84311     219.48814      84.52836       8.26631    -999.25000    -999.25000       0.36132    1553.36401   -1059.25000    3118.72363    2835.26245       2.14662 
   2638.50000       8.50000      97.35600    -999.25000     217.66368     211.98405      80.41601       8.13290    -999.25000    -999.25000       0.37335    1551.24133   -1059.25000    3097.96899    2825.69482       2.22503 
   2639.00000       8.50000      98.37431    -999.25000     223.15724     215.06329      83.08958       8.39237    -999.25000    -999.25000       0.37893    1550.93933   -1059.25000    3080.73682    2823.20923       2.26510 
   2639.50000       8.50000     105.83237    -999.25000     237.22318     229.14462      87.71806       8.72672    -999.25000    -999.25000       0.37621    1550.51819   -1059.25000    3080.33179    2829.43359       2.24491 
   2640.00000       8.50000     114.17960    -999.25000     256.12366     251.72720      93.17624       8.39684    -999.25000    -999.25000       0.37585    1547.14380   -1059.25000    3090.79810    2838.25269       2.24225 
   2640.50000       8.50000     118.30527    -999.25000     269.56802     270.33713      96.83583       8.34110    -999.25000    -999.25000       0.38010    1541.82080   -1059.25000    3100.17163    2847.54736       2.27404 
   2641.00000       8.50000     117.05679    -999.25000     270.24280     274.31454      97.84458       8.30160    -999.25000    -999.25000       0.38411    1539.46118   -1059.25000    3101.49707    2852.14966       2.30537 
   2641.50000       8.50000     114.31468    -999.25000     264.61139     266.95636      97.92310       8.37784    -999.25000    -999.25000       0.38509    1541.69678   -1059.25000    3097.88257    2845.38306       2.31328 
   2642.00000       8.50000     112.23209    -999.25000     259.08286     259.80280      95.68674       8.41886    -999.25000    -999.25000       0.38457    1545.15320   -1059.25000    3092.85034    2832.31128       2.30908 
   2642.50000       8.50000     111.53152    -999.25000     254.69960     254.69090      93.60012       8.45110    -999.25000    -999.25000       0.38181    1547.88855   -1059.25000    3086.50684    2816.93457       2.28756 
   2643.00000       8.50000     112.56821    -999.25000     251.93266     252.56329      92.48144       8.48044    -999.25000    -999.25000       0.37623    1548.83252   -1059.25000    3079.72656    2803.44507       2.24617 
   2643.50000       8.50000     115.33019    -999.25000     250.68172     253.46802      91.50254       8.49220    -999.25000    -999.25000       0.36741    1547.78552   -1059.25000    3074.15137    2796.22607       2.18500 
   2644.00000       8.50000     117.20698    -999.25000     249.97307     255.92615      91.76405       8.53324    -999.25000    -999.25000       0.36033    1546.15686   -1059.25000    3072.82446    2800.43457       2.14091 
   2644.50000       8.50000     116.90527    -999.25000     247.98569     256.78751      92.98438       8.42470    -999.25000    -999.25000       0.35764    1545.28491   -1059.25000    3074.78687    2811.21069       2.12432 
   2645.00000       8.50000     114.53323    -999.25000     244.97678     255.78282      92.92387       8.35138    -999.25000    -999.25000       0.35972    1545.28845   -1059.25000    3081.67944    2826.54028       2.13690 
   2645.50000       8.50000     110.75403    -999.25000     240.91196     251.71432      91.38835       8.36020    -999.25000    -999.25000       0.36496    1546.11401   -1059.25000    3094.93506    2844.78247       2.16904 
   2646.00000       8.50000     106.78585    -999.25000     235.46532     242.45570      90.22906       8.36020    -999.25000    -999.25000       0.36974    1547.53638   -1059.25000    3115.77856    2864.66772       2.19983 
   2646.50000       8.50000     105.68569    -999.25000     232.22803     235.38432      91.58253       8.41739    -999.25000    -999.25000       0.36923    1549.37915   -1059.25000    3137.17480    2883.05737       2.19630 
   2647.00000       8.50000     105.13709    -999.25000     230.56094     230.44719      93.34284       8.48483    -999.25000    -999.25000       0.36893    1551.68005   -1059.25000    3159.63574    2902.21143       2.19428 
   2647.50000       8.50000     105.69082    -999.25000     232.03200     229.77544      95.91628       8.57277    -999.25000    -999.25000       0.36908    1554.89661   -1059.25000    3184.22388    2922.89282       2.19529 
   2648.00000       8.50000     106.91935    -999.25000     236.58685     234.06226      97.61512       8.58746    -999.25000    -999.25000       0.37120    1559.08557   -1059.25000    3207.59082    2942.69727       2.20988 
   2648.50000       8.50000     108.48553    -999.25000     242.68474     240.83018      98.87634       8.56550    -999.25000    -999.25000       0.37430    1563.76111   -1059.25000    3230.34668    2962.06274       2.23128 
   2649.00000       8.50000     110.11504    -999.25000     260.10599     257.49771      96.95376       8.47056    -999.25000    -999.25000       0.38886    1573.65649   -1059.25000    3260.98535    2987.16260       2.34717 
   2649.50000       8.50000     110.87645    -999.25000     271.25620     266.01746      93.73886       8.56633    -999.25000    -999.25000       0.39867    1581.04907   -1059.25000    3277.33398    2995.03784       2.43682 
   2650.00000       8.50000     112.35508    -999.25000     273.52124     270.17346      94.47887       8.54734    -999.25000    -999.25000       0.39871    1584.83862   -1059.25000    3279.38477    2994.42822       2.43703 
   2650.50000       8.50000     115.62394    -999.25000     274.76578     277.13016      94.45129       8.56805    -999.25000    -999.25000       0.39311    1585.24011   -1059.25000    3275.94067    2995.31982       2.38341 
   2651.00000       8.50000     118.53543    -999.25000     280.60660     287.95581      93.97643       8.76641    -999.25000    -999.25000       0.39142    1583.19568   -1059.25000    3279.93311    3003.18213       2.36747 
   2651.50000       8.50000     118.74091    -999.25000     287.30423     293.80176      89.72019       8.84895    -999.25000    -999.25000       0.39627    1582.10986   -1059.25000    3295.75244    3019.47217       2.41273 
   2652.00000       8.50000     117.01026    -999.25000     283.67154     286.61978      92.37872       8.37799    -999.25000    -999.25000       0.39743    1587.09717   -1059.25000    3311.87378    3038.20044       2.42386 
   2652.50000       8.50000     115.38462    -999.25000     277.12994     273.73242      94.97507       8.53893    -999.25000    -999.25000       0.39542    1594.63794   -1059.25000    3322.29590    3053.72290       2.40448 
