~Version Information
VERS  .          2.0                              :CWLS Log Ascii Standard - Version 2.0
WRAP  .          NO                               :One line per depth step
~Well Information Block
#MNEM.UNIT       Data Type                        Information
#---------       ---------                        -------------------------------
STRT  .F         2077.00000                       :START DEPTH
STOP  .F         4158.00000                       :STOP DEPTH
STEP  .F          0.50000                         :INCREMENT
NULL  .          -999.25                          :NULL DATA VALUE
COMP  .          ConocoPhillips Alaska Inc.       :COMPANY
WELL  .          Tinmiaq-2                        :WELL
FLD   .          Exploration                      :FIELD
LOC   .                                           :LOCATION
PROV  .          Alaska                           :PROVINCE
STAT  .          Alaska                           :STATE
CNTY  .          North Slope                      :COUNTY
CTRY  .          U.S.A.                           :COUNTRY
DATE  .                                           :DATE
UWI   .                                           :UNIQUE WELL UWI
LIC   .                                           :LICENSE NUMBER
API   .          50-103-20730-00-00               :API NUMBER
SRVC  .          SLB                              :SERVICE COMPANY
~Parameter Information Block
#MNEM.UNIT       Value                            Description
#---------       ---------                        -------------
PDAT  .          MSL                              :Permanent Datum               
EPD   .ft        0.00                             :Elevation of Permanent Datum (PDAT) above Mean Sea Level
LMF   .          DF                               :Logging Measured From (Name of Working Datum)
APD   .ft        89.47                            :Elevation of Working Datum (LMF) Above Permanent Datum
EKB   .ft        0.00                             :Elevation of Kelly Bushing Above Mean Sea Level
EGL   .ft        62.00                            :Elevation of Ground Level Above Mean Sea Level
EDF   .ft        89.47                            :Elevation of Derrick Floor Above Mean Sea Level
~Curve Information Block
#MNEM.UNIT       API Code            Curve    Description
#--------        --------------      -----    -------------------
DEPT  .F                             :0       Index
BS    .IN                            :1       Bit Size                      
DTCO  .US/F                          :2       Delta-T Compressional         
DTRS  .US/F                          :3       Delta-T Shear, Receiver Array - Monopole P&S
DT_XD_R.US/F                          :4       Delta-T Shear, Receiver Array - X Dipole
DT_YD_R.US/F                          :5       Delta-T Shear, Receiver Array - Y Dipole
GR_EDTC.GAPI                          :6       Gamma Ray                     
HCAL  .IN                            :7       HRCC Caliper Calibrated       
HD1_PPC1.IN                            :8       PPC1 Hole Diameter 1          
HD2_PPC1.IN                            :9       PPC1 Hole Diameter 2          
PR    .                              :10      Poisson's Ratio               
TICO  .US                            :11      Compressional Integrated Transit Time Channel
TISH  .US                            :12      Shear Integrated Transit Time Channel
TISH  .US                            :13      Shear Integrated Transit Time Channel
TISH  .US                            :14      Shear Integrated Transit Time Channel
VPVS  .                              :15      Compressional to Shear Velocity Ratio
~Ascii Data Section
# ...
   2905.00000       8.50000      92.47828    -999.25000     188.75812     190.28772      81.31651       8.42735    -999.25000    -999.25000       0.34200    1309.21887    2479.19214    2373.38867    2176.04272       2.04075 
   2905.50000       8.50000      95.25024    -999.25000     193.79424     192.07129      84.85061       8.46671    -999.25000    -999.25000       0.34095    1308.34302    2474.02295    2370.92847    2172.07715       2.03559 
   2906.00000       8.50000      96.78344    -999.25000     196.72163     193.41341      85.36221       8.42017    -999.25000    -999.25000       0.34040    1305.71802     426.98282    2368.61279    2168.89233       2.03293 
   2906.50000       8.50000      96.60639    -999.25000     197.35977     194.04538      84.44409       8.42482    -999.25000    -999.25000       0.34214    1303.77917   -1059.25000    2366.79370    2166.59497       2.04150 
   2907.00000       8.50000      95.52797    -999.25000     196.65204     194.08199      84.62093       8.68527    -999.25000    -999.25000       0.34510    1305.36353   -1059.25000    2365.24634    2164.77246       2.05629 
   2907.50000       8.50000      94.36000    -999.25000     194.94041     193.68800      86.31004       9.07652    -999.25000    -999.25000       0.34678    1310.88928   -1059.25000    2364.38013    2163.55664       2.06479 
   2908.00000       8.50000      93.22287    -999.25000     193.06152     193.47823      87.23562       9.07775    -999.25000    -999.25000       0.34784    1318.49915   -1059.25000    2367.83936    2164.59619       2.07030 
   2908.50000       8.50000      91.89776    -999.25000     191.51515     193.07228      86.63184       8.62618    -999.25000    -999.25000       0.35007    1325.34167   -1059.25000    2381.15503    2171.60889       2.08210 
   2909.00000       8.50000      91.11700    -999.25000     190.19101     192.73444      87.16421       8.41787    -999.25000    -999.25000       0.35095    1329.51294   -1059.25000    2405.69995    2188.87720       2.08680 
   2909.50000       8.50000      92.34924    -999.25000     190.32233     192.84720      86.73592       8.52667    -999.25000    -999.25000       0.34671    1332.29333   -1059.25000    2436.44629    2217.81616       2.06504 
   2910.00000       8.50000      95.20766    -999.25000     191.22981     193.02156      84.55001       8.83570    -999.25000    -999.25000       0.33681    1335.93140   -1059.25000    2465.16699    2252.06958       2.01653 
   2910.50000       8.50000      97.52822    -999.25000     193.08276     194.28758      82.11709       9.23623    -999.25000    -999.25000       0.32970    1341.47876   -1059.25000    2486.26367    2280.64771       1.98412 
   2911.00000       8.50000      96.83551    -999.25000     193.79625     195.70256      80.93144       8.84268    -999.25000    -999.25000       0.33289    1348.70459   -1059.25000    2500.00732    2298.81616       1.99815 
   2911.50000       8.50000      94.90310    -999.25000     193.97591     196.48869      84.23771       8.48850    -999.25000    -999.25000       0.34131    1356.36584   -1059.25000    2507.63354    2309.05493       2.03761 
   2912.00000       8.50000      96.49637    -999.25000     198.24988     198.06792      86.71900       8.61695    -999.25000    -999.25000       0.34439    1365.36292   -1059.25000    2517.04175    2316.85376       2.05266 
   2912.50000       8.50000     102.51855    -999.25000     209.73950     207.29257      91.58994       8.55853    -999.25000    -999.25000       0.34328    1375.53357   -1059.25000    2534.48218    2329.67334       2.04705 
   2913.00000       8.50000     109.72173    -999.25000     226.85939     222.84085      93.44360       8.55080    -999.25000    -999.25000       0.34668    1387.17371   -1059.25000    2559.07715    2349.65234       2.06440 
   2913.50000       8.50000     113.03123    -999.25000     239.70155     237.24384      96.39815       8.38871    -999.25000    -999.25000       0.35548    1398.90002   -1059.25000    2586.53760    2374.64648       2.11276 
   2914.00000       8.50000     110.61016    -999.25000     240.78099     239.35759      95.74729       8.34012    -999.25000    -999.25000       0.36483    1408.68665   -1059.25000    2613.22168    2401.74707       2.16881 
   2914.50000       8.50000     105.31139    -999.25000     229.99202     230.20944      93.78471       8.39341    -999.25000    -999.25000       0.36710    1415.34290   -1059.25000    2637.43799    2425.83154       2.18240 
   2915.00000       8.50000     100.36499    -999.25000     215.19298     216.25529      89.61163       8.48832    -999.25000    -999.25000       0.36172    1419.58130   -1059.25000    2657.81030    2445.62915       2.14924 
   2915.50000       8.50000      98.31863    -999.25000     203.86012     204.99527      88.11915       8.38449    -999.25000    -999.25000       0.34995    1423.57166   -1059.25000    2674.39746    2463.42334       2.08364 
   2916.00000       8.50000      98.83833    -999.25000     202.51028     202.53342      89.44167       8.29502    -999.25000    -999.25000       0.34436    1429.05530   -1059.25000    2688.73999    2480.06494       2.05291 
   2916.50000       8.50000     101.00211    -999.25000     212.05162     210.20518      92.61076       8.33665    -999.25000    -999.25000       0.35151    1435.81873   -1059.25000    2703.73511    2495.35254       2.09163 
   2917.00000       8.50000     104.28402    -999.25000     228.32021     224.63702      96.22412       8.44465    -999.25000    -999.25000       0.36546    1442.31226   -1059.25000    2720.99292    2512.18384       2.17521 
   2917.50000       8.50000     107.93324    -999.25000     243.76649     238.52641      98.51314       8.51164    -999.25000    -999.25000       0.37646    1447.50134   -1059.25000    2738.96875    2533.06738       2.24770 
   2918.00000       8.50000     111.26601    -999.25000     250.29974     245.74049      99.75632       8.55914    -999.25000    -999.25000       0.37695    1451.62878   -1059.25000    2754.30688    2554.25562       2.25096 
   2918.50000       8.50000     113.36858    -999.25000     247.40335     246.93651      99.30208       8.65112    -999.25000    -999.25000       0.36839    1454.76990   -1059.25000    2764.12915    2569.90845       2.19239 
   2919.00000       8.50000     113.53662    -999.25000     240.14139     243.34703      98.92758       8.21667    -999.25000    -999.25000       0.35763    1455.56726   -1059.25000    2768.48584    2578.57300       2.12507 
   2919.50000       8.50000     111.79777    -999.25000     233.05675     237.28333      95.22171       8.22011    -999.25000    -999.25000       0.35138    1453.80383   -1059.25000    2769.78442    2582.34937       2.08924 
   2920.00000       8.50000     108.78252     221.84251     228.07198     229.67873      91.06244       8.17768    -999.25000    -999.25000       0.35243    1451.36646   -1059.25000    2769.50024    2583.81152       2.09488 
   2920.50000       8.50000     106.25627     223.13098     225.22282     225.07625      87.63102       8.18894    -999.25000    -999.25000       0.35623    1450.08057   -1059.25000    2768.87109    2580.93994       2.11622 
   2921.00000       8.50000     105.90910     218.08804     227.82219     225.76172      88.66125       8.27220    -999.25000    -999.25000       0.36137    1449.99927   -1059.25000    2767.19165    2569.17896       2.14644 
   2921.50000       8.50000     107.41165     219.40833     232.87926     229.45564      95.17986       8.19890    -999.25000    -999.25000       0.36450    1447.56750    2886.01978    2757.02710    2545.46191       2.16571 
   2922.00000       8.50000     108.64563     219.40578     233.09387     229.60271      98.49774       8.27220    -999.25000    -999.25000       0.36174    1440.52441    2868.62158    2735.19458    2518.39478       2.14864 
   2922.50000       8.50000     107.03970     211.43393     222.09846     222.49725      96.86566       8.27960    -999.25000    -999.25000       0.35048    1430.46313    2851.88452    2708.97803    2497.61206       2.08484 
